$GPGGA,082551.41,3946.6531,N,11620.4953,E,1,4,4.166,102.787,M,-10.333,M,0,*41
$GPRMC,082551.41,A,3946.6531,N,11620.4953,E,42.905,20.945,100710,0,W,A*36
$GPVTG,20.945,T,20.945,M,42.905,N,79.461,K,A*24
$GPGSA,A,3,3,13,19,16,,,,,,,,,5.278,4.166,3.240*04
$GPGGA,082552.41,3946.6682,N,11620.5001,E,1,4,4.168,83.604,M,-10.333,M,0,*7A
$GPRMC,082552.41,A,3946.6682,N,11620.5001,E,35.990,92.858,100710,0,W,A*39
$GPVTG,92.858,T,92.858,M,35.990,N,66.653,K,A*25
$GPGSA,A,3,3,13,19,16,,,,,,,,,5.278,4.168,3.239*04
$GPGGA,082553.41,3946.6626,N,11620.5169,E,1,4,4.169,81.835,M,-10.333,M,0,*75
$GPRMC,082553.41,A,3946.6626,N,11620.5169,E,35.323,93.676,100710,0,W,A*38
$GPVTG,93.676,T,93.676,M,35.323,N,65.418,K,A*29
$GPGSA,A,3,3,13,19,16,,,,,,,,,5.278,4.169,3.237*0B
$GPGGA,082554.41,3946.6561,N,11620.5334,E,1,4,4.170,75.713,M,-10.333,M,0,*70
$GPRMC,082554.41,A,3946.6561,N,11620.5334,E,34.007,94.463,100710,0,W,A*30
$GPVTG,94.463,T,94.463,M,34.007,N,62.981,K,A*27
$GPGSA,A,3,3,13,19,16,,,,,,,,,5.279,4.170,3.236*03
$GPGGA,082555.41,3946.6488,N,11620.5494,E,1,4,4.171,72.997,M,-10.333,M,0,*7E
$GPRMC,082555.41,A,3946.6488,N,11620.5494,E,33.411,96.039,100710,0,W,A*37
$GPVTG,96.039,T,96.039,M,33.411,N,61.878,K,A*27
$GPGSA,A,3,3,13,19,16,,,,,,,,,5.279,4.171,3.235*01
$GPGSV,6,1,21,1,5,,37,3,78,58,27,4,5,,,6,61,54,*78
$GPGSV,6,2,21,7,38,313,,8,4,313,,9,5,,,11,1,193,*48
$GPGSV,6,3,21,13,41,251,32,14,5,,,15,5,,,16,36,69,43*44
$GPGSV,6,4,21,18,5,,,19,67,201,35,20,5,,,21,9,40,40*75
$GPGSV,6,5,21,23,30,219,43,24,31,94,,25,5,,,27,5,,*4D
$GPGSV,6,6,21,31,5,,*4D
$GPGGA,082556.41,3946.6417,N,11620.5639,E,1,4,4.173,72.301,M,-10.333,M,0,*79
$GPRMC,082556.41,A,3946.6417,N,11620.5639,E,31.442,96.383,100710,0,W,A*31
$GPVTG,96.383,T,96.383,M,31.442,N,58.231,K,A*2E
$GPGSA,A,3,3,13,19,16,,,,,,,,,5.279,4.173,3.234*02
$GPGGA,082557.41,3946.6291,N,11620.5787,E,1,6,2.334,58.618,M,-10.333,M,0,*74
$GPRMC,082557.41,A,3946.6291,N,11620.5787,E,30.597,95.594,100710,0,W,A*37
$GPVTG,95.594,T,95.594,M,30.597,N,56.666,K,A*2E
$GPGSA,A,3,3,13,23,19,16,21,,,,,,,2.906,2.334,1.731*01
$GPGGA,082558.41,3946.6275,N,11620.5897,E,1,6,2.334,58.138,M,-10.333,M,0,*7A
$GPRMC,082558.41,A,3946.6275,N,11620.5897,E,31.906,97.629,100710,0,W,A*3E
$GPVTG,97.629,T,97.629,M,31.906,N,59.090,K,A*2B
$GPGSA,A,3,3,13,23,19,16,21,,,,,,,2.906,2.334,1.731*01
$GPGGA,082559.41,3946.6239,N,11620.6025,E,1,6,2.333,53.978,M,-10.333,M,0,*71
$GPRMC,082559.41,A,3946.6239,N,11620.6025,E,32.089,96.908,100710,0,W,A*35
$GPVTG,96.908,T,96.908,M,32.089,N,59.429,K,A*20
$GPGSA,A,3,3,13,23,19,16,21,,,,,,,2.905,2.333,1.731*05
$GPGGA,082600.41,3946.6214,N,11620.6147,E,1,6,2.333,47.017,M,-10.333,M,0,*71
$GPRMC,082600.41,A,3946.6214,N,11620.6147,E,33.737,95.530,100710,0,W,A*37
$GPVTG,95.530,T,95.530,M,33.737,N,62.481,K,A*29
$GPGSA,A,3,3,13,23,19,16,21,,,,,,,2.905,2.333,1.730*04
$GPGSV,3,1,12,1,5,,39,3,78,58,30,6,61,54,,7,38,313,*79
$GPGSV,3,2,12,8,4,313,,11,1,193,,13,41,251,33,16,36,69,42*76
$GPGSV,3,3,12,19,67,201,34,21,9,40,36,23,30,219,40,24,31,94,40*4D
$GPGGA,082601.41,3946.6195,N,11620.6268,E,1,6,2.333,42.776,M,-10.333,M,0,*71
$GPRMC,082601.41,A,3946.6195,N,11620.6268,E,34.318,94.857,100710,0,W,A*31
$GPVTG,94.857,T,94.857,M,34.318,N,63.556,K,A*2D
$GPGSA,A,3,3,13,23,19,16,21,,,,,,,2.904,2.333,1.730*05
$GPGGA,082602.41,3946.6186,N,11620.6389,E,1,6,2.333,40.695,M,-10.333,M,0,*70
$GPRMC,082602.41,A,3946.6186,N,11620.6389,E,35.793,94.996,100710,0,W,A*34
$GPVTG,94.996,T,94.996,M,35.793,N,66.289,K,A*2B
$GPGSA,A,3,3,13,23,19,16,21,,,,,,,2.904,2.333,1.729*0D
$GPGGA,082603.41,3946.6180,N,11620.6515,E,1,6,2.332,41.497,M,-10.333,M,0,*74
$GPRMC,082603.41,A,3946.6180,N,11620.6515,E,36.395,94.704,100710,0,W,A*34
$GPVTG,94.704,T,94.704,M,36.395,N,67.403,K,A*2F
$GPGSA,A,3,3,13,23,19,16,21,,,,,,,2.903,2.332,1.729*0B
$GPGGA,082604.41,3946.6174,N,11620.6648,E,1,6,2.332,42.149,M,-10.333,M,0,*76
$GPRMC,082604.41,A,3946.6174,N,11620.6648,E,37.788,94.877,100710,0,W,A*31
$GPVTG,94.877,T,94.877,M,37.788,N,69.984,K,A*2A
$GPGSA,A,3,3,13,23,19,16,21,,,,,,,2.903,2.332,1.729*0B
$GPGGA,082605.41,3946.6170,N,11620.6782,E,1,6,2.332,42.838,M,-10.333,M,0,*7B
$GPRMC,082605.41,A,3946.6170,N,11620.6782,E,38.456,94.998,100710,0,W,A*3C
$GPVTG,94.998,T,94.998,M,38.456,N,71.220,K,A*29
$GPGSA,A,3,3,13,23,19,16,21,,,,,,,2.902,2.332,1.728*0B
$GPGSV,3,1,12,1,5,,39,3,78,58,31,6,61,54,,7,38,313,36*7D
$GPGSV,3,2,12,8,4,313,,11,1,193,,13,41,250,34,16,36,69,42*70
$GPGSV,3,3,12,19,67,201,32,21,9,40,36,23,30,219,40,24,31,94,40*4B
$GPGGA,082606.41,3946.6166,N,11620.6916,E,1,6,2.332,43.790,M,-10.333,M,0,*70
$GPRMC,082606.41,A,3946.6166,N,11620.6916,E,39.693,95.073,100710,0,W,A*3C
$GPVTG,95.073,T,95.073,M,39.693,N,73.511,K,A*24
$GPGSA,A,3,3,13,23,19,16,21,,,,,,,2.902,2.332,1.728*0B
$GPGGA,082607.41,3946.6161,N,11620.7056,E,1,6,2.331,44.530,M,-10.333,M,0,*76
$GPRMC,082607.41,A,3946.6161,N,11620.7056,E,39.979,93.919,100710,0,W,A*3E
$GPVTG,93.919,T,93.919,M,39.979,N,74.042,K,A*2B
$GPGSA,A,3,3,13,23,19,16,21,,,,,,,2.902,2.331,1.727*07
$GPGGA,082608.41,3946.6153,N,11620.7198,E,1,6,2.331,44.947,M,-10.333,M,0,*77
$GPRMC,082608.41,A,3946.6153,N,11620.7198,E,39.636,94.317,100710,0,W,A*34
$GPVTG,94.317,T,94.317,M,39.636,N,73.406,K,A*2C
$GPGSA,A,3,3,13,23,19,16,21,,,,,,,2.901,2.331,1.727*04
$GPGGA,082609.41,3946.6147,N,11620.7339,E,1,6,2.331,45.665,M,-10.333,M,0,*74
$GPRMC,082609.41,A,3946.6147,N,11620.7339,E,38.899,93.956,100710,0,W,A*3B
$GPVTG,93.956,T,93.956,M,38.899,N,72.041,K,A*20
$GPGSA,A,3,3,13,23,19,16,21,,,,,,,2.901,2.331,1.727*04
$GPGGA,082610.41,3946.6142,N,11620.7477,E,1,6,2.330,46.324,M,-10.333,M,0,*76
$GPRMC,082610.41,A,3946.6142,N,11620.7477,E,38.950,93.472,100710,0,W,A*34
$GPVTG,93.472,T,93.472,M,38.950,N,72.135,K,A*26
$GPGSA,A,3,3,13,23,19,16,21,,,,,,,2.900,2.330,1.726*05
$GPGSV,3,1,12,1,5,,35,3,78,58,35,6,61,54,32,7,38,313,35*77
$GPGSV,3,2,12,8,4,313,,11,1,193,,13,41,250,35,16,36,70,43*78
$GPGSV,3,3,12,19,67,201,31,21,9,40,33,23,30,219,36,24,31,94,40*4C
$GPGGA,082611.41,3946.6136,N,11620.7617,E,1,6,2.330,46.812,M,-10.333,M,0,*7E
$GPRMC,082611.41,A,3946.6136,N,11620.7617,E,39.631,94.776,100710,0,W,A*3B
$GPVTG,94.776,T,94.776,M,39.631,N,73.397,K,A*24
$GPGSA,A,3,3,13,23,19,16,21,,,,,,,2.900,2.330,1.726*05
$GPGGA,082612.41,3946.6129,N,11620.7758,E,1,6,2.330,47.375,M,-10.333,M,0,*72
$GPRMC,082612.41,A,3946.6129,N,11620.7758,E,39.611,94.943,100710,0,W,A*36
$GPVTG,94.943,T,94.943,M,39.611,N,73.360,K,A*2E
$GPGSA,A,3,3,13,23,19,16,21,,,,,,,2.899,2.330,1.726*04
$GPGGA,082613.41,3946.6125,N,11620.7898,E,1,6,2.330,48.250,M,-10.333,M,0,*75
$GPRMC,082613.41,A,3946.6125,N,11620.7898,E,38.991,93.056,100710,0,W,A*34
$GPVTG,93.056,T,93.056,M,38.991,N,72.212,K,A*2D
$GPGSA,A,3,3,13,23,19,16,21,,,,,,,2.899,2.330,1.725*07
$GPGGA,082614.41,3946.6121,N,11620.8038,E,1,6,2.329,49.060,M,-10.333,M,0,*73
$GPRMC,082614.41,A,3946.6121,N,11620.8038,E,39.409,94.040,100710,0,W,A*37
$GPVTG,94.040,T,94.040,M,39.409,N,72.985,K,A*25
$GPGSA,A,3,3,13,23,19,16,21,,,,,,,2.898,2.329,1.725*0E
$GPGGA,082615.41,3946.6112,N,11620.8181,E,1,6,2.329,49.705,M,-10.333,M,0,*75
$GPRMC,082615.41,A,3946.6112,N,11620.8181,E,40.210,94.478,100710,0,W,A*3A
$GPVTG,94.478,T,94.478,M,40.210,N,74.470,K,A*24
$GPGSA,A,3,3,13,23,19,16,21,,,,,,,2.898,2.329,1.724*0F
$GPGSV,3,1,12,1,5,,37,3,78,58,39,6,61,54,38,7,38,313,33*75
$GPGSV,3,2,12,8,4,314,,11,1,193,,13,41,250,33,16,36,70,42*78
$GPGSV,3,3,12,19,67,201,32,21,9,40,30,23,30,219,30,24,31,94,35*48
$GPGGA,082616.41,3946.6103,N,11620.8326,E,1,6,2.329,49.925,M,-10.333,M,0,*75
$GPRMC,082616.41,A,3946.6103,N,11620.8326,E,40.396,93.961,100710,0,W,A*3B
$GPVTG,93.961,T,93.961,M,40.396,N,74.814,K,A*25
$GPGSA,A,3,3,13,23,19,16,21,,,,,,,2.898,2.329,1.724*0F
$GPGGA,082617.41,3946.6094,N,11620.8472,E,1,6,2.329,49.760,M,-10.333,M,0,*72
$GPRMC,082617.41,A,3946.6094,N,11620.8472,E,40.256,93.740,100710,0,W,A*33
$GPVTG,93.740,T,93.740,M,40.256,N,74.555,K,A*20
$GPGSA,A,3,3,13,23,19,16,21,,,,,,,2.897,2.329,1.724*00
$GPGGA,082618.41,3946.6083,N,11620.8621,E,1,6,2.328,49.360,M,-10.333,M,0,*7A
$GPRMC,082618.41,A,3946.6083,N,11620.8621,E,40.703,93.341,100710,0,W,A*3E
$GPVTG,93.341,T,93.341,M,40.703,N,75.382,K,A*28
$GPGSA,A,3,3,13,23,19,16,21,,,,,,,2.897,2.328,1.723*06
$GPGGA,082619.41,3946.6076,N,11620.8771,E,1,6,2.328,49.354,M,-10.333,M,0,*72
$GPRMC,082619.41,A,3946.6076,N,11620.8771,E,40.672,93.341,100710,0,W,A*36
$GPVTG,93.341,T,93.341,M,40.672,N,75.324,K,A*23
$GPGSA,A,3,3,13,23,19,16,21,,,,,,,2.896,2.328,1.723*07
$GPGGA,082620.41,3946.6071,N,11620.8915,E,1,6,2.328,48.927,M,-10.333,M,0,*7C
$GPRMC,082620.41,A,3946.6071,N,11620.8915,E,39.446,93.778,100710,0,W,A*32
$GPVTG,93.778,T,93.778,M,39.446,N,73.053,K,A*2D
$GPGSA,A,3,3,13,23,19,16,21,,,,,,,2.896,2.328,1.722*06
$GPGSV,3,1,12,1,5,,34,3,78,58,35,6,61,54,37,7,38,313,33*75
$GPGSV,3,2,12,8,4,314,,11,1,193,,13,41,250,35,16,36,70,42*7E
$GPGSV,3,3,12,19,67,201,32,21,9,40,34,23,30,219,28,24,31,94,38*48
$GPGGA,082621.41,3946.6068,N,11620.9054,E,1,6,2.327,48.223,M,-10.333,M,0,*78
$GPRMC,082621.41,A,3946.6068,N,11620.9054,E,40.088,94.881,100710,0,W,A*30
$GPVTG,94.881,T,94.881,M,40.088,N,74.243,K,A*21
$GPGSA,A,3,3,13,23,19,16,21,,,,,,,2.895,2.327,1.722*0A
$GPGGA,082622.41,3946.6060,N,11620.9197,E,1,6,2.327,47.926,M,-10.333,M,0,*7C
$GPRMC,082622.41,A,3946.6060,N,11620.9197,E,40.549,95.407,100710,0,W,A*3E
$GPVTG,95.407,T,95.407,M,40.549,N,75.096,K,A*22
$GPGSA,A,3,3,13,23,19,16,21,,,,,,,2.895,2.327,1.722*0A
$GPGGA,082623.41,3946.6050,N,11620.9341,E,1,6,2.327,47.470,M,-10.333,M,0,*79
$GPRMC,082623.41,A,3946.6050,N,11620.9341,E,40.788,95.289,100710,0,W,A*3A
$GPVTG,95.289,T,95.289,M,40.788,N,75.539,K,A*2D
$GPGSA,A,3,3,13,23,19,16,21,,,,,,,2.894,2.327,1.721*08
$GPGGA,082624.41,3946.6040,N,11620.9487,E,1,6,2.327,47.625,M,-10.333,M,0,*70
$GPRMC,082624.41,A,3946.6040,N,11620.9487,E,40.450,94.107,100710,0,W,A*33
$GPVTG,94.107,T,94.107,M,40.450,N,74.913,K,A*2E
$GPGSA,A,3,3,13,23,19,16,21,,,,,,,2.894,2.327,1.721*08
$GPGGA,082625.41,3946.6029,N,11620.9636,E,1,6,2.326,47.811,M,-10.333,M,0,*7E
$GPRMC,082625.41,A,3946.6029,N,11620.9636,E,41.067,93.950,100710,0,W,A*39
$GPVTG,93.950,T,93.950,M,41.067,N,76.056,K,A*25
$GPGSA,A,3,3,13,23,19,16,21,,,,,,,2.893,2.326,1.721*0E
$GPGSV,3,1,11,3,78,58,33,6,61,54,36,7,38,313,31,8,4,314,*4A
$GPGSV,3,2,11,11,1,193,,13,41,250,31,16,36,70,40,19,67,201,30*78
$GPGSV,3,3,11,21,9,40,31,23,30,219,26,24,31,94,35*76
$GPGGA,082626.41,3946.6020,N,11620.9787,E,1,6,2.326,47.871,M,-10.333,M,0,*79
$GPRMC,082626.41,A,3946.6020,N,11620.9787,E,40.962,93.935,100710,0,W,A*36
$GPVTG,93.935,T,93.935,M,40.962,N,75.861,K,A*27
$GPGSA,A,3,3,13,23,19,16,21,,,,,,,2.893,2.326,1.720*0F
$GPGGA,082627.41,3946.6009,N,11620.9936,E,1,6,2.326,47.785,M,-10.333,M,0,*73
$GPRMC,082627.41,A,3946.6009,N,11620.9936,E,40.585,94.312,100710,0,W,A*35
$GPVTG,94.312,T,94.312,M,40.585,N,75.164,K,A*2E
$GPGSA,A,3,3,13,23,19,16,21,,,,,,,2.893,2.326,1.720*0F
$GPGGA,082628.41,3946.6001,N,11621.0083,E,1,6,2.326,48.172,M,-10.333,M,0,*7A
$GPRMC,082628.41,A,3946.6001,N,11621.0083,E,40.338,94.354,100710,0,W,A*3F
$GPVTG,94.354,T,94.354,M,40.338,N,74.705,K,A*2E
$GPGSA,A,3,3,13,23,19,16,21,,,,,,,2.892,2.326,1.719*04
$GPGGA,082629.41,3946.5992,N,11621.0225,E,1,6,2.325,48.313,M,-10.333,M,0,*73
$GPRMC,082629.41,A,3946.5992,N,11621.0225,E,39.181,94.799,100710,0,W,A*3B
$GPVTG,94.799,T,94.799,M,39.181,N,72.564,K,A*23
$GPGSA,A,3,3,13,23,19,16,21,,,,,,,2.892,2.325,1.719*07
$GPGGA,082630.41,3946.5985,N,11621.0364,E,1,6,2.325,48.406,M,-10.333,M,0,*7A
$GPRMC,082630.41,A,3946.5985,N,11621.0364,E,38.611,94.492,100710,0,W,A*36
$GPVTG,94.492,T,94.492,M,38.611,N,71.508,K,A*25
$GPGSA,A,3,3,13,23,19,16,21,,,,,,,2.891,2.325,1.719*04
$GPGSV,3,1,11,3,78,58,26,6,61,54,35,7,38,313,27,8,4,314,*4A
$GPGSV,3,2,11,11,1,193,,13,41,250,32,16,36,70,38,19,68,201,31*7A
$GPGSV,3,3,11,21,9,40,29,23,30,218,27,24,31,94,35*7F
$GPGGA,082631.41,3946.5978,N,11621.0499,E,1,6,2.325,48.641,M,-10.333,M,0,*7D
$GPRMC,082631.41,A,3946.5978,N,11621.0499,E,37.300,94.583,100710,0,W,A*3B
$GPVTG,94.583,T,94.583,M,37.300,N,69.079,K,A*25
$GPGSA,A,3,3,13,23,19,16,21,,,,,,,2.891,2.325,1.718*05
$GPGGA,082632.41,3946.5971,N,11621.0632,E,1,6,2.324,48.736,M,-10.333,M,0,*74
$GPRMC,082632.41,A,3946.5971,N,11621.0632,E,36.932,94.341,100710,0,W,A*30
$GPVTG,94.341,T,94.341,M,36.932,N,68.397,K,A*2D
$GPGSA,A,3,3,13,23,19,16,21,,,,,,,2.890,2.324,1.718*05
$GPGGA,082633.41,3946.5965,N,11621.0762,E,1,6,2.324,48.654,M,-10.333,M,0,*71
$GPRMC,082633.41,A,3946.5965,N,11621.0762,E,36.164,93.790,100710,0,W,A*34
$GPVTG,93.790,T,93.790,M,36.164,N,66.975,K,A*2E
$GPGSA,A,3,3,13,23,19,16,21,,,,,,,2.890,2.324,1.718*05
$GPGGA,082634.41,3946.5957,N,11621.0891,E,1,6,2.324,48.624,M,-10.333,M,0,*73
$GPRMC,082634.41,A,3946.5957,N,11621.0891,E,36.037,93.858,100710,0,W,A*3D
$GPVTG,93.858,T,93.858,M,36.037,N,66.741,K,A*20
$GPGSA,A,3,3,13,23,19,16,21,,,,,,,2.889,2.324,1.717*02
$GPGGA,082635.41,3946.5950,N,11621.1021,E,1,6,2.324,49.302,M,-10.333,M,0,*77
$GPRMC,082635.41,A,3946.5950,N,11621.1021,E,35.807,93.688,100710,0,W,A*32
$GPVTG,93.688,T,93.688,M,35.807,N,66.315,K,A*2D
$GPGSA,A,3,3,13,23,19,16,21,,,,,,,2.889,2.324,1.717*02
$GPGSV,3,1,11,3,78,58,24,6,61,54,32,7,38,313,26,8,4,314,*4E
$GPGSV,3,2,11,11,1,193,,13,41,250,33,16,35,70,38,19,68,201,23*7B
$GPGSV,3,3,11,21,9,40,35,23,30,218,30,24,31,94,34*75
$GPGGA,082636.41,3946.5942,N,11621.1151,E,1,6,2.323,49.584,M,-10.333,M,0,*7E
$GPRMC,082636.41,A,3946.5942,N,11621.1151,E,35.835,94.224,100710,0,W,A*30
$GPVTG,94.224,T,94.224,M,35.835,N,66.367,K,A*29
$GPGSA,A,3,3,13,23,19,16,21,,,,,,,2.889,2.323,1.716*04
$GPGGA,082637.41,3946.5932,N,11621.1282,E,1,6,2.323,49.931,M,-10.333,M,0,*77
$GPRMC,082637.41,A,3946.5932,N,11621.1282,E,35.949,95.169,100710,0,W,A*3A
$GPVTG,95.169,T,95.169,M,35.949,N,66.577,K,A*24
$GPGSA,A,3,3,13,23,19,16,21,,,,,,,2.888,2.323,1.716*05
$GPGGA,082638.41,3946.5925,N,11621.1410,E,1,6,2.323,50.484,M,-10.333,M,0,*78
$GPRMC,082638.41,A,3946.5925,N,11621.1410,E,35.430,93.803,100710,0,W,A*3E
$GPVTG,93.803,T,93.803,M,35.430,N,65.617,K,A*21
$GPGSA,A,3,3,13,23,19,16,21,,,,,,,2.888,2.323,1.716*05
$GPGGA,082639.41,3946.5918,N,11621.1538,E,1,6,2.322,50.844,M,-10.333,M,0,*7D
$GPRMC,082639.41,A,3946.5918,N,11621.1538,E,35.856,94.474,100710,0,W,A*3D
$GPVTG,94.474,T,94.474,M,35.856,N,66.405,K,A*2F
$GPGSA,A,3,3,13,23,19,16,21,,,,,,,2.887,2.322,1.715*08
$GPGGA,082640.41,3946.5910,N,11621.1666,E,1,6,2.322,51.330,M,-10.333,M,0,*7A
$GPRMC,082640.41,A,3946.5910,N,11621.1666,E,35.094,93.711,100710,0,W,A*32
$GPVTG,93.711,T,93.711,M,35.094,N,64.993,K,A*29
$GPGSA,A,3,3,13,23,19,16,21,,,,,,,2.887,2.322,1.715*08
$GPGSV,3,1,11,3,78,57,24,6,61,54,36,7,38,313,28,8,4,314,*4B
$GPGSV,3,2,11,11,1,193,,13,41,250,34,16,35,70,37,19,68,201,28*78
$GPGSV,3,3,11,21,9,40,32,23,30,218,28,24,31,93,33*7B
$GPGGA,082641.41,3946.5904,N,11621.1792,E,1,6,2.322,51.972,M,-10.333,M,0,*78
$GPRMC,082641.41,A,3946.5904,N,11621.1792,E,34.229,93.148,100710,0,W,A*33
$GPVTG,93.148,T,93.148,M,34.229,N,63.392,K,A*20
$GPGSA,A,3,3,13,23,19,16,21,,,,,,,2.886,2.322,1.714*08
$GPGGA,082642.41,3946.5897,N,11621.1916,E,1,6,2.322,52.440,M,-10.333,M,0,*7D
$GPRMC,082642.41,A,3946.5897,N,11621.1916,E,34.147,93.408,100710,0,W,A*33
$GPVTG,93.408,T,93.408,M,34.147,N,63.241,K,A*24
$GPGSA,A,3,3,13,23,19,16,21,,,,,,,2.886,2.322,1.714*08
$GPGGA,082643.41,3946.5890,N,11621.2038,E,1,6,2.321,53.053,M,-10.333,M,0,*79
$GPRMC,082643.41,A,3946.5890,N,11621.2038,E,33.909,94.860,100710,0,W,A*33
$GPVTG,94.860,T,94.860,M,33.909,N,62.800,K,A*2F
$GPGSA,A,3,3,13,23,19,16,21,,,,,,,2.885,2.321,1.714*08
$GPGGA,082644.41,3946.5885,N,11621.2157,E,1,6,2.321,54.205,M,-10.333,M,0,*74
$GPRMC,082644.41,A,3946.5885,N,11621.2157,E,32.638,91.801,100710,0,W,A*36
$GPVTG,91.801,T,91.801,M,32.638,N,60.446,K,A*2F
$GPGSA,A,3,3,13,23,19,16,21,,,,,,,2.885,2.321,1.713*0F
$GPGGA,082645.41,3946.5879,N,11621.2276,E,1,6,2.321,54.423,M,-10.333,M,0,*74
$GPRMC,082645.41,A,3946.5879,N,11621.2276,E,33.429,93.495,100710,0,W,A*34
$GPVTG,93.495,T,93.495,M,33.429,N,61.911,K,A*22
$GPGSA,A,3,3,13,23,19,16,21,,,,,,,2.884,2.321,1.713*0E
$GPGSV,3,1,11,3,78,57,29,6,61,54,36,7,38,313,25,8,4,314,*4B
$GPGSV,3,2,11,11,1,193,,13,41,250,34,16,35,70,37,19,68,201,25*75
$GPGSV,3,3,11,21,9,40,30,23,30,218,28,24,31,93,36*7C
$GPGGA,082646.41,3946.5873,N,11621.2395,E,1,6,2.320,54.975,M,-10.333,M,0,*7E
$GPRMC,082646.41,A,3946.5873,N,11621.2395,E,32.958,93.510,100710,0,W,A*37
$GPVTG,93.510,T,93.510,M,32.958,N,61.038,K,A*2A
$GPGSA,A,3,3,13,23,19,16,21,,,,,,,2.884,2.320,1.713*0F
$GPGGA,082647.41,3946.5865,N,11621.2515,E,1,6,2.320,55.214,M,-10.333,M,0,*7B
$GPRMC,082647.41,A,3946.5865,N,11621.2515,E,33.261,94.700,100710,0,W,A*3B
$GPVTG,94.700,T,94.700,M,33.261,N,61.599,K,A*24
$GPGSA,A,3,3,13,23,19,16,21,,,,,,,2.884,2.320,1.712*0E
$GPGGA,082648.41,3946.5857,N,11621.2632,E,1,6,2.320,55.359,M,-10.333,M,0,*7B
$GPRMC,082648.41,A,3946.5857,N,11621.2632,E,32.462,94.220,100710,0,W,A*30
$GPVTG,94.220,T,94.220,M,32.462,N,60.119,K,A*2D
$GPGSA,A,3,3,13,23,19,16,21,,,,,,,2.883,2.320,1.712*09
$GPGGA,082649.41,3946.5847,N,11621.2750,E,1,6,2.320,55.218,M,-10.333,M,0,*7A
$GPRMC,082649.41,A,3946.5847,N,11621.2750,E,32.477,94.308,100710,0,W,A*3A
$GPVTG,94.308,T,94.308,M,32.477,N,60.148,K,A*2D
$GPGSA,A,3,3,13,23,19,16,21,,,,,,,2.883,2.320,1.711*0A
$GPGGA,082650.41,3946.5838,N,11621.2869,E,1,6,2.319,55.492,M,-10.333,M,0,*71
$GPRMC,082650.41,A,3946.5838,N,11621.2869,E,32.263,94.064,100710,0,W,A*35
$GPVTG,94.064,T,94.064,M,32.263,N,59.750,K,A*2B
$GPGSA,A,3,3,13,23,19,16,21,,,,,,,2.882,2.319,1.711*01
$GPGSV,3,1,11,3,78,57,29,6,61,54,32,7,38,313,31,8,4,314,*4A
$GPGSV,3,2,11,11,1,193,,13,41,250,28,16,35,70,42,19,68,201,30*7E
$GPGSV,3,3,11,21,9,40,37,23,30,218,33,24,31,93,37*70
$GPGGA,082651.41,3946.5829,N,11621.2985,E,1,6,2.319,55.905,M,-10.333,M,0,*70
$GPRMC,082651.41,A,3946.5829,N,11621.2985,E,31.458,93.766,100710,0,W,A*38
$GPVTG,93.766,T,93.766,M,31.458,N,58.261,K,A*20
$GPGSA,A,3,3,13,23,19,16,21,,,,,,,2.882,2.319,1.711*01
$GPGGA,082652.41,3946.5823,N,11621.3097,E,1,6,2.319,56.381,M,-10.333,M,0,*77
$GPRMC,082652.41,A,3946.5823,N,11621.3097,E,30.524,93.547,100710,0,W,A*30
$GPVTG,93.547,T,93.547,M,30.524,N,56.530,K,A*26
$GPGSA,A,3,3,13,23,19,16,21,,,,,,,2.881,2.319,1.710*03
$GPGGA,082653.41,3946.5816,N,11621.3208,E,1,6,2.318,56.476,M,-10.333,M,0,*7A
$GPRMC,082653.41,A,3946.5816,N,11621.3208,E,30.474,93.827,100710,0,W,A*3C
$GPVTG,93.827,T,93.827,M,30.474,N,56.438,K,A*2B
$GPGSA,A,3,3,13,23,19,16,21,,,,,,,2.881,2.318,1.710*02
$GPGGA,082654.41,3946.5809,N,11621.3316,E,1,6,2.318,56.545,M,-10.333,M,0,*7C
$GPRMC,082654.41,A,3946.5809,N,11621.3316,E,30.103,94.326,100710,0,W,A*33
$GPVTG,94.326,T,94.326,M,30.103,N,55.751,K,A*21
$GPGSA,A,3,3,13,23,19,16,21,,,,,,,2.880,2.318,1.710*03
$GPGGA,082655.41,3946.5801,N,11621.3422,E,1,6,2.318,56.119,M,-10.333,M,0,*78
$GPRMC,082655.41,A,3946.5801,N,11621.3422,E,29.514,94.765,100710,0,W,A*33
$GPVTG,94.765,T,94.765,M,29.514,N,54.660,K,A*29
$GPGSA,A,3,3,13,23,19,16,21,,,,,,,2.880,2.318,1.709*0B
$GPGSV,3,1,11,3,78,57,30,6,61,54,33,7,38,313,34,8,4,314,*46
$GPGSV,3,2,11,11,1,193,,13,41,250,25,16,35,70,42,19,68,201,29*7B
$GPGSV,3,3,11,21,9,40,38,23,30,218,33,24,31,93,39*71
$GPGGA,082656.41,3946.5792,N,11621.3527,E,1,6,2.318,55.821,M,-10.333,M,0,*7B
$GPRMC,082656.41,A,3946.5792,N,11621.3527,E,28.612,94.145,100710,0,W,A*31
$GPVTG,94.145,T,94.145,M,28.612,N,52.989,K,A*23
$GPGSA,A,3,3,13,23,19,16,21,,,,,,,2.879,2.318,1.709*0D
$GPGGA,082657.41,3946.5786,N,11621.3631,E,1,6,2.317,55.943,M,-10.333,M,0,*71
$GPRMC,082657.41,A,3946.5786,N,11621.3631,E,28.619,93.653,100710,0,W,A*3D
$GPVTG,93.653,T,93.653,M,28.619,N,53.003,K,A*22
$GPGSA,A,3,3,13,23,19,16,21,,,,,,,2.879,2.317,1.708*03
$GPGGA,082658.41,3946.5781,N,11621.3734,E,1,6,2.317,56.198,M,-10.333,M,0,*70
$GPRMC,082658.41,A,3946.5781,N,11621.3734,E,28.657,93.206,100710,0,W,A*3F
$GPVTG,93.206,T,93.206,M,28.657,N,53.073,K,A*2F
$GPGSA,A,3,3,13,23,19,16,21,,,,,,,2.878,2.317,1.708*02
$GPGGA,082659.41,3946.5775,N,11621.3838,E,1,6,2.317,56.088,M,-10.333,M,0,*79
$GPRMC,082659.41,A,3946.5775,N,11621.3838,E,28.663,93.150,100710,0,W,A*31
$GPVTG,93.150,T,93.150,M,28.663,N,53.084,K,A*20
$GPGSA,A,3,3,13,23,19,16,21,,,,,,,2.878,2.317,1.708*02
$GPGGA,082700.41,3946.5769,N,11621.3944,E,1,6,2.316,56.168,M,-10.333,M,0,*7D
$GPRMC,082700.41,A,3946.5769,N,11621.3944,E,29.381,93.054,100710,0,W,A*36
$GPVTG,93.054,T,93.054,M,29.381,N,54.413,K,A*25
$GPGSA,A,3,3,13,23,19,16,21,,,,,,,2.878,2.316,1.707*0C
$GPGSV,3,1,11,3,78,57,26,6,61,54,34,7,38,313,34,8,4,314,*46
$GPGSV,3,2,11,11,1,193,,13,41,250,24,16,35,70,42,19,68,201,29*7A
$GPGSV,3,3,11,21,9,40,40,23,30,218,29,24,31,93,40*7B
$GPGGA,082701.41,3946.5764,N,11621.4052,E,1,6,2.316,56.341,M,-10.333,M,0,*71
$GPRMC,082701.41,A,3946.5764,N,11621.4052,E,30.237,93.939,100710,0,W,A*35
$GPVTG,93.939,T,93.939,M,30.237,N,55.998,K,A*2E
$GPGSA,A,3,3,13,23,19,16,21,,,,,,,2.877,2.316,1.707*03
$GPGGA,082702.41,3946.5757,N,11621.4163,E,1,6,2.316,55.959,M,-10.333,M,0,*71
$GPRMC,082702.41,A,3946.5757,N,11621.4163,E,30.817,94.087,100710,0,W,A*36
$GPVTG,94.087,T,94.087,M,30.817,N,57.073,K,A*28
$GPGSA,A,3,3,13,23,19,16,21,,,,,,,2.877,2.316,1.706*02
$GPGGA,082703.41,3946.5749,N,11621.4277,E,1,7,1.647,55.691,M,-10.333,M,0,*71
$GPRMC,082703.41,A,3946.5749,N,11621.4277,E,31.432,95.448,100710,0,W,A*32
$GPVTG,95.448,T,95.448,M,31.432,N,58.211,K,A*2B
$GPGSA,A,3,3,13,23,19,16,21,24,,,,,,2.325,1.647,1.642*0B
$GPGGA,082704.41,3946.5742,N,11621.4392,E,1,7,1.647,55.604,M,-10.333,M,0,*7B
$GPRMC,082704.41,A,3946.5742,N,11621.4392,E,31.438,93.814,100710,0,W,A*3D
$GPVTG,93.814,T,93.814,M,31.438,N,58.223,K,A*20
$GPGSA,A,3,3,13,23,19,16,21,24,,,,,,2.325,1.647,1.641*08
$GPGGA,082705.41,3946.5735,N,11621.4508,E,1,7,1.647,55.324,M,-10.333,M,0,*78
$GPRMC,082705.41,A,3946.5735,N,11621.4508,E,32.088,94.232,100710,0,W,A*3C
$GPVTG,94.232,T,94.232,M,32.088,N,59.427,K,A*2F
$GPGSA,A,3,3,13,23,19,16,21,24,,,,,,2.325,1.647,1.641*08
$GPGSV,3,1,11,3,78,57,21,6,61,54,33,7,38,313,34,8,4,314,*46
$GPGSV,3,2,11,11,1,193,,13,41,250,29,16,35,70,42,19,68,201,23*7D
$GPGSV,3,3,11,21,9,40,38,23,30,218,31,24,31,93,39*73
$GPGGA,082706.41,3946.5727,N,11621.4626,E,1,7,1.647,54.807,M,-10.333,M,0,*7C
$GPRMC,082706.41,A,3946.5727,N,11621.4626,E,32.978,94.699,100710,0,W,A*30
$GPVTG,94.699,T,94.699,M,32.978,N,61.076,K,A*22
$GPGSA,A,3,3,13,23,19,16,21,24,,,,,,2.325,1.647,1.641*08
$GPGGA,082707.41,3946.5715,N,11621.4748,E,1,7,1.647,53.761,M,-10.333,M,0,*7D
$GPRMC,082707.41,A,3946.5715,N,11621.4748,E,33.074,94.232,100710,0,W,A*38
$GPVTG,94.232,T,94.232,M,33.074,N,61.253,K,A*23
$GPGSA,A,3,3,13,23,19,16,21,24,,,,,,2.325,1.647,1.640*09
$GPGGA,082708.41,3946.5705,N,11621.4870,E,1,7,1.647,52.875,M,-10.333,M,0,*7C
$GPRMC,082708.41,A,3946.5705,N,11621.4870,E,33.678,95.210,100710,0,W,A*39
$GPVTG,95.210,T,95.210,M,33.678,N,62.372,K,A*28
$GPGSA,A,3,3,13,23,19,16,21,24,,,,,,2.325,1.647,1.640*09
$GPGGA,082709.41,3946.5695,N,11621.4990,E,1,7,1.647,52.183,M,-10.333,M,0,*7A
$GPRMC,082709.41,A,3946.5695,N,11621.4990,E,33.328,95.390,100710,0,W,A*36
$GPVTG,95.390,T,95.390,M,33.328,N,61.723,K,A*2B
$GPGSA,A,3,3,13,23,19,16,21,24,,,,,,2.324,1.647,1.640*08
$GPGGA,082710.41,3946.5686,N,11621.5111,E,1,7,1.647,51.874,M,-10.333,M,0,*72
$GPRMC,082710.41,A,3946.5686,N,11621.5111,E,33.470,95.937,100710,0,W,A*31
$GPVTG,95.937,T,95.937,M,33.470,N,61.986,K,A*20
$GPGSA,A,3,3,13,23,19,16,21,24,,,,,,2.324,1.647,1.640*08
$GPGSV,3,1,11,3,78,57,25,6,61,54,33,7,38,313,34,8,4,314,*42
$GPGSV,3,2,11,11,1,193,,13,41,250,30,16,35,70,43,19,68,201,24*73
$GPGSV,3,3,11,21,9,40,38,23,30,218,30,24,31,93,40*7C
$GPGGA,082711.41,3946.5677,N,11621.5232,E,1,7,1.647,51.677,M,-10.333,M,0,*72
$GPRMC,082711.41,A,3946.5677,N,11621.5232,E,33.475,96.023,100710,0,W,A*36
$GPVTG,96.023,T,96.023,M,33.475,N,61.996,K,A*24
$GPGSA,A,3,3,13,23,19,16,21,24,,,,,,2.324,1.647,1.639*06
$GPGGA,082712.41,3946.5666,N,11621.5354,E,1,7,1.648,51.435,M,-10.333,M,0,*7B
$GPRMC,082712.41,A,3946.5666,N,11621.5354,E,33.275,96.138,100710,0,W,A*39
$GPVTG,96.138,T,96.138,M,33.275,N,61.626,K,A*26
$GPGSA,A,3,3,13,23,19,16,21,24,,,,,,2.324,1.648,1.639*09
$GPGGA,082713.41,3946.5655,N,11621.5474,E,1,6,1.835,50.881,M,-10.333,M,0,*78
$GPRMC,082713.41,A,3946.5655,N,11621.5474,E,33.390,97.137,100710,0,W,A*39
$GPVTG,97.137,T,97.137,M,33.390,N,61.838,K,A*2D
$GPGSA,A,3,13,23,19,16,21,24,,,,,,,2.990,1.835,2.361*30
$GPGGA,082714.41,3946.5643,N,11621.5591,E,1,6,1.835,50.492,M,-10.333,M,0,*7C
$GPRMC,082714.41,A,3946.5643,N,11621.5591,E,33.120,98.342,100710,0,W,A*35
$GPVTG,98.342,T,98.342,M,33.120,N,61.339,K,A*2E
$GPGSA,A,3,13,23,19,16,21,24,,,,,,,2.989,1.835,2.360*39
$GPGGA,082715.41,3946.5630,N,11621.5709,E,1,6,1.835,50.262,M,-10.333,M,0,*73
$GPRMC,082715.41,A,3946.5630,N,11621.5709,E,32.835,98.254,100710,0,W,A*39
$GPVTG,98.254,T,98.254,M,32.835,N,60.810,K,A*23
$GPGSA,A,3,13,23,19,16,21,24,,,,,,,2.989,1.835,2.360*39
$GPGSV,3,1,11,3,78,57,19,6,61,54,30,7,38,313,35,8,4,314,*4F
$GPGSV,3,2,11,11,1,193,,13,41,250,33,16,35,70,43,19,68,201,25*71
$GPGSV,3,3,11,21,9,40,36,23,30,218,34,24,31,93,40*76
$GPGGA,082716.41,3946.5616,N,11621.5827,E,1,7,1.648,49.954,M,-10.333,M,0,*74
$GPRMC,082716.41,A,3946.5616,N,11621.5827,E,32.828,98.483,100710,0,W,A*3D
$GPVTG,98.483,T,98.483,M,32.828,N,60.797,K,A*2F
$GPGSA,A,3,3,13,23,19,16,21,24,,,,,,2.323,1.648,1.638*0F
$GPGGA,082717.41,3946.5601,N,11621.5945,E,1,7,1.648,49.492,M,-10.333,M,0,*71
$GPRMC,082717.41,A,3946.5601,N,11621.5945,E,32.799,100.200,100710,0,W,A*07
$GPVTG,100.200,T,100.200,M,32.799,N,60.744,K,A*24
$GPGSA,A,3,13,23,19,16,21,24,3,,,,,,2.323,1.648,1.638*0F
$GPGGA,082718.41,3946.5586,N,11621.6060,E,1,7,1.648,49.213,M,-10.333,M,0,*70
$GPRMC,082718.41,A,3946.5586,N,11621.6060,E,32.375,101.111,100710,0,W,A*0D
$GPVTG,101.111,T,101.111,M,32.375,N,59.958,K,A*2B
$GPGSA,A,3,13,23,19,16,21,24,3,,,,,,2.323,1.648,1.638*0F
$GPGGA,082719.41,3946.5569,N,11621.6174,E,1,7,1.648,49.386,M,-10.333,M,0,*79
$GPRMC,082719.41,A,3946.5569,N,11621.6174,E,32.053,101.168,100710,0,W,A*00
$GPVTG,101.168,T,101.168,M,32.053,N,59.363,K,A*2E
$GPGSA,A,3,13,23,19,16,21,24,3,,,,,,2.323,1.648,1.637*00
$GPGGA,082720.41,3946.5553,N,11621.6287,E,1,7,1.648,49.822,M,-10.333,M,0,*70
$GPRMC,082720.41,A,3946.5553,N,11621.6287,E,32.452,102.001,100710,0,W,A*04
$GPVTG,102.001,T,102.001,M,32.452,N,60.102,K,A*24
$GPGSA,A,3,3,13,23,19,16,21,24,,,,,,2.323,1.648,1.637*00
$GPGSV,3,1,11,3,78,57,19,6,61,54,30,7,38,313,37,8,4,314,*4D
$GPGSV,3,2,11,11,1,193,,13,41,250,35,16,35,70,41,19,68,201,33*72
$GPGSV,3,3,11,21,9,40,36,23,30,218,32,24,31,93,38*7F
$GPGGA,082721.41,3946.5535,N,11621.6398,E,1,9,1.119,49.819,M,-10.333,M,0,*7B
$GPRMC,082721.41,A,3946.5535,N,11621.6398,E,32.022,102.505,100710,0,W,A*08
$GPVTG,102.505,T,102.505,M,32.022,N,59.304,K,A*29
$GPGSA,A,3,13,23,19,16,21,6,24,7,3,,,,1.838,1.119,1.458*0B
$GPGGA,082722.41,3946.5517,N,11621.6510,E,1,9,1.119,50.365,M,-10.333,M,0,*76
$GPRMC,082722.41,A,3946.5517,N,11621.6510,E,31.669,102.923,100710,0,W,A*0F
$GPVTG,102.923,T,102.923,M,31.669,N,58.651,K,A*27
$GPGSA,A,3,13,23,19,16,21,6,24,7,3,,,,1.838,1.119,1.458*0B
$GPGGA,082723.41,3946.5499,N,11621.6620,E,1,9,1.119,50.547,M,-10.333,M,0,*76
$GPRMC,082723.41,A,3946.5499,N,11621.6620,E,31.709,103.705,100710,0,W,A*05
$GPVTG,103.705,T,103.705,M,31.709,N,58.724,K,A*23
$GPGSA,A,3,13,23,19,16,21,6,24,7,3,,,,1.838,1.119,1.458*0B
$GPGGA,082724.41,3946.5479,N,11621.6729,E,1,9,1.119,50.717,M,-10.333,M,0,*70
$GPRMC,082724.41,A,3946.5479,N,11621.6729,E,31.665,104.766,100710,0,W,A*0D
$GPVTG,104.766,T,104.766,M,31.665,N,58.643,K,A*28
$GPGSA,A,3,3,13,23,19,16,21,6,24,7,,,,1.838,1.119,1.458*0B
$GPGGA,082725.41,3946.5456,N,11621.6838,E,1,9,1.119,50.932,M,-10.333,M,0,*7A
$GPRMC,082725.41,A,3946.5456,N,11621.6838,E,31.354,105.641,100710,0,W,A*0C
$GPVTG,105.641,T,105.641,M,31.354,N,58.067,K,A*2F
$GPGSA,A,3,13,23,19,16,21,6,24,7,3,,,,1.838,1.119,1.457*04
$GPGSV,3,1,11,3,78,57,20,6,61,54,35,7,38,313,34,8,4,314,*41
$GPGSV,3,2,11,11,1,193,,13,41,250,34,16,35,70,43,19,68,201,36*74
$GPGSV,3,3,11,21,9,40,35,23,30,218,28,24,32,93,38*74
$GPGGA,082726.41,3946.5427,N,11621.6947,E,1,9,1.119,51.228,M,-10.333,M,0,*77
$GPRMC,082726.41,A,3946.5427,N,11621.6947,E,31.292,107.109,100710,0,W,A*02
$GPVTG,107.109,T,107.109,M,31.292,N,57.953,K,A*25
$GPGSA,A,3,3,13,23,19,16,21,6,24,7,,,,1.838,1.119,1.457*04
$GPGGA,082727.41,3946.5399,N,11621.7055,E,1,9,1.119,51.022,M,-10.333,M,0,*77
$GPRMC,082727.41,A,3946.5399,N,11621.7055,E,31.330,107.789,100710,0,W,A*0D
$GPVTG,107.789,T,107.789,M,31.330,N,58.023,K,A*2D
$GPGSA,A,3,3,13,23,19,16,21,6,24,7,,,,1.837,1.119,1.457*0B
$GPGGA,082728.41,3946.5371,N,11621.7163,E,1,9,1.119,51.044,M,-10.333,M,0,*7A
$GPRMC,082728.41,A,3946.5371,N,11621.7163,E,31.336,109.389,100710,0,W,A*0C
$GPVTG,109.389,T,109.389,M,31.336,N,58.034,K,A*2D
$GPGSA,A,3,3,13,23,19,16,21,6,24,7,,,,1.837,1.119,1.457*0B
$GPGGA,082729.41,3946.5341,N,11621.7270,E,1,9,1.119,51.043,M,-10.333,M,0,*7E
$GPRMC,082729.41,A,3946.5341,N,11621.7270,E,31.530,110.189,100710,0,W,A*05
$GPVTG,110.189,T,110.189,M,31.530,N,58.394,K,A*24
$GPGSA,A,3,3,13,23,19,16,21,6,24,7,,,,1.837,1.119,1.457*0B
$GPGGA,082730.41,3946.5310,N,11621.7376,E,1,9,1.119,51.192,M,-10.333,M,0,*78
$GPRMC,082730.41,A,3946.5310,N,11621.7376,E,31.319,111.228,100710,0,W,A*0A
$GPVTG,111.228,T,111.228,M,31.319,N,58.002,K,A*25
$GPGSA,A,3,3,13,23,19,16,21,6,24,7,,,,1.837,1.119,1.456*0A
$GPGSV,3,1,11,3,78,57,31,6,61,54,35,7,38,313,27,8,4,314,*43
$GPGSV,3,2,11,11,1,193,,13,41,250,35,16,35,70,46,19,68,201,32*74
$GPGSV,3,3,11,21,9,40,36,23,30,218,26,24,32,93,40*76
$GPGGA,082731.41,3946.5275,N,11621.7478,E,1,9,1.119,51.050,M,-10.333,M,0,*7D
$GPRMC,082731.41,A,3946.5275,N,11621.7478,E,30.803,112.441,100710,0,W,A*0B
$GPVTG,112.441,T,112.441,M,30.803,N,57.047,K,A*2A
$GPGSA,A,3,3,13,23,19,16,21,6,24,7,,,,1.837,1.119,1.456*0A
$GPGGA,082732.41,3946.5240,N,11621.7578,E,1,9,1.119,51.014,M,-10.333,M,0,*79
$GPRMC,082732.41,A,3946.5240,N,11621.7578,E,29.815,113.512,100710,0,W,A*06
$GPVTG,113.512,T,113.512,M,29.815,N,55.218,K,A*2F
$GPGSA,A,3,3,13,23,19,16,21,6,24,7,,,,1.837,1.119,1.456*0A
$GPGGA,082733.41,3946.5205,N,11621.7673,E,1,9,1.120,51.042,M,-10.333,M,0,*78
$GPRMC,082733.41,A,3946.5205,N,11621.7673,E,29.001,115.047,100710,0,W,A*00
$GPVTG,115.047,T,115.047,M,29.001,N,53.710,K,A*29
$GPGSA,A,3,3,13,23,19,16,21,6,24,7,,,,1.837,1.120,1.456*00
$GPGGA,082734.41,3946.5170,N,11621.7765,E,1,9,1.120,51.213,M,-10.333,M,0,*7E
$GPRMC,082734.41,A,3946.5170,N,11621.7765,E,28.314,116.400,100710,0,W,A*02
$GPVTG,116.400,T,116.400,M,28.314,N,52.438,K,A*27
$GPGSA,A,3,3,13,23,19,16,21,6,24,7,,,,1.836,1.120,1.456*01
$GPGGA,082735.41,3946.5133,N,11621.7857,E,1,9,1.120,51.266,M,-10.333,M,0,*74
$GPRMC,082735.41,A,3946.5133,N,11621.7857,E,28.488,116.954,100710,0,W,A*04
$GPVTG,116.954,T,116.954,M,28.488,N,52.760,K,A*2B
$GPGSA,A,3,3,13,23,19,16,21,6,24,7,,,,1.836,1.120,1.456*01
$GPGSV,3,1,11,3,78,57,38,6,61,54,35,7,38,313,30,8,4,314,*4C
$GPGSV,3,2,11,11,1,193,,13,41,250,29,16,35,70,45,19,68,201,35*7D
$GPGSV,3,3,11,21,9,40,34,23,30,218,30,24,32,93,42*71
$GPGGA,082736.41,3946.5095,N,11621.7949,E,1,9,1.120,51.211,M,-10.333,M,0,*74
$GPRMC,082736.41,A,3946.5095,N,11621.7949,E,28.992,117.876,100710,0,W,A*02
$GPVTG,117.876,T,117.876,M,28.992,N,53.693,K,A*21
$GPGSA,A,3,3,13,23,19,16,21,6,24,7,,,,1.836,1.120,1.455*02
$GPGGA,082737.41,3946.5056,N,11621.8039,E,1,9,1.120,51.452,M,-10.333,M,0,*7A
$GPRMC,082737.41,A,3946.5056,N,11621.8039,E,28.916,119.345,100710,0,W,A*04
$GPVTG,119.345,T,119.345,M,28.916,N,53.552,K,A*23
$GPGSA,A,3,3,13,23,19,16,21,6,24,7,,,,1.836,1.120,1.455*02
$GPGGA,082738.41,3946.5014,N,11621.8127,E,1,9,1.120,51.444,M,-10.333,M,0,*7A
$GPRMC,082738.41,A,3946.5014,N,11621.8127,E,28.500,120.674,100710,0,W,A*05
$GPVTG,120.674,T,120.674,M,28.500,N,52.783,K,A*27
$GPGSA,A,3,3,13,23,19,16,21,6,24,7,,,,1.836,1.120,1.455*02
$GPGGA,082739.41,3946.4971,N,11621.8211,E,1,9,1.120,51.282,M,-10.333,M,0,*7A
$GPRMC,082739.41,A,3946.4971,N,11621.8211,E,28.371,123.041,100710,0,W,A*0A
$GPVTG,123.041,T,123.041,M,28.371,N,52.542,K,A*28
$GPGSA,A,3,3,13,23,19,16,21,6,24,7,,,,1.836,1.120,1.455*02
$GPGGA,082740.41,3946.4927,N,11621.8293,E,1,9,1.120,51.124,M,-10.333,M,0,*72
$GPRMC,082740.41,A,3946.4927,N,11621.8293,E,28.156,124.190,100710,0,W,A*00
$GPVTG,124.190,T,124.190,M,28.156,N,52.144,K,A*2D
$GPGSA,A,3,3,13,23,19,16,21,6,24,7,,,,1.836,1.120,1.455*02
$GPGSV,3,1,11,3,78,57,37,6,61,54,33,7,38,313,31,8,4,314,*44
$GPGSV,3,2,11,11,1,193,,13,41,250,35,16,35,70,44,19,68,201,29*7C
$GPGSV,3,3,11,21,9,39,28,23,30,218,38,24,32,93,41*79
$GPGGA,082741.41,3946.4881,N,11621.8375,E,1,9,1.120,50.945,M,-10.333,M,0,*79
$GPRMC,082741.41,A,3946.4881,N,11621.8375,E,28.836,125.418,100710,0,W,A*0E
$GPVTG,125.418,T,125.418,M,28.836,N,53.404,K,A*22
$GPGSA,A,3,3,13,23,19,16,21,6,24,7,,,,1.836,1.120,1.455*02
$GPGGA,082742.41,3946.4833,N,11621.8458,E,1,9,1.120,50.942,M,-10.333,M,0,*7C
$GPRMC,082742.41,A,3946.4833,N,11621.8458,E,28.726,126.131,100710,0,W,A*0F
$GPVTG,126.131,T,126.131,M,28.726,N,53.200,K,A*2E
$GPGSA,A,3,3,13,23,19,16,21,6,24,7,,,,1.835,1.120,1.454*00
$GPGGA,082743.41,3946.4784,N,11621.8542,E,1,9,1.120,50.702,M,-10.333,M,0,*7E
$GPRMC,082743.41,A,3946.4784,N,11621.8542,E,29.499,127.603,100710,0,W,A*06
$GPVTG,127.603,T,127.603,M,29.499,N,54.632,K,A*2A
$GPGSA,A,3,3,13,23,19,16,21,6,24,7,,,,1.835,1.120,1.454*00
$GPGGA,082744.41,3946.4731,N,11621.8626,E,1,9,1.120,51.095,M,-10.333,M,0,*7E
$GPRMC,082744.41,A,3946.4731,N,11621.8626,E,30.012,128.460,100710,0,W,A*09
$GPVTG,128.460,T,128.460,M,30.012,N,55.582,K,A*2C
$GPGSA,A,3,3,13,23,19,16,21,6,24,7,,,,1.835,1.120,1.454*00
$GPGGA,082745.41,3946.4677,N,11621.8710,E,1,9,1.120,51.211,M,-10.333,M,0,*76
$GPRMC,082745.41,A,3946.4677,N,11621.8710,E,30.788,130.435,100710,0,W,A*02
$GPVTG,130.435,T,130.435,M,30.788,N,57.020,K,A*27
$GPGSA,A,3,3,13,23,19,16,21,6,24,7,,,,1.835,1.120,1.454*00
$GPGSV,3,1,11,3,78,56,37,6,61,54,33,7,38,313,29,8,4,314,*4C
$GPGSV,3,2,11,11,1,193,,13,41,250,33,16,35,70,42,19,68,201,27*72
$GPGSV,3,3,11,21,9,39,28,23,30,218,35,24,32,93,42*77
$GPGGA,082746.41,3946.4621,N,11621.8792,E,1,9,1.120,51.420,M,-10.333,M,0,*78
$GPRMC,082746.41,A,3946.4621,N,11621.8792,E,29.354,130.914,100710,0,W,A*0B
$GPVTG,130.914,T,130.914,M,29.354,N,54.363,K,A*2D
$GPGSA,A,3,3,13,23,19,16,21,6,24,7,,,,1.835,1.120,1.454*00
$GPGGA,082747.41,3946.4565,N,11621.8873,E,1,9,1.120,51.478,M,-10.333,M,0,*77
$GPRMC,082747.41,A,3946.4565,N,11621.8873,E,29.848,131.970,100710,0,W,A*0C
$GPVTG,131.970,T,131.970,M,29.848,N,55.278,K,A*21
$GPGSA,A,3,3,13,23,19,16,21,6,24,7,,,,1.835,1.120,1.454*00
$GPGGA,082748.41,3946.4507,N,11621.8952,E,1,9,1.120,51.673,M,-10.333,M,0,*77
$GPRMC,082748.41,A,3946.4507,N,11621.8952,E,30.622,133.496,100710,0,W,A*08
$GPVTG,133.496,T,133.496,M,30.622,N,56.711,K,A*22
$GPGSA,A,3,3,13,23,19,16,21,6,24,7,,,,1.835,1.120,1.453*07
$GPGGA,082749.41,3946.4447,N,11621.9030,E,1,9,1.120,51.865,M,-10.333,M,0,*76
$GPRMC,082749.41,A,3946.4447,N,11621.9030,E,30.662,135.160,100710,0,W,A*0E
$GPVTG,135.160,T,135.160,M,30.662,N,56.786,K,A*28
$GPGSA,A,3,3,13,23,19,16,21,6,24,7,,,,1.834,1.120,1.453*06
$GPGGA,082750.41,3946.4384,N,11621.9108,E,1,9,1.120,52.042,M,-10.333,M,0,*72
$GPRMC,082750.41,A,3946.4384,N,11621.9108,E,30.938,135.971,100710,0,W,A*0C
$GPVTG,135.971,T,135.971,M,30.938,N,57.296,K,A*2D
$GPGSA,A,3,3,13,23,19,16,21,6,24,7,,,,1.834,1.120,1.453*06
$GPGSV,3,1,11,3,78,56,36,6,61,54,30,7,38,313,22,8,5,314,*44
$GPGSV,3,2,11,11,2,193,,13,41,250,28,16,35,70,39,19,68,201,27*77
$GPGSV,3,3,11,21,9,39,25,23,30,218,31,24,32,93,41*7D
$GPGGA,082751.41,3946.4319,N,11621.9184,E,1,9,1.120,52.011,M,-10.333,M,0,*75
$GPRMC,082751.41,A,3946.4319,N,11621.9184,E,31.066,137.641,100710,0,W,A*00
$GPVTG,137.641,T,137.641,M,31.066,N,57.534,K,A*21
$GPGSA,A,3,3,13,23,19,16,21,6,24,7,,,,1.834,1.120,1.453*06
$GPGGA,082752.41,3946.4253,N,11621.9258,E,1,9,1.120,51.870,M,-10.333,M,0,*77
$GPRMC,082752.41,A,3946.4253,N,11621.9258,E,31.424,139.394,100710,0,W,A*0F
$GPVTG,139.394,T,139.394,M,31.424,N,58.197,K,A*21
$GPGSA,A,3,3,13,23,19,16,21,6,24,7,,,,1.834,1.120,1.453*06
$GPGGA,082753.41,3946.4185,N,11621.9331,E,1,9,1.120,51.689,M,-10.333,M,0,*78
$GPRMC,082753.41,A,3946.4185,N,11621.9331,E,31.711,140.747,100710,0,W,A*09
$GPVTG,140.747,T,140.747,M,31.711,N,58.728,K,A*26
$GPGSA,A,3,3,13,23,19,16,21,6,24,7,,,,1.834,1.120,1.452*07
$GPGGA,082754.41,3946.4116,N,11621.9402,E,1,9,1.120,51.654,M,-10.333,M,0,*72
$GPRMC,082754.41,A,3946.4116,N,11621.9402,E,31.988,141.730,100710,0,W,A*0C
$GPVTG,141.730,T,141.730,M,31.988,N,59.242,K,A*20
$GPGSA,A,3,3,13,23,19,16,21,6,24,7,,,,1.834,1.120,1.452*07
$GPGGA,082755.41,3946.4044,N,11621.9472,E,1,9,1.120,51.278,M,-10.333,M,0,*78
$GPRMC,082755.41,A,3946.4044,N,11621.9472,E,32.522,143.124,100710,0,W,A*02
$GPVTG,143.124,T,143.124,M,32.522,N,60.231,K,A*21
$GPGSA,A,3,3,13,23,19,16,21,6,24,7,,,,1.834,1.120,1.452*07
$GPGSV,3,1,11,3,78,56,36,6,60,54,33,7,38,313,30,8,5,314,*45
$GPGSV,3,2,11,11,2,193,,13,41,249,26,16,35,70,36,19,68,201,36*7E
$GPGSV,3,3,11,21,9,39,22,23,30,218,35,24,32,93,41*7E
$GPGGA,082756.41,3946.3970,N,11621.9541,E,1,9,1.120,51.261,M,-10.333,M,0,*7B
$GPRMC,082756.41,A,3946.3970,N,11621.9541,E,32.132,144.384,100710,0,W,A*03
$GPVTG,144.384,T,144.384,M,32.132,N,59.508,K,A*23
$GPGSA,A,3,3,13,23,19,16,21,6,24,7,,,,1.834,1.120,1.452*07
$GPGGA,082757.41,3946.3894,N,11621.9608,E,1,9,1.120,51.404,M,-10.333,M,0,*7A
$GPRMC,082757.41,A,3946.3894,N,11621.9608,E,32.325,145.926,100710,0,W,A*00
$GPVTG,145.926,T,145.926,M,32.325,N,59.866,K,A*22
$GPGSA,A,3,3,13,23,19,16,21,6,24,7,,,,1.833,1.120,1.452*00
$GPGGA,082758.41,3946.3817,N,11621.9674,E,1,9,1.120,51.676,M,-10.333,M,0,*72
$GPRMC,082758.41,A,3946.3817,N,11621.9674,E,31.966,146.983,100710,0,W,A*0D
$GPVTG,146.983,T,146.983,M,31.966,N,59.201,K,A*27
$GPGSA,A,3,3,13,23,19,16,21,6,24,7,,,,1.833,1.120,1.452*00
$GPGGA,082759.41,3946.3740,N,11621.9737,E,1,9,1.120,51.658,M,-10.333,M,0,*74
$GPRMC,082759.41,A,3946.3740,N,11621.9737,E,32.334,147.975,100710,0,W,A*01
$GPVTG,147.975,T,147.975,M,32.334,N,59.882,K,A*28
$GPGSA,A,3,3,13,23,19,16,21,6,24,7,,,,1.833,1.120,1.451*03
$GPGGA,082800.41,3946.3661,N,11621.9798,E,1,9,1.120,51.887,M,-10.333,M,0,*7C
$GPRMC,082800.41,A,3946.3661,N,11621.9798,E,31.855,148.996,100710,0,W,A*08
$GPVTG,148.996,T,148.996,M,31.855,N,58.996,K,A*22
$GPGSA,A,3,3,13,23,19,16,21,6,24,7,,,,1.833,1.120,1.451*03
$GPGSV,3,1,11,3,77,56,35,6,60,54,30,7,38,313,26,8,5,314,*4D
$GPGSV,3,2,11,11,2,193,,13,41,249,22,16,35,70,38,19,68,201,36*74
$GPGSV,3,3,11,21,9,39,24,23,30,218,31,24,32,93,42*7F
$GPGGA,082801.41,3946.3583,N,11621.9855,E,1,9,1.120,52.028,M,-10.333,M,0,*72
$GPRMC,082801.41,A,3946.3583,N,11621.9855,E,31.835,150.777,100710,0,W,A*06
$GPVTG,150.777,T,150.777,M,31.835,N,58.959,K,A*27
$GPGSA,A,3,3,13,23,19,16,21,6,24,7,,,,1.833,1.120,1.451*03
$GPGGA,082802.41,3946.3505,N,11621.9909,E,1,9,1.120,52.339,M,-10.333,M,0,*74
$GPRMC,082802.41,A,3946.3505,N,11621.9909,E,31.344,152.215,100710,0,W,A*0D
$GPVTG,152.215,T,152.215,M,31.344,N,58.049,K,A*22
$GPGSA,A,3,3,13,23,19,16,21,6,24,7,,,,1.833,1.120,1.451*03
$GPGGA,082803.41,3946.3427,N,11621.9959,E,1,9,1.120,52.441,M,-10.333,M,0,*79
$GPRMC,082803.41,A,3946.3427,N,11621.9959,E,31.118,153.494,100710,0,W,A*0D
$GPVTG,153.494,T,153.494,M,31.118,N,57.631,K,A*2F
$GPGSA,A,3,3,13,23,19,16,21,6,24,7,,,,1.833,1.120,1.451*03
$GPGGA,082804.41,3946.3350,N,11622.0008,E,1,9,1.120,52.964,M,-10.333,M,0,*74
$GPRMC,082804.41,A,3946.3350,N,11622.0008,E,30.466,154.637,100710,0,W,A*0B
$GPVTG,154.637,T,154.637,M,30.466,N,56.423,K,A*22
$GPGSA,A,3,3,13,23,19,16,21,6,24,7,,,,1.833,1.120,1.451*03
$GPGGA,082805.41,3946.3275,N,11622.0052,E,1,9,1.120,52.752,M,-10.333,M,0,*77
$GPRMC,082805.41,A,3946.3275,N,11622.0052,E,28.829,155.660,100710,0,W,A*0E
$GPVTG,155.660,T,155.660,M,28.829,N,53.391,K,A*27
$GPGSA,A,3,3,13,23,19,16,21,6,24,7,,,,1.832,1.120,1.450*03
$GPGSV,3,1,11,3,77,56,35,6,60,54,36,7,38,313,28,8,5,314,*45
$GPGSV,3,2,11,11,2,193,,13,41,249,27,16,35,70,36,19,68,201,36*7F
$GPGSV,3,3,11,21,9,39,23,23,29,218,25,24,32,93,43*74
$GPGGA,082806.41,3946.3201,N,11622.0092,E,1,9,1.120,53.236,M,-10.333,M,0,*7D
$GPRMC,082806.41,A,3946.3201,N,11622.0092,E,28.308,158.034,100710,0,W,A*00
$GPVTG,158.034,T,158.034,M,28.308,N,52.426,K,A*25
$GPGSA,A,3,3,13,23,19,16,21,6,24,7,,,,1.832,1.120,1.450*03
$GPGGA,082807.41,3946.3127,N,11622.0128,E,1,9,1.120,53.958,M,-10.333,M,0,*78
$GPRMC,082807.41,A,3946.3127,N,11622.0128,E,28.193,158.599,100710,0,W,A*04
$GPVTG,158.599,T,158.599,M,28.193,N,52.213,K,A*25
$GPGSA,A,3,3,13,23,19,16,21,6,24,7,,,,1.832,1.120,1.450*03
$GPGGA,082808.41,3946.3054,N,11622.0161,E,1,9,1.120,54.628,M,-10.333,M,0,*70
$GPRMC,082808.41,A,3946.3054,N,11622.0161,E,28.620,159.902,100710,0,W,A*03
$GPVTG,159.902,T,159.902,M,28.620,N,53.005,K,A*2E
$GPGSA,A,3,3,13,23,19,16,21,6,24,7,,,,1.832,1.120,1.450*03
$GPGGA,082809.41,3946.2980,N,11622.0195,E,1,9,1.120,55.542,M,-10.333,M,0,*75
$GPRMC,082809.41,A,3946.2980,N,11622.0195,E,29.054,160.043,100710,0,W,A*0A
$GPVTG,160.043,T,160.043,M,29.054,N,53.808,K,A*2F
$GPGSA,A,3,3,13,23,19,16,21,6,24,7,,,,1.832,1.120,1.450*03
$GPGGA,082810.41,3946.2904,N,11622.0228,E,1,9,1.120,56.165,M,-10.333,M,0,*76
$GPRMC,082810.41,A,3946.2904,N,11622.0228,E,29.518,160.329,100710,0,W,A*09
$GPVTG,160.329,T,160.329,M,29.518,N,54.667,K,A*22
$GPGSA,A,3,3,13,23,19,16,21,6,24,7,,,,1.832,1.120,1.450*03
$GPGSV,3,1,11,3,77,56,37,6,60,54,41,7,39,313,23,8,5,314,*4D
$GPGSV,3,2,11,11,2,193,,13,41,249,36,16,35,70,31,19,68,201,36*78
$GPGSV,3,3,11,21,9,39,23,23,29,218,30,24,32,93,42*71
$GPGGA,082811.41,3946.2827,N,11622.0258,E,1,9,1.120,56.760,M,-10.333,M,0,*73
$GPRMC,082811.41,A,3946.2827,N,11622.0258,E,28.869,162.434,100710,0,W,A*0C
$GPVTG,162.434,T,162.434,M,28.869,N,53.465,K,A*2F
$GPGSA,A,3,3,13,23,19,16,21,6,24,7,,,,1.832,1.120,1.449*0B
$GPGGA,082812.41,3946.2748,N,11622.0288,E,1,9,1.120,57.030,M,-10.333,M,0,*78
$GPRMC,082812.41,A,3946.2748,N,11622.0288,E,30.285,162.633,100710,0,W,A*00
$GPVTG,162.633,T,162.633,M,30.285,N,56.087,K,A*23
$GPGSA,A,3,3,13,23,19,16,21,6,24,7,,,,1.831,1.120,1.449*08
$GPGGA,082813.41,3946.2668,N,11622.0318,E,1,9,1.120,57.285,M,-10.333,M,0,*7E
$GPRMC,082813.41,A,3946.2668,N,11622.0318,E,29.973,163.030,100710,0,W,A*04
$GPVTG,163.030,T,163.030,M,29.973,N,55.510,K,A*21
$GPGSA,A,3,3,13,23,19,16,21,6,24,7,,,,1.831,1.120,1.449*08
$GPGGA,082814.41,3946.2587,N,11622.0348,E,1,9,1.120,57.853,M,-10.333,M,0,*7F
$GPRMC,082814.41,A,3946.2587,N,11622.0348,E,29.916,163.725,100710,0,W,A*04
$GPVTG,163.725,T,163.725,M,29.916,N,55.405,K,A*27
$GPGSA,A,3,3,13,23,19,16,21,6,24,7,,,,1.831,1.120,1.449*08
$GPGGA,082815.41,3946.2508,N,11622.0376,E,1,9,1.120,58.347,M,-10.333,M,0,*75
$GPRMC,082815.41,A,3946.2508,N,11622.0376,E,29.471,164.468,100710,0,W,A*0E
$GPVTG,164.468,T,164.468,M,29.471,N,54.580,K,A*26
$GPGSA,A,3,3,13,23,19,16,21,6,24,7,,,,1.831,1.120,1.449*08
$GPGSV,3,1,11,3,77,56,37,6,60,54,39,7,39,313,23,8,5,314,*42
$GPGSV,3,2,11,11,2,193,,13,41,249,35,16,35,70,27,19,68,201,33*79
$GPGSV,3,3,11,21,8,39,26,23,29,218,32,24,32,93,38*7A
$GPGGA,082816.41,3946.2429,N,11622.0404,E,1,9,1.120,58.557,M,-10.333,M,0,*71
$GPRMC,082816.41,A,3946.2429,N,11622.0404,E,29.408,164.969,100710,0,W,A*0F
$GPVTG,164.969,T,164.969,M,29.408,N,54.463,K,A*24
$GPGSA,A,3,3,13,23,19,16,21,6,24,7,,,,1.831,1.120,1.448*09
$GPGGA,082817.41,3946.2349,N,11622.0431,E,1,9,1.120,58.884,M,-10.333,M,0,*74
$GPRMC,082817.41,A,3946.2349,N,11622.0431,E,29.693,164.791,100710,0,W,A*00
$GPVTG,164.791,T,164.791,M,29.693,N,54.992,K,A*27
$GPGSA,A,3,3,13,23,19,16,21,6,24,7,,,,1.831,1.120,1.448*09
$GPGGA,082818.41,3946.2268,N,11622.0457,E,1,9,1.120,59.216,M,-10.333,M,0,*79
$GPRMC,082818.41,A,3946.2268,N,11622.0457,E,30.394,165.220,100710,0,W,A*09
$GPVTG,165.220,T,165.220,M,30.394,N,56.289,K,A*2E
$GPGSA,A,3,3,13,23,19,16,21,6,24,7,,,,1.831,1.120,1.448*09
$GPGGA,082819.41,3946.2185,N,11622.0483,E,1,9,1.120,59.701,M,-10.333,M,0,*72
$GPRMC,082819.41,A,3946.2185,N,11622.0483,E,30.765,166.424,100710,0,W,A*0A
$GPVTG,166.424,T,166.424,M,30.765,N,56.977,K,A*2E
$GPGSA,A,3,3,13,23,19,16,21,6,24,7,,,,1.831,1.120,1.448*09
$GPGGA,082820.41,3946.2101,N,11622.0509,E,1,9,1.120,59.957,M,-10.333,M,0,*7A
$GPRMC,082820.41,A,3946.2101,N,11622.0509,E,31.612,166.655,100710,0,W,A*0B
$GPVTG,166.655,T,166.655,M,31.612,N,58.546,K,A*2E
$GPGSA,A,3,3,13,23,19,16,21,6,24,7,,,,1.830,1.120,1.448*08
$GPGSV,3,1,11,3,77,56,37,6,60,54,38,7,39,313,28,8,5,314,*48
$GPGSV,3,2,11,11,2,193,,13,41,249,38,16,35,70,28,19,68,201,33*7B
$GPGSV,3,3,11,21,8,39,28,23,29,218,32,24,32,93,37*7B
$GPGGA,082821.41,3946.2014,N,11622.0534,E,1,9,1.120,60.424,M,-10.333,M,0,*73
$GPRMC,082821.41,A,3946.2014,N,11622.0534,E,31.858,167.143,100710,0,W,A*00
$GPVTG,167.143,T,167.143,M,31.858,N,59.001,K,A*29
$GPGSA,A,3,3,13,23,19,16,21,6,24,7,,,,1.830,1.120,1.448*08
$GPGGA,082822.41,3946.1927,N,11622.0557,E,1,9,1.120,60.482,M,-10.333,M,0,*73
$GPRMC,082822.41,A,3946.1927,N,11622.0557,E,32.350,168.720,100710,0,W,A*00
$GPVTG,168.720,T,168.720,M,32.350,N,59.912,K,A*22
$GPGSA,A,3,3,13,23,19,16,21,6,24,7,,,,1.830,1.120,1.447*07
$GPGGA,082823.41,3946.1840,N,11622.0577,E,1,9,1.120,60.596,M,-10.333,M,0,*74
$GPRMC,082823.41,A,3946.1840,N,11622.0577,E,31.182,169.891,100710,0,W,A*09
$GPVTG,169.891,T,169.891,M,31.182,N,57.749,K,A*22
$GPGSA,A,3,3,13,23,19,16,21,6,24,7,,,,1.830,1.120,1.447*07
$GPGGA,082824.41,3946.1755,N,11622.0596,E,1,9,1.120,60.644,M,-10.333,M,0,*7B
$GPRMC,082824.41,A,3946.1755,N,11622.0596,E,30.783,169.612,100710,0,W,A*09
$GPVTG,169.612,T,169.612,M,30.783,N,57.010,K,A*2F
$GPGSA,A,3,3,13,23,19,16,21,6,24,7,,,,1.830,1.120,1.447*07
$GPGGA,082825.41,3946.1671,N,11622.0615,E,1,9,1.120,60.777,M,-10.333,M,0,*74
$GPRMC,082825.41,A,3946.1671,N,11622.0615,E,30.757,169.724,100710,0,W,A*0A
$GPVTG,169.724,T,169.724,M,30.757,N,56.962,K,A*2B
$GPGSA,A,3,3,13,23,19,16,21,6,24,7,,,,1.830,1.120,1.447*07
$GPGSV,3,1,11,3,77,56,38,6,60,54,38,7,39,313,31,8,5,314,*4F
$GPGSV,3,2,11,11,2,193,,13,41,249,36,16,35,70,22,19,69,201,31*7C
$GPGSV,3,3,11,21,8,39,25,23,29,218,33,24,32,93,36*76
$GPGGA,082826.41,3946.1587,N,11622.0633,E,1,9,1.120,60.951,M,-10.333,M,0,*73
$GPRMC,082826.41,A,3946.1587,N,11622.0633,E,30.546,170.415,100710,0,W,A*0C
$GPVTG,170.415,T,170.415,M,30.546,N,56.571,K,A*27
$GPGSA,A,3,3,13,23,19,16,21,6,24,7,,,,1.830,1.120,1.447*07
$GPGGA,082827.41,3946.1502,N,11622.0650,E,1,9,1.120,61.161,M,-10.333,M,0,*70
$GPRMC,082827.41,A,3946.1502,N,11622.0650,E,29.954,170.094,100710,0,W,A*0F
$GPVTG,170.094,T,170.094,M,29.954,N,55.474,K,A*27
$GPGSA,A,3,3,13,23,19,16,21,6,24,7,,,,1.829,1.120,1.447*0F
$GPGGA,082828.41,3946.1419,N,11622.0668,E,1,9,1.120,61.015,M,-10.333,M,0,*7D
$GPRMC,082828.41,A,3946.1419,N,11622.0668,E,30.078,170.177,100710,0,W,A*03
$GPVTG,170.177,T,170.177,M,30.078,N,55.704,K,A*2C
$GPGSA,A,3,3,13,23,19,16,21,6,24,7,,,,1.829,1.120,1.446*0E
$GPGGA,082829.41,3946.1337,N,11622.0685,E,1,9,1.120,60.868,M,-10.333,M,0,*77
$GPRMC,082829.41,A,3946.1337,N,11622.0685,E,29.642,170.497,100710,0,W,A*06
$GPVTG,170.497,T,170.497,M,29.642,N,54.898,K,A*20
$GPGSA,A,3,3,13,23,19,16,21,6,24,7,,,,1.829,1.120,1.446*0E
$GPGGA,082830.41,3946.1255,N,11622.0702,E,1,9,1.120,60.795,M,-10.333,M,0,*79
$GPRMC,082830.41,A,3946.1255,N,11622.0702,E,29.478,170.528,100710,0,W,A*0B
$GPVTG,170.528,T,170.528,M,29.478,N,54.592,K,A*2C
$GPGSA,A,3,3,13,23,19,16,21,6,24,7,,,,1.829,1.120,1.446*0E
$GPGSV,3,1,11,3,77,56,40,6,60,54,38,7,39,313,32,8,5,314,*43
$GPGSV,3,2,11,11,2,193,,13,41,249,36,16,35,70,27,19,69,201,35*7D
$GPGSV,3,3,11,21,8,39,25,23,29,218,32,24,32,93,37*76
$GPGGA,082831.41,3946.1174,N,11622.0717,E,1,9,1.120,60.322,M,-10.333,M,0,*74
$GPRMC,082831.41,A,3946.1174,N,11622.0717,E,30.040,170.263,100710,0,W,A*01
$GPVTG,170.263,T,170.263,M,30.040,N,55.635,K,A*24
$GPGSA,A,3,3,13,23,19,16,21,6,24,7,,,,1.829,1.120,1.446*0E
$GPGGA,082832.41,3946.1091,N,11622.0734,E,1,9,1.120,60.028,M,-10.333,M,0,*75
$GPRMC,082832.41,A,3946.1091,N,11622.0734,E,30.066,170.108,100710,0,W,A*03
$GPVTG,170.108,T,170.108,M,30.066,N,55.682,K,A*2C
$GPGSA,A,3,3,13,23,19,16,21,6,24,7,,,,1.829,1.120,1.446*0E
$GPGGA,082833.41,3946.1008,N,11622.0752,E,1,9,1.120,59.878,M,-10.333,M,0,*73
$GPRMC,082833.41,A,3946.1008,N,11622.0752,E,29.564,170.083,100710,0,W,A*0F
$GPVTG,170.083,T,170.083,M,29.564,N,54.753,K,A*2F
$GPGSA,A,3,3,13,23,19,16,21,6,24,7,,,,1.829,1.120,1.445*0D
$GPGGA,082834.41,3946.0925,N,11622.0769,E,1,9,1.120,59.766,M,-10.333,M,0,*7B
$GPRMC,082834.41,A,3946.0925,N,11622.0769,E,30.108,170.255,100710,0,W,A*08
$GPVTG,170.255,T,170.255,M,30.108,N,55.760,K,A*28
$GPGSA,A,3,3,13,23,19,16,21,6,24,7,,,,1.829,1.120,1.445*0D
$GPGGA,082835.41,3946.0843,N,11622.0787,E,1,9,1.120,59.597,M,-10.333,M,0,*77
$GPRMC,082835.41,A,3946.0843,N,11622.0787,E,30.020,170.168,100710,0,W,A*0E
$GPVTG,170.168,T,170.168,M,30.020,N,55.597,K,A*29
$GPGSA,A,3,3,13,23,19,16,21,6,24,7,,,,1.828,1.120,1.445*0C
$GPGSV,3,1,11,3,77,56,39,6,60,54,38,7,39,313,35,8,5,314,*4A
$GPGSV,3,2,11,11,2,193,,13,41,249,36,16,35,70,28,19,69,201,37*70
$GPGSV,3,3,11,21,8,39,22,23,29,218,31,24,32,92,35*71
$GPGGA,082836.41,3946.0761,N,11622.0803,E,1,9,1.120,59.422,M,-10.333,M,0,*77
$GPRMC,082836.41,A,3946.0761,N,11622.0803,E,30.092,170.697,100710,0,W,A*0F
$GPVTG,170.697,T,170.697,M,30.092,N,55.730,K,A*2F
$GPGSA,A,3,3,13,23,19,16,21,6,24,7,,,,1.828,1.120,1.445*0C
$GPGGA,082837.41,3946.0679,N,11622.0819,E,1,9,1.120,59.390,M,-10.333,M,0,*7B
$GPRMC,082837.41,A,3946.0679,N,11622.0819,E,29.790,170.826,100710,0,W,A*04
$GPVTG,170.826,T,170.826,M,29.790,N,55.171,K,A*21
$GPGSA,A,3,3,13,23,19,16,21,6,24,7,,,,1.828,1.120,1.445*0C
$GPGGA,082838.41,3946.0597,N,11622.0833,E,1,9,1.120,59.279,M,-10.333,M,0,*79
$GPRMC,082838.41,A,3946.0597,N,11622.0833,E,30.099,171.372,100710,0,W,A*0D
$GPVTG,171.372,T,171.372,M,30.099,N,55.744,K,A*27
$GPGSA,A,3,3,13,23,19,16,21,6,24,7,,,,1.828,1.120,1.445*0C
$GPGGA,082839.41,3946.0514,N,11622.0847,E,1,9,1.120,59.382,M,-10.333,M,0,*75
$GPRMC,082839.41,A,3946.0514,N,11622.0847,E,30.578,171.255,100710,0,W,A*0A
$GPVTG,171.255,T,171.255,M,30.578,N,56.631,K,A*2D
$GPGSA,A,3,3,13,23,19,16,21,6,24,7,,,,1.828,1.120,1.444*0D
$GPGGA,082840.41,3946.0428,N,11622.0863,E,1,9,1.120,59.229,M,-10.333,M,0,*73
$GPRMC,082840.41,A,3946.0428,N,11622.0863,E,31.395,171.483,100710,0,W,A*05
$GPVTG,171.483,T,171.483,M,31.395,N,58.143,K,A*25
$GPGSA,A,3,3,13,23,19,16,21,6,24,7,,,,1.828,1.120,1.444*0D
$GPGSV,3,1,11,3,77,56,41,6,60,54,38,7,39,313,34,8,5,314,*44
$GPGSV,3,2,11,11,2,193,,13,41,249,41,16,35,70,28,19,69,201,35*72
$GPGSV,3,3,11,21,8,39,27,23,29,218,31,24,32,92,38*79
$GPGGA,082841.41,3946.0340,N,11622.0878,E,1,9,1.120,58.934,M,-10.333,M,0,*77
$GPRMC,082841.41,A,3946.0340,N,11622.0878,E,32.280,171.878,100710,0,W,A*09
$GPVTG,171.878,T,171.878,M,32.280,N,59.782,K,A*29
$GPGSA,A,3,3,13,23,19,16,21,6,24,7,,,,1.828,1.120,1.444*0D
$GPGGA,082842.41,3946.0249,N,11622.0892,E,1,9,1.120,58.796,M,-10.333,M,0,*7E
$GPRMC,082842.41,A,3946.0249,N,11622.0892,E,33.196,171.428,100710,0,W,A*0A
$GPVTG,171.428,T,171.428,M,33.196,N,61.479,K,A*20
$GPGSA,A,3,3,13,23,19,16,21,6,24,7,,,,1.827,1.120,1.444*02
$GPGGA,082843.41,3946.0157,N,11622.0908,E,1,9,1.120,58.638,M,-10.333,M,0,*74
$GPRMC,082843.41,A,3946.0157,N,11622.0908,E,34.084,171.398,100710,0,W,A*0C
$GPVTG,171.398,T,171.398,M,34.084,N,63.123,K,A*2D
$GPGSA,A,3,3,13,23,19,16,21,6,24,7,,,,1.827,1.120,1.444*02
$GPGGA,082844.41,3946.0064,N,11622.0924,E,1,9,1.120,58.394,M,-10.333,M,0,*7F
$GPRMC,082844.41,A,3946.0064,N,11622.0924,E,34.363,172.902,100710,0,W,A*04
$GPVTG,172.902,T,172.902,M,34.363,N,63.640,K,A*25
$GPGSA,A,3,3,13,23,19,16,21,6,24,7,,,,1.827,1.120,1.444*02
$GPGGA,082845.41,3945.9970,N,11622.0939,E,1,9,1.120,58.190,M,-10.333,M,0,*72
$GPRMC,082845.41,A,3945.9970,N,11622.0939,E,34.765,172.582,100710,0,W,A*09
$GPVTG,172.582,T,172.582,M,34.765,N,64.384,K,A*2D
$GPGSA,A,3,3,13,23,19,16,21,6,24,7,,,,1.827,1.120,1.443*05
$GPGSV,3,1,11,3,77,56,39,6,60,54,38,7,39,313,34,8,5,314,*4B
$GPGSV,3,2,11,11,2,193,,13,41,249,38,16,35,70,28,19,69,201,32*7B
$GPGSV,3,3,11,21,8,39,29,23,29,218,31,24,32,92,38*77
$GPGGA,082846.41,3945.9873,N,11622.0955,E,1,9,1.120,58.047,M,-10.333,M,0,*72
$GPRMC,082846.41,A,3945.9873,N,11622.0955,E,35.747,172.039,100710,0,W,A*06
$GPVTG,172.039,T,172.039,M,35.747,N,66.204,K,A*27
$GPGSA,A,3,3,13,23,19,16,21,6,24,7,,,,1.827,1.120,1.443*05
$GPGGA,082847.41,3945.9773,N,11622.0972,E,1,9,1.120,57.986,M,-10.333,M,0,*72
$GPRMC,082847.41,A,3945.9773,N,11622.0972,E,36.099,172.108,100710,0,W,A*09
$GPVTG,172.108,T,172.108,M,36.099,N,66.856,K,A*2D
$GPGSA,A,3,3,13,23,19,16,21,6,24,7,,,,1.827,1.120,1.443*05
$GPGGA,082848.41,3945.9673,N,11622.0988,E,1,9,1.120,57.599,M,-10.333,M,0,*7B
$GPRMC,082848.41,A,3945.9673,N,11622.0988,E,35.351,172.461,100710,0,W,A*0C
$GPVTG,172.461,T,172.461,M,35.351,N,65.470,K,A*22
$GPGSA,A,3,3,13,23,19,16,21,6,24,7,,,,1.827,1.120,1.443*05
$GPGGA,082849.41,3945.9575,N,11622.1004,E,1,9,1.120,57.561,M,-10.333,M,0,*74
$GPRMC,082849.41,A,3945.9575,N,11622.1004,E,35.002,172.669,100710,0,W,A*0B
$GPVTG,172.669,T,172.669,M,35.002,N,64.824,K,A*2B
$GPGSA,A,3,3,13,23,19,16,21,6,24,7,,,,1.827,1.120,1.443*05
$GPGGA,082850.41,3945.9479,N,11622.1019,E,1,9,1.120,57.431,M,-10.333,M,0,*79
$GPRMC,082850.41,A,3945.9479,N,11622.1019,E,34.810,172.573,100710,0,W,A*00
$GPVTG,172.573,T,172.573,M,34.810,N,64.469,K,A*24
$GPGSA,A,3,3,13,23,19,16,21,6,24,7,,,,1.826,1.120,1.443*04
$GPGSV,3,1,11,3,77,56,41,6,60,53,38,7,39,313,31,8,5,314,*46
$GPGSV,3,2,11,11,2,193,28,13,41,249,38,16,35,71,30,19,69,201,36*7D
$GPGSV,3,3,11,21,8,39,27,23,29,218,30,24,32,92,38*78
$GPGGA,082851.41,3945.9383,N,11622.1032,E,1,9,1.120,57.284,M,-10.333,M,0,*7B
$GPRMC,082851.41,A,3945.9383,N,11622.1032,E,34.875,173.244,100710,0,W,A*0B
$GPVTG,173.244,T,173.244,M,34.875,N,64.588,K,A*29
$GPGSA,A,3,3,13,23,19,16,21,6,24,7,,,,1.826,1.120,1.442*05
$GPGGA,082852.41,3945.9287,N,11622.1045,E,1,9,1.120,57.321,M,-10.333,M,0,*73
$GPRMC,082852.41,A,3945.9287,N,11622.1045,E,34.390,173.083,100710,0,W,A*04
$GPVTG,173.083,T,173.083,M,34.390,N,63.690,K,A*24
$GPGSA,A,3,3,13,23,19,16,21,6,24,7,,,,1.826,1.120,1.442*05
$GPGGA,082853.41,3945.9193,N,11622.1057,E,1,9,1.120,57.327,M,-10.333,M,0,*71
$GPRMC,082853.41,A,3945.9193,N,11622.1057,E,33.851,172.943,100710,0,W,A*05
$GPVTG,172.943,T,172.943,M,33.851,N,62.693,K,A*27
$GPGSA,A,3,3,13,23,19,16,21,6,24,7,,,,1.826,1.120,1.442*05
$GPGGA,082854.41,3945.9101,N,11622.1070,E,1,9,1.120,57.080,M,-10.333,M,0,*76
$GPRMC,082854.41,A,3945.9101,N,11622.1070,E,33.092,173.844,100710,0,W,A*0C
$GPVTG,173.844,T,173.844,M,33.092,N,61.286,K,A*23
$GPGSA,A,3,3,13,23,19,16,21,6,24,7,,,,1.826,1.120,1.442*05
$GPGGA,082855.41,3945.9011,N,11622.1080,E,1,9,1.120,57.218,M,-10.333,M,0,*7B
$GPRMC,082855.41,A,3945.9011,N,11622.1080,E,32.562,174.545,100710,0,W,A*02
$GPVTG,174.545,T,174.545,M,32.562,N,60.305,K,A*23
$GPGSA,A,3,3,13,23,19,16,21,6,24,7,,,,1.826,1.120,1.442*05
$GPGSV,3,1,11,3,77,55,40,6,60,53,36,7,39,313,33,8,5,314,*48
$GPGSV,3,2,11,11,2,193,25,13,41,249,35,16,35,71,25,19,69,201,33*7C
$GPGSV,3,3,11,21,8,39,26,23,29,218,32,24,32,92,36*75
$GPGGA,082856.41,3945.8921,N,11622.1090,E,1,9,1.120,57.096,M,-10.333,M,0,*76
$GPRMC,082856.41,A,3945.8921,N,11622.1090,E,32.474,174.925,100710,0,W,A*07
$GPVTG,174.925,T,174.925,M,32.474,N,60.142,K,A*24
$GPGSA,A,3,3,13,23,19,16,21,6,24,7,,,,1.826,1.120,1.441*06
$GPGGA,082857.41,3945.8830,N,11622.1099,E,1,9,1.120,57.102,M,-10.333,M,0,*73
$GPRMC,082857.41,A,3945.8830,N,11622.1099,E,32.613,175.091,100710,0,W,A*0A
$GPVTG,175.091,T,175.091,M,32.613,N,60.399,K,A*23
$GPGSA,A,3,3,13,23,19,16,21,6,24,7,,,,1.826,1.120,1.441*06
$GPGGA,082858.41,3945.8740,N,11622.1107,E,1,9,1.120,57.164,M,-10.333,M,0,*72
$GPRMC,082858.41,A,3945.8740,N,11622.1107,E,32.256,176.270,100710,0,W,A*00
$GPVTG,176.270,T,176.270,M,32.256,N,59.737,K,A*2C
$GPGSA,A,3,3,13,23,19,16,21,6,24,7,,,,1.825,1.120,1.441*05
$GPGGA,082859.41,3945.8651,N,11622.1114,E,1,9,1.120,56.886,M,-10.333,M,0,*74
$GPRMC,082859.41,A,3945.8651,N,11622.1114,E,32.484,176.479,100710,0,W,A*04
$GPVTG,176.479,T,176.479,M,32.484,N,60.160,K,A*2B
$GPGSA,A,3,3,13,23,19,16,21,6,24,7,,,,1.825,1.120,1.441*05
$GPGGA,082900.41,3945.8559,N,11622.1121,E,1,9,1.120,56.728,M,-10.333,M,0,*7F
$GPRMC,082900.41,A,3945.8559,N,11622.1121,E,32.978,176.136,100710,0,W,A*04
$GPVTG,176.136,T,176.136,M,32.978,N,61.076,K,A*22
$GPGSA,A,3,3,13,23,19,16,21,6,24,7,,,,1.825,1.120,1.441*05
$GPGSV,3,1,11,3,77,55,39,6,60,53,30,7,39,313,35,8,5,314,*46
$GPGSV,3,2,11,11,2,193,27,13,41,249,31,16,35,71,22,19,69,201,36*78
$GPGSV,3,3,11,21,8,39,27,23,29,218,37,24,32,92,35*72
$GPGGA,082901.41,3945.8467,N,11622.1128,E,1,9,1.120,56.304,M,-10.333,M,0,*71
$GPRMC,082901.41,A,3945.8467,N,11622.1128,E,33.285,175.746,100710,0,W,A*0A
$GPVTG,175.746,T,175.746,M,33.285,N,61.644,K,A*2D
$GPGSA,A,3,3,13,23,19,16,21,6,24,7,,,,1.825,1.120,1.441*05
$GPGGA,082902.41,3945.8375,N,11622.1137,E,1,9,1.120,55.904,M,-10.333,M,0,*71
$GPRMC,082902.41,A,3945.8375,N,11622.1137,E,33.035,174.878,100710,0,W,A*09
$GPVTG,174.878,T,174.878,M,33.035,N,61.181,K,A*2A
$GPGSA,A,3,3,13,23,19,16,21,6,24,7,,,,1.825,1.120,1.440*04
$GPGGA,082903.41,3945.8283,N,11622.1148,E,1,9,1.120,55.704,M,-10.333,M,0,*7E
$GPRMC,082903.41,A,3945.8283,N,11622.1148,E,32.832,173.912,100710,0,W,A*0C
$GPVTG,173.912,T,173.912,M,32.832,N,60.805,K,A*20
$GPGSA,A,3,3,13,23,19,21,6,24,7,16,,,,1.825,1.120,1.440*04
$GPGGA,082904.41,3945.8191,N,11622.1162,E,1,9,1.120,55.515,M,-10.333,M,0,*73
$GPRMC,082904.41,A,3945.8191,N,11622.1162,E,33.411,172.231,100710,0,W,A*04
$GPVTG,172.231,T,172.231,M,33.411,N,61.876,K,A*29
$GPGSA,A,3,3,13,23,19,21,6,24,7,16,,,,1.825,1.120,1.440*04
$GPGGA,082905.41,3945.8100,N,11622.1177,E,1,9,1.120,55.576,M,-10.333,M,0,*7B
$GPRMC,082905.41,A,3945.8100,N,11622.1177,E,32.615,171.820,100710,0,W,A*07
$GPVTG,171.820,T,171.820,M,32.615,N,60.402,K,A*20
$GPGSA,A,3,3,13,23,19,16,21,6,24,7,,,,1.824,1.120,1.440*05
$GPGSV,3,1,11,3,77,55,40,6,60,53,34,7,39,313,32,8,5,314,*4B
$GPGSV,3,2,11,11,2,193,21,13,41,249,35,16,35,71,19,19,69,201,34*70
$GPGSV,3,3,11,21,8,39,26,23,29,218,32,24,32,92,37*74
$GPGGA,082906.41,3945.8011,N,11622.1192,E,1,9,1.120,55.510,M,-10.333,M,0,*72
$GPRMC,082906.41,A,3945.8011,N,11622.1192,E,32.188,171.183,100710,0,W,A*0D
$GPVTG,171.183,T,171.183,M,32.188,N,59.612,K,A*2A
$GPGSA,A,3,3,13,23,19,21,6,24,7,16,,,,1.824,1.120,1.440*05
$GPGGA,082907.41,3945.7924,N,11622.1208,E,1,9,1.120,54.995,M,-10.333,M,0,*73
$GPRMC,082907.41,A,3945.7924,N,11622.1208,E,31.747,170.409,100710,0,W,A*0C
$GPVTG,170.409,T,170.409,M,31.747,N,58.796,K,A*20
$GPGSA,A,3,3,13,23,19,21,6,24,7,16,,,,1.824,1.120,1.440*05
$GPGGA,082908.41,3945.7837,N,11622.1227,E,1,9,1.120,54.228,M,-10.333,M,0,*7F
$GPRMC,082908.41,A,3945.7837,N,11622.1227,E,31.596,169.400,100710,0,W,A*02
$GPVTG,169.400,T,169.400,M,31.596,N,58.516,K,A*24
$GPGSA,A,3,3,13,23,19,16,21,6,24,7,,,,1.824,1.120,1.439*0B
$GPGGA,082909.41,3945.7750,N,11622.1247,E,1,8,1.156,54.061,M,-10.333,M,0,*79
$GPRMC,082909.41,A,3945.7750,N,11622.1247,E,31.915,169.766,100710,0,W,A*0F
$GPVTG,169.766,T,169.766,M,31.915,N,59.107,K,A*26
$GPGSA,A,3,3,13,23,19,21,6,24,7,,,,,1.846,1.156,1.440*07
$GPGGA,082910.41,3945.7667,N,11622.1266,E,1,8,1.156,54.210,M,-10.333,M,0,*73
$GPRMC,082910.41,A,3945.7667,N,11622.1266,E,29.412,169.643,100710,0,W,A*04
$GPVTG,169.643,T,169.643,M,29.412,N,54.471,K,A*2C
$GPGSA,A,3,3,13,23,19,7,21,6,24,,,,,1.846,1.156,1.440*07
$GPGSV,3,1,11,3,77,55,40,6,60,53,34,7,39,313,33,8,5,314,*4A
$GPGSV,3,2,11,11,2,193,,13,41,249,36,16,35,71,,19,69,201,32*7E
$GPGSV,3,3,11,21,8,39,20,23,29,218,32,24,32,92,35*70
$GPGGA,082911.41,3945.7588,N,11622.1283,E,1,8,1.156,54.196,M,-10.333,M,0,*76
$GPRMC,082911.41,A,3945.7588,N,11622.1283,E,27.885,169.265,100710,0,W,A*00
$GPVTG,169.265,T,169.265,M,27.885,N,51.644,K,A*21
$GPGSA,A,3,3,13,23,19,7,21,6,24,,,,,1.846,1.156,1.440*07
$GPGGA,082912.41,3945.7516,N,11622.1300,E,1,8,1.156,54.210,M,-10.333,M,0,*75
$GPRMC,082912.41,A,3945.7516,N,11622.1300,E,25.257,170.268,100710,0,W,A*0C
$GPVTG,170.268,T,170.268,M,25.257,N,46.776,K,A*20
$GPGSA,A,3,3,13,23,19,7,21,6,24,,,,,1.846,1.156,1.439*09
$GPGGA,082913.41,3945.7450,N,11622.1315,E,1,9,1.121,54.370,M,-10.333,M,0,*75
$GPRMC,082913.41,A,3945.7450,N,11622.1315,E,22.735,169.238,100710,0,W,A*01
$GPVTG,169.238,T,169.238,M,22.735,N,42.104,K,A*21
$GPGSA,A,3,3,13,23,19,7,21,6,24,16,,,,1.823,1.121,1.438*0C
$GPGGA,082914.41,3945.7393,N,11622.1329,E,1,9,1.121,54.209,M,-10.333,M,0,*7A
$GPRMC,082914.41,A,3945.7393,N,11622.1329,E,20.150,170.243,100710,0,W,A*02
$GPVTG,170.243,T,170.243,M,20.150,N,37.319,K,A*2A
$GPGSA,A,3,3,13,23,19,7,21,6,24,16,,,,1.823,1.121,1.438*0C
$GPGGA,082915.41,3945.7343,N,11622.1338,E,1,9,1.121,53.818,M,-10.333,M,0,*7B
