$GPGGA,115833.21,3943.8905,N,11619.7979,E,,3,60.000,39.467,M,0,M,0,*70
$GPRMC,115833.21,V,3943.8905,N,11619.7979,E,0,0,150710,0,W,N*2A
$GPVTG,0,T,0,M,0,N,0,K,N*2C
$GPGSA,A,1,20,8,32,,,,,,,,,,60.000,60.000,60.000*3D
$GPGGA,115834.21,3943.8908,N,11619.7962,E,,3,60.000,39.467,M,0,M,0,*70
$GPRMC,115834.21,V,3943.8908,N,11619.7962,E,0,0,150710,0,W,N*2A
$GPVTG,0,T,0,M,0,N,0,K,N*2C
$GPGSA,A,1,20,8,32,,,,,,,,,,60.000,60.000,60.000*3D
$GPGSV,6,1,21,2,17,142,,4,1,111,,5,40,174,,6,5,,*4A
$GPGSV,6,2,21,8,37,221,34,9,19,343,,10,12,153,,12,55,282,*7F
$GPGSV,6,3,21,15,55,17,,16,5,,,17,6,49,,18,16,306,*49
$GPGSV,6,4,21,20,30,133,42,24,5,,,25,5,,,26,55,50,*4E
$GPGSV,6,5,21,27,21,356,,28,5,,,29,8,209,,30,29,246,*40
$GPGSV,6,6,21,32,29,103,39*48
$GPGGA,115835.21,3943.8975,N,11619.7900,E,,3,60.000,39.467,M,0,M,0,*7F
$GPRMC,115835.21,V,3943.8975,N,11619.7900,E,0,0,150710,0,W,N*25
$GPVTG,0,T,0,M,0,N,0,K,N*2C
$GPGSA,A,1,20,8,32,,,,,,,,,,60.000,60.000,60.000*3D
$GPGGA,115836.21,3943.8987,N,11619.7843,E,,3,60.000,39.467,M,0,M,0,*77
$GPRMC,115836.21,V,3943.8987,N,11619.7843,E,0,0,150710,0,W,N*2D
$GPVTG,0,T,0,M,0,N,0,K,N*2C
$GPGSA,A,1,20,8,32,,,,,,,,,,60.000,60.000,60.000*3D
$GPGGA,115837.21,3943.9024,N,11619.7777,E,,3,60.000,39.467,M,0,M,0,*7F
$GPRMC,115837.21,V,3943.9024,N,11619.7777,E,0,0,150710,0,W,N*25
$GPVTG,0,T,0,M,0,N,0,K,N*2C
$GPGSA,A,1,20,8,32,,,,,,,,,,60.000,60.000,60.000*3D
$GPGGA,115838.21,3943.9106,N,11619.7721,E,,3,60.000,39.467,M,0,M,0,*72
$GPRMC,115838.21,V,3943.9106,N,11619.7721,E,0,0,150710,0,W,N*28
$GPVTG,0,T,0,M,0,N,0,K,N*2C
$GPGSA,A,1,20,8,32,,,,,,,,,,60.000,60.000,60.000*3D
$GPGGA,115839.21,3943.9030,N,11619.7807,E,,3,60.000,39.467,M,0,M,0,*7C
$GPRMC,115839.21,V,3943.9030,N,11619.7807,E,0,0,150710,0,W,N*26
$GPVTG,0,T,0,M,0,N,0,K,N*2C
$GPGSA,A,1,20,8,32,,,,,,,,,,60.000,60.000,60.000*3D
$GPGSV,6,1,22,1,5,,,2,17,142,,4,1,111,,5,40,174,*4E
$GPGSV,6,2,22,6,5,,,8,37,221,36,9,19,343,,10,12,153,*46
$GPGSV,6,3,22,11,5,,,12,55,282,,13,5,,,15,55,17,*47
$GPGSV,6,4,22,17,6,49,,18,16,306,,20,30,133,42,24,5,,*78
$GPGSV,6,5,22,25,5,,,26,55,50,,27,21,356,,29,8,209,*77
$GPGSV,6,6,22,30,29,246,,32,29,103,39*73
$GPGGA,115840.21,3943.8999,N,11619.7843,E,,3,60.000,39.467,M,0,M,0,*79
$GPRMC,115840.21,V,3943.8999,N,11619.7843,E,0,0,150710,0,W,N*23
$GPVTG,0,T,0,M,0,N,0,K,N*2C
$GPGSA,A,1,20,8,32,,,,,,,,,,60.000,60.000,60.000*3D
$GPGGA,115841.21,3943.8911,N,11619.7856,E,,3,60.000,39.467,M,0,M,0,*7C
$GPRMC,115841.21,V,3943.8911,N,11619.7856,E,0,0,150710,0,W,N*26
$GPVTG,0,T,0,M,0,N,0,K,N*2C
$GPGSA,A,1,20,8,32,,,,,,,,,,60.000,60.000,60.000*3D
$GPGGA,115842.21,3943.8902,N,11619.7876,E,,3,60.000,39.467,M,0,M,0,*7F
$GPRMC,115842.21,V,3943.8902,N,11619.7876,E,0,0,150710,0,W,N*25
$GPVTG,0,T,0,M,0,N,0,K,N*2C
$GPGSA,A,1,20,8,32,,,,,,,,,,60.000,60.000,60.000*3D
$GPGGA,115843.21,3943.8954,N,11619.7923,E,,3,60.000,39.467,M,0,M,0,*7C
$GPRMC,115843.21,V,3943.8954,N,11619.7923,E,0,0,150710,0,W,N*26
$GPVTG,0,T,0,M,0,N,0,K,N*2C
$GPGSA,A,1,20,8,32,,,,,,,,,,60.000,60.000,60.000*3D
$GPGGA,115844.21,3943.9028,N,11619.7880,E,,3,60.000,39.467,M,0,M,0,*70
$GPRMC,115844.21,V,3943.9028,N,11619.7880,E,0,0,150710,0,W,N*2A
$GPVTG,0,T,0,M,0,N,0,K,N*2C
$GPGSA,A,1,20,8,32,,,,,,,,,,60.000,60.000,60.000*3D
$GPGSV,6,1,22,1,5,,,2,17,142,,4,1,111,,5,40,174,*4E
$GPGSV,6,2,22,6,5,,,8,37,221,33,9,19,343,,10,12,153,*43
$GPGSV,6,3,22,11,5,,,12,55,282,,13,5,,,15,55,18,*48
$GPGSV,6,4,22,17,6,49,,18,16,306,,20,30,133,40,24,5,,*7A
$GPGSV,6,5,22,25,5,,,26,55,50,,27,21,356,,29,8,209,*77
$GPGSV,6,6,22,30,29,246,,32,29,103,40*7D
$GPGGA,115845.21,3943.9125,N,11619.7784,E,,3,60.000,39.467,M,0,M,0,*76
$GPRMC,115845.21,V,3943.9125,N,11619.7784,E,0,0,150710,0,W,N*2C
$GPVTG,0,T,0,M,0,N,0,K,N*2C
$GPGSA,A,1,20,8,32,,,,,,,,,,60.000,60.000,60.000*3D
$GPGGA,115846.21,3943.9257,N,11619.7730,E,,3,60.000,39.467,M,0,M,0,*7C
$GPRMC,115846.21,V,3943.9257,N,11619.7730,E,0,0,150710,0,W,N*26
$GPVTG,0,T,0,M,0,N,0,K,N*2C
$GPGSA,A,1,20,8,32,,,,,,,,,,60.000,60.000,60.000*3D
$GPGGA,115847.21,3943.9253,N,11619.7703,E,,3,60.000,39.467,M,0,M,0,*79
$GPRMC,115847.21,V,3943.9253,N,11619.7703,E,0,0,150710,0,W,N*23
$GPVTG,0,T,0,M,0,N,0,K,N*2C
$GPGSA,A,1,20,8,32,,,,,,,,,,60.000,60.000,60.000*3D
$GPGGA,115848.21,3943.9196,N,11619.7710,E,,3,60.000,39.467,M,0,M,0,*7E
$GPRMC,115848.21,V,3943.9196,N,11619.7710,E,0,0,150710,0,W,N*24
$GPVTG,0,T,0,M,0,N,0,K,N*2C
$GPGSA,A,1,20,8,32,,,,,,,,,,60.000,60.000,60.000*3D
$GPGGA,115849.21,3943.9026,N,11619.7773,E,,3,60.000,39.467,M,0,M,0,*70
$GPRMC,115849.21,V,3943.9026,N,11619.7773,E,0,0,150710,0,W,N*2A
$GPVTG,0,T,0,M,0,N,0,K,N*2C
$GPGSA,A,1,20,8,32,,,,,,,,,,60.000,60.000,60.000*3D
$GPGSV,6,1,22,1,5,,,2,17,142,,4,1,111,,5,40,174,*4E
$GPGSV,6,2,22,6,5,,,8,37,221,35,9,19,343,,10,12,153,*45
$GPGSV,6,3,22,11,5,,,12,55,282,,13,5,,,15,55,18,*48
$GPGSV,6,4,22,17,6,49,,18,16,306,,20,30,133,41,24,5,,*7B
$GPGSV,6,5,22,25,5,,,26,55,50,,27,21,356,,29,8,209,*77
$GPGSV,6,6,22,30,29,246,,32,29,103,39*73
$GPGGA,115850.21,3943.8924,N,11619.7858,E,,3,60.000,39.467,M,0,M,0,*74
$GPRMC,115850.21,V,3943.8924,N,11619.7858,E,0,0,150710,0,W,N*2E
$GPVTG,0,T,0,M,0,N,0,K,N*2C
$GPGSA,A,1,20,8,32,,,,,,,,,,60.000,60.000,60.000*3D
$GPGGA,115851.21,3943.8899,N,11619.7876,E,,3,60.000,39.467,M,0,M,0,*7E
$GPRMC,115851.21,V,3943.8899,N,11619.7876,E,0,0,150710,0,W,N*24
$GPVTG,0,T,0,M,0,N,0,K,N*2C
$GPGSA,A,1,20,8,32,,,,,,,,,,60.000,60.000,60.000*3D
$GPGGA,115852.21,3943.8899,N,11619.7881,E,,3,60.000,39.467,M,0,M,0,*75
$GPRMC,115852.21,V,3943.8899,N,11619.7881,E,0,0,150710,0,W,N*2F
$GPVTG,0,T,0,M,0,N,0,K,N*2C
$GPGSA,A,1,20,8,32,,,,,,,,,,60.000,60.000,60.000*3D
$GPGGA,115853.21,3943.8818,N,11619.7938,E,,3,60.000,39.467,M,0,M,0,*7E
$GPRMC,115853.21,V,3943.8818,N,11619.7938,E,0,0,150710,0,W,N*24
$GPVTG,0,T,0,M,0,N,0,K,N*2C
$GPGSA,A,1,20,8,32,,,,,,,,,,60.000,60.000,60.000*3D
$GPGGA,115854.21,3943.8837,N,11619.7936,E,,3,60.000,39.467,M,0,M,0,*7A
$GPRMC,115854.21,V,3943.8837,N,11619.7936,E,0,0,150710,0,W,N*20
$GPVTG,0,T,0,M,0,N,0,K,N*2C
$GPGSA,A,1,20,8,32,,,,,,,,,,60.000,60.000,60.000*3D
$GPGSV,6,1,22,1,5,,,2,17,142,,4,1,111,,5,40,174,*4E
$GPGSV,6,2,22,6,5,,,8,37,221,33,9,19,343,,10,12,153,*43
$GPGSV,6,3,22,11,5,,,12,55,282,,13,5,,,15,56,18,*4B
$GPGSV,6,4,22,17,6,49,,18,16,306,,20,30,133,41,24,5,,*7B
$GPGSV,6,5,22,25,5,,,26,55,50,,27,21,356,,29,8,209,*77
$GPGSV,6,6,22,30,29,246,,32,29,103,40*7D
$GPGGA,115855.21,3943.8932,N,11619.7894,E,,3,60.000,39.467,M,0,M,0,*76
$GPRMC,115855.21,V,3943.8932,N,11619.7894,E,0,0,150710,0,W,N*2C
$GPVTG,0,T,0,M,0,N,0,K,N*2C
$GPGSA,A,1,20,8,32,,,,,,,,,,60.000,60.000,60.000*3D
$GPGGA,115856.21,3943.8938,N,11619.7851,E,,3,60.000,39.467,M,0,M,0,*76
$GPRMC,115856.21,V,3943.8938,N,11619.7851,E,0,0,150710,0,W,N*2C
$GPVTG,0,T,0,M,0,N,0,K,N*2C
$GPGSA,A,1,20,8,32,,,,,,,,,,60.000,60.000,60.000*3D
$GPGGA,115857.21,3943.8909,N,11619.7827,E,,3,60.000,39.467,M,0,M,0,*74
$GPRMC,115857.21,V,3943.8909,N,11619.7827,E,0,0,150710,0,W,N*2E
$GPVTG,0,T,0,M,0,N,0,K,N*2C
$GPGSA,A,1,20,8,32,,,,,,,,,,60.000,60.000,60.000*3D
$GPGGA,115858.21,3943.8950,N,11619.7749,E,,3,60.000,39.467,M,0,M,0,*70
$GPRMC,115858.21,V,3943.8950,N,11619.7749,E,0,0,150710,0,W,N*2A
$GPVTG,0,T,0,M,0,N,0,K,N*2C
$GPGSA,A,1,20,8,32,,,,,,,,,,60.000,60.000,60.000*3D
$GPGGA,115859.21,3943.8870,N,11619.7710,E,,3,60.000,39.467,M,0,M,0,*7E
$GPRMC,115859.21,V,3943.8870,N,11619.7710,E,0,0,150710,0,W,N*24
$GPVTG,0,T,0,M,0,N,0,K,N*2C
$GPGSA,A,1,20,8,32,,,,,,,,,,60.000,60.000,60.000*3D
$GPGSV,6,1,22,1,5,,,2,17,142,,4,1,111,,5,40,174,*4E
$GPGSV,6,2,22,6,5,,,8,37,221,33,9,19,343,,10,12,153,*43
$GPGSV,6,3,22,11,5,,,12,55,282,,13,5,,,15,56,18,*4B
$GPGSV,6,4,22,17,6,49,,18,16,306,,20,30,133,40,24,5,,*7A
$GPGSV,6,5,22,25,5,,,26,55,50,,27,21,356,,29,8,209,*77
$GPGSV,6,6,22,30,29,246,,32,29,103,38*72
$GPGGA,115900.21,3943.8830,N,11619.7712,E,,3,60.000,39.467,M,0,M,0,*75
$GPRMC,115900.21,V,3943.8830,N,11619.7712,E,0,0,150710,0,W,N*2F
$GPVTG,0,T,0,M,0,N,0,K,N*2C
$GPGSA,A,1,20,8,32,,,,,,,,,,60.000,60.000,60.000*3D
$GPGGA,115901.21,3943.8911,N,11619.7635,E,,3,60.000,39.467,M,0,M,0,*72
$GPRMC,115901.21,V,3943.8911,N,11619.7635,E,0,0,150710,0,W,N*28
$GPVTG,0,T,0,M,0,N,0,K,N*2C
$GPGSA,A,1,20,8,32,,,,,,,,,,60.000,60.000,60.000*3D
$GPGGA,115902.21,3943.9006,N,11619.7590,E,1,3,4.210,49.825,M,-10.358,M,0,*72
$GPRMC,115902.21,A,3943.9006,N,11619.7590,E,0,0,150710,0,W,A*31
$GPVTG,0,T,0,M,0,N,0,K,A*23
$GPGSA,A,2,20,8,32,,,,,,,,,,4.495,4.210,1.576*06
$GPGGA,115903.21,3943.9007,N,11619.7590,E,1,3,4.211,49.826,M,-10.358,M,0,*70
$GPRMC,115903.21,A,3943.9007,N,11619.7590,E,0,0,150710,0,W,A*31
$GPVTG,0,T,0,M,0,N,0,K,A*23
$GPGSA,A,2,20,8,32,,,,,,,,,,4.496,4.211,1.576*04
$GPGGA,115904.21,3943.9009,N,11619.7599,E,1,3,4.211,49.819,M,-10.358,M,0,*7C
$GPRMC,115904.21,A,3943.9009,N,11619.7599,E,0,0,150710,0,W,A*31
$GPVTG,0,T,0,M,0,N,0,K,A*23
$GPGSA,A,2,20,8,32,,,,,,,,,,4.496,4.211,1.576*04
$GPGSV,5,1,19,1,5,,,4,5,222,,6,5,,,7,14,191,*4A
$GPGSV,5,2,19,8,37,221,29,10,5,,,11,66,56,,13,5,,*70
$GPGSV,5,3,19,14,5,,,17,40,286,,18,5,,,19,14,76,*49
$GPGSV,5,4,19,20,30,133,39,23,5,,,27,4,330,,28,73,314,*47
$GPGSV,5,5,19,29,5,,,31,5,,,32,29,103,37*44
$GPGGA,115905.21,3943.9009,N,11619.7596,E,1,3,4.212,49.821,M,-10.358,M,0,*7A
$GPRMC,115905.21,A,3943.9009,N,11619.7596,E,0,0,150710,0,W,A*3F
$GPVTG,0,T,0,M,0,N,0,K,A*23
$GPGSA,A,2,20,8,32,,,,,,,,,,4.497,4.212,1.577*07
$GPGGA,115906.21,3943.9009,N,11619.7594,E,1,3,4.212,49.822,M,-10.358,M,0,*78
$GPRMC,115906.21,A,3943.9009,N,11619.7594,E,0,0,150710,0,W,A*3E
$GPVTG,0,T,0,M,0,N,0,K,A*23
$GPGSA,A,2,20,8,32,,,,,,,,,,4.498,4.212,1.577*08
$GPGGA,115907.21,3943.9009,N,11619.7597,E,1,3,4.213,49.821,M,-10.358,M,0,*78
$GPRMC,115907.21,A,3943.9009,N,11619.7597,E,0,0,150710,0,W,A*3C
$GPVTG,0,T,0,M,0,N,0,K,A*23
$GPGSA,A,2,20,8,32,,,,,,,,,,4.498,4.213,1.577*09
$GPGGA,115908.21,3943.9009,N,11619.7598,E,1,3,4.213,49.820,M,-10.358,M,0,*79
$GPRMC,115908.21,A,3943.9009,N,11619.7598,E,0,0,150710,0,W,A*3C
$GPVTG,0,T,0,M,0,N,0,K,A*23
$GPGSA,A,2,20,8,32,,,,,,,,,,4.499,4.213,1.577*08
$GPGGA,115909.21,3943.9009,N,11619.7596,E,1,3,4.214,49.821,M,-10.358,M,0,*70
$GPRMC,115909.21,A,3943.9009,N,11619.7596,E,0,0,150710,0,W,A*33
$GPVTG,0,T,0,M,0,N,0,K,A*23
$GPGSA,A,2,20,8,32,,,,,,,,,,4.499,4.214,1.577*0F
$GPGSV,3,1,10,4,5,222,,7,14,191,,8,37,221,26,11,66,56,*48
$GPGSV,3,2,10,17,40,286,,19,14,76,,20,30,133,40,27,4,330,*7E
$GPGSV,3,3,10,28,73,314,,32,29,103,36*7D
$GPGGA,115910.21,3943.9010,N,11619.7605,E,1,3,4.214,49.815,M,-10.358,M,0,*7E
$GPRMC,115910.21,A,3943.9010,N,11619.7605,E,0,0,150710,0,W,A*3A
$GPVTG,0,T,0,M,0,N,0,K,A*23
$GPGSA,A,2,20,8,32,,,,,,,,,,4.500,4.214,1.578*01
$GPGGA,115911.21,3943.9011,N,11619.7618,E,1,3,4.215,49.806,M,-10.358,M,0,*71
$GPRMC,115911.21,A,3943.9011,N,11619.7618,E,0,0,150710,0,W,A*36
$GPVTG,0,T,0,M,0,N,0,K,A*23
$GPGSA,A,2,20,8,32,,,,,,,,,,4.500,4.215,1.578*00
$GPGGA,115912.21,3943.9012,N,11619.7630,E,1,3,4.215,49.798,M,-10.358,M,0,*73
$GPRMC,115912.21,A,3943.9012,N,11619.7630,E,1.731,331.959,150710,0,W,A*3C
$GPVTG,331.959,T,331.959,M,1.731,N,3.205,K,A*23
$GPGSA,A,2,20,8,32,,,,,,,,,,4.501,4.215,1.578*01
$GPGGA,115913.21,3943.9013,N,11619.7636,E,1,3,4.216,49.794,M,-10.358,M,0,*7A
$GPRMC,115913.21,A,3943.9013,N,11619.7636,E,1.723,332.250,150710,0,W,A*38
$GPVTG,332.250,T,332.250,M,1.723,N,3.191,K,A*2E
$GPGSA,A,2,20,8,32,,,,,,,,,,4.501,4.216,1.578*02
$GPGGA,115914.21,3943.9013,N,11619.7633,E,1,3,4.216,49.796,M,-10.358,M,0,*7A
$GPRMC,115914.21,A,3943.9013,N,11619.7633,E,0,0,150710,0,W,A*38
$GPVTG,0,T,0,M,0,N,0,K,A*23
$GPGSA,A,2,20,8,32,,,,,,,,,,4.502,4.216,1.578*01
$GPGSV,3,1,10,4,5,222,,7,14,191,,8,37,220,31,11,66,56,*4F
$GPGSV,3,2,10,17,40,286,,19,14,76,,20,31,133,42,27,4,330,*7D
$GPGSV,3,3,10,28,73,314,29,32,29,103,38*78
$GPGGA,115915.21,3943.9013,N,11619.7633,E,1,3,4.217,49.796,M,-10.358,M,0,*7A
$GPRMC,115915.21,A,3943.9013,N,11619.7633,E,0,0,150710,0,W,A*39
$GPVTG,0,T,0,M,0,N,0,K,A*23
$GPGSA,A,2,20,8,32,,,,,,,,,,4.503,4.217,1.579*00
$GPGGA,115916.21,3943.9013,N,11619.7633,E,,2,60.000,39.438,M,-10.358,M,0,*7F
$GPRMC,115916.21,V,3943.9013,N,11619.7633,E,0,0,150710,0,W,N*22
$GPVTG,0,T,0,M,0,N,0,K,N*2C
$GPGSA,A,1,20,32,,,,,,,,,,,60.000,60.000,60.000*05
$GPGGA,115917.21,3943.9013,N,11619.7633,E,,2,60.000,39.438,M,-10.358,M,0,*7E
$GPRMC,115917.21,V,3943.9013,N,11619.7633,E,0,0,150710,0,W,N*23
$GPVTG,0,T,0,M,0,N,0,K,N*2C
$GPGSA,A,1,20,32,,,,,,,,,,,60.000,60.000,60.000*05
$GPGGA,115918.21,3943.9013,N,11619.7633,E,,2,60.000,39.438,M,-10.358,M,0,*71
$GPRMC,115918.21,V,3943.9013,N,11619.7633,E,0,0,150710,0,W,N*2C
$GPVTG,0,T,0,M,0,N,0,K,N*2C
$GPGSA,A,1,20,32,,,,,,,,,,,60.000,60.000,60.000*05
$GPGGA,115919.21,3943.9013,N,11619.7633,E,,2,60.000,39.438,M,-10.358,M,0,*70
$GPRMC,115919.21,V,3943.9013,N,11619.7633,E,0,0,150710,0,W,N*2D
$GPVTG,0,T,0,M,0,N,0,K,N*2C
$GPGSA,A,1,20,32,,,,,,,,,,,60.000,60.000,60.000*05
$GPGSV,3,1,10,4,5,222,,7,14,191,,8,37,220,21,11,66,56,*4E
$GPGSV,3,2,10,17,40,286,,19,14,76,,20,31,133,42,27,4,330,*7D
$GPGSV,3,3,10,28,73,314,30,32,29,103,40*7F
$GPGGA,115920.21,3943.9013,N,11619.7633,E,,2,60.000,39.438,M,-10.358,M,0,*7A
$GPRMC,115920.21,V,3943.9013,N,11619.7633,E,0,0,150710,0,W,N*27
$GPVTG,0,T,0,M,0,N,0,K,N*2C
$GPGSA,A,1,20,32,,,,,,,,,,,60.000,60.000,60.000*05
$GPGGA,115921.21,3943.9013,N,11619.7633,E,,2,60.000,39.438,M,-10.358,M,0,*7B
$GPRMC,115921.21,V,3943.9013,N,11619.7633,E,0,0,150710,0,W,N*26
$GPVTG,0,T,0,M,0,N,0,K,N*2C
$GPGSA,A,1,20,32,,,,,,,,,,,60.000,60.000,60.000*05
$GPGGA,115922.21,3943.9013,N,11619.7633,E,,2,60.000,39.438,M,-10.358,M,0,*78
$GPRMC,115922.21,V,3943.9013,N,11619.7633,E,0,0,150710,0,W,N*25
$GPVTG,0,T,0,M,0,N,0,K,N*2C
$GPGSA,A,1,20,32,,,,,,,,,,,60.000,60.000,60.000*05
$GPGGA,115923.21,3943.9013,N,11619.7642,E,1,3,4.221,49.790,M,-10.358,M,0,*7A
$GPRMC,115923.21,A,3943.9013,N,11619.7642,E,0,0,150710,0,W,A*3A
$GPVTG,0,T,0,M,0,N,0,K,A*23
$GPGSA,A,2,20,8,32,,,,,,,,,,4.507,4.221,1.580*07
$GPGGA,115924.21,3943.9015,N,11619.7655,E,1,3,4.221,49.782,M,-10.358,M,0,*7E
$GPRMC,115924.21,A,3943.9015,N,11619.7655,E,0,0,150710,0,W,A*3D
$GPVTG,0,T,0,M,0,N,0,K,A*23
$GPGSA,A,2,20,8,32,,,,,,,,,,4.508,4.221,1.580*08
$GPGSV,3,1,10,4,5,222,,7,14,191,,8,37,220,26,11,66,56,*49
$GPGSV,3,2,10,17,40,286,,19,14,76,,20,31,133,40,27,4,330,*7F
$GPGSV,3,3,10,28,73,314,30,32,29,102,39*70
$GPGGA,115925.21,3943.9015,N,11619.7655,E,,2,60.000,39.424,M,-10.358,M,0,*74
$GPRMC,115925.21,V,3943.9015,N,11619.7655,E,0,0,150710,0,W,N*24
$GPVTG,0,T,0,M,0,N,0,K,N*2C
$GPGSA,A,1,20,32,,,,,,,,,,,60.000,60.000,60.000*05
$GPGGA,115926.21,3943.9015,N,11619.7655,E,,2,60.000,39.424,M,-10.358,M,0,*77
$GPRMC,115926.21,V,3943.9015,N,11619.7655,E,0,0,150710,0,W,N*27
$GPVTG,0,T,0,M,0,N,0,K,N*2C
$GPGSA,A,1,20,32,,,,,,,,,,,60.000,60.000,60.000*05
$GPGGA,115927.21,3943.9015,N,11619.7655,E,,2,60.000,39.424,M,-10.358,M,0,*76
$GPRMC,115927.21,V,3943.9015,N,11619.7655,E,0,0,150710,0,W,N*26
$GPVTG,0,T,0,M,0,N,0,K,N*2C
$GPGSA,A,1,20,32,,,,,,,,,,,60.000,60.000,60.000*05
$GPGGA,115928.21,3943.9015,N,11619.7655,E,,2,60.000,39.424,M,-10.358,M,0,*79
$GPRMC,115928.21,V,3943.9015,N,11619.7655,E,0,0,150710,0,W,N*29
$GPVTG,0,T,0,M,0,N,0,K,N*2C
$GPGSA,A,1,20,32,,,,,,,,,,,60.000,60.000,60.000*05
$GPGGA,115929.21,3943.9013,N,11619.7653,E,1,3,4.224,49.783,M,-10.358,M,0,*77
$GPRMC,115929.21,A,3943.9013,N,11619.7653,E,0,0,150710,0,W,A*30
$GPVTG,0,T,0,M,0,N,0,K,A*23
$GPGSA,A,2,20,32,8,,,,,,,,,,4.510,4.224,1.581*05
$GPGSV,3,1,10,4,5,222,,7,14,191,,8,37,220,24,11,66,56,*4B
$GPGSV,3,2,10,17,40,286,,19,14,76,,20,31,133,41,27,4,330,*7E
$GPGSV,3,3,10,28,73,314,31,32,29,102,39*71
$GPGGA,115930.21,3943.9013,N,11619.7660,E,1,3,4.225,49.779,M,-10.358,M,0,*7B
$GPRMC,115930.21,A,3943.9013,N,11619.7660,E,0,0,150710,0,W,A*38
$GPVTG,0,T,0,M,0,N,0,K,A*23
$GPGSA,A,2,20,32,8,,,,,,,,,,4.511,4.225,1.582*06
$GPGGA,115931.21,3943.9014,N,11619.7673,E,1,3,4.225,49.771,M,-10.358,M,0,*77
$GPRMC,115931.21,A,3943.9014,N,11619.7673,E,0,0,150710,0,W,A*3C
$GPVTG,0,T,0,M,0,N,0,K,A*23
$GPGSA,A,2,20,8,32,,,,,,,,,,4.512,4.225,1.582*05
$GPGGA,115932.21,3943.9015,N,11619.7684,E,1,3,4.226,49.764,M,-10.358,M,0,*7A
$GPRMC,115932.21,A,3943.9015,N,11619.7684,E,0,0,150710,0,W,A*36
$GPVTG,0,T,0,M,0,N,0,K,A*23
$GPGSA,A,2,20,8,32,,,,,,,,,,4.512,4.226,1.582*06
$GPGGA,115933.22,3943.8901,N,11619.7909,E,1,4,4.286,36.819,M,-10.358,M,0,*7F
$GPRMC,115933.22,A,3943.8901,N,11619.7909,E,0,0,150710,0,W,A*33
$GPVTG,0,T,0,M,0,N,0,K,A*23
$GPGSA,A,3,20,8,32,28,,,,,,,,,9.424,4.286,8.393*01
$GPGGA,115934.22,3943.8654,N,11619.8112,E,1,4,4.284,143.261,M,-10.358,M,0,*4E
$GPRMC,115934.22,A,3943.8654,N,11619.8112,E,0.642,162.681,150710,0,W,A*3C
$GPVTG,162.681,T,162.681,M,0.642,N,1.190,K,A*2A
$GPGSA,A,3,20,8,32,28,,,,,,,,,9.419,4.284,8.388*07
$GPGSV,3,1,10,4,5,222,,7,14,191,,8,36,220,26,11,66,56,*48
$GPGSV,3,2,10,17,40,286,,19,14,76,,20,31,133,41,27,4,330,*7E
$GPGSV,3,3,10,28,73,314,32,32,29,102,39*72
$GPGGA,115935.22,3943.8628,N,11619.8135,E,1,4,4.283,156.472,M,-10.358,M,0,*46
$GPRMC,115935.22,A,3943.8628,N,11619.8135,E,0.885,149.960,150710,0,W,A*3F
$GPVTG,149.960,T,149.960,M,0.885,N,1.640,K,A*25
$GPGSA,A,3,20,8,32,28,,,,,,,,,9.413,4.283,8.383*01
$GPGGA,115936.22,3943.8622,N,11619.8139,E,1,4,4.281,161.753,M,-10.358,M,0,*45
$GPRMC,115936.22,A,3943.8622,N,11619.8139,E,0.729,325.615,150710,0,W,A*36
$GPVTG,325.615,T,325.615,M,0.729,N,1.350,K,A*28
$GPGSA,A,3,20,8,32,28,,,,,,,,,9.408,4.281,8.377*02
$GPGGA,115937.22,3943.8639,N,11619.8132,E,1,4,4.280,158.050,M,-10.358,M,0,*4A
$GPRMC,115937.22,A,3943.8639,N,11619.8132,E,0.523,72.668,150710,0,W,A*05
$GPVTG,72.668,T,72.668,M,0.523,N,0.969,K,A*21
$GPGSA,A,3,20,8,32,28,,,,,,,,,9.403,4.280,8.372*0D
$GPGGA,115938.22,3943.8646,N,11619.8128,E,1,4,4.278,154.862,M,-10.358,M,0,*44
$GPRMC,115938.22,A,3943.8646,N,11619.8128,E,0.207,86.188,150710,0,W,A*0A
$GPVTG,86.188,T,86.188,M,0.207,N,0.384,K,A*29
$GPGSA,A,3,20,8,32,28,,,,,,,,,9.397,4.278,8.367*04
$GPGGA,115939.22,3943.8659,N,11619.8123,E,1,4,4.277,149.559,M,-10.358,M,0,*46
$GPRMC,115939.22,A,3943.8659,N,11619.8123,E,0.621,102.330,150710,0,W,A*32
$GPVTG,102.330,T,102.330,M,0.621,N,1.151,K,A*22
$GPGSA,A,3,20,8,32,28,,,,,,,,,9.392,4.277,8.362*0B
$GPGSV,3,1,10,4,5,222,,7,14,191,,8,36,220,19,11,66,56,*44
$GPGSV,3,2,10,17,40,286,,19,14,76,,20,31,133,42,27,4,330,*7D
$GPGSV,3,3,10,28,73,314,33,32,29,102,39*73
$GPGGA,115940.22,3943.8663,N,11619.8123,E,1,4,4.275,150.369,M,-10.358,M,0,*4E
$GPRMC,115940.22,A,3943.8663,N,11619.8123,E,0.397,133.493,150710,0,W,A*31
$GPVTG,133.493,T,133.493,M,0.397,N,0.734,K,A*2E
$GPGSA,A,3,20,8,32,28,,,,,,,,,9.387,4.275,8.357*0B
$GPGGA,115941.22,3943.8653,N,11619.8129,E,1,4,4.274,155.689,M,-10.358,M,0,*49
$GPRMC,115941.22,A,3943.8653,N,11619.8129,E,0.389,139.743,150710,0,W,A*32
$GPVTG,139.743,T,139.743,M,0.389,N,0.720,K,A*24
$GPGSA,A,3,20,8,32,28,,,,,,,,,9.381,4.274,8.351*0A
$GPGGA,115942.22,3943.8630,N,11619.8139,E,1,4,4.272,164.176,M,-10.358,M,0,*4D
$GPRMC,115942.22,A,3943.8630,N,11619.8139,E,0.994,172.152,150710,0,W,A*3A
$GPVTG,172.152,T,172.152,M,0.994,N,1.841,K,A*2B
$GPGSA,A,3,20,8,32,28,,,,,,,,,9.376,4.272,8.346*02
$GPGGA,115943.22,3943.8624,N,11619.8136,E,1,4,4.271,164.665,M,-10.358,M,0,*40
$GPRMC,115943.22,A,3943.8624,N,11619.8136,E,0.284,125.704,150710,0,W,A*3C
$GPVTG,125.704,T,125.704,M,0.284,N,0.526,K,A*2C
$GPGSA,A,3,20,8,32,28,,,,,,,,,9.371,4.271,8.341*01
$GPGGA,115944.22,3943.8626,N,11619.8131,E,1,4,4.270,162.211,M,-10.358,M,0,*42
$GPRMC,115944.22,A,3943.8626,N,11619.8131,E,0.730,81.600,150710,0,W,A*0E
$GPVTG,81.600,T,81.600,M,0.730,N,1.353,K,A*23
$GPGSA,A,3,20,32,28,8,,,,,,,,,9.366,4.270,8.336*06
$GPGSV,3,1,10,4,5,222,,7,14,191,,8,36,220,23,11,66,56,*4D
$GPGSV,3,2,10,17,40,286,,19,14,76,,20,31,133,42,27,4,330,*7D
$GPGSV,3,3,10,28,73,314,33,32,29,102,38*72
$GPGGA,115945.22,3943.8626,N,11619.8131,E,1,4,4.268,162.211,M,-10.358,M,0,*4A
$GPRMC,115945.22,A,3943.8626,N,11619.8131,E,0,0,150710,0,W,A*34
$GPVTG,0,T,0,M,0,N,0,K,A*23
$GPGSA,A,3,20,8,32,28,,,,,,,,,9.360,4.268,8.331*0E
$GPGGA,115946.22,3943.8626,N,11619.8131,E,1,4,4.267,162.211,M,-10.358,M,0,*46
$GPRMC,115946.22,A,3943.8626,N,11619.8131,E,0,0,150710,0,W,A*37
$GPVTG,0,T,0,M,0,N,0,K,A*23
$GPGSA,A,3,20,8,32,28,,,,,,,,,9.355,4.267,8.325*02
$GPGGA,115947.22,3943.8626,N,11619.8131,E,1,4,4.265,162.211,M,-10.358,M,0,*45
$GPRMC,115947.22,A,3943.8626,N,11619.8131,E,0,0,150710,0,W,A*36
$GPVTG,0,T,0,M,0,N,0,K,A*23
$GPGSA,A,3,20,8,32,28,,,,,,,,,9.350,4.265,8.320*00
$GPGGA,115948.22,3943.8626,N,11619.8131,E,1,4,4.264,162.211,M,-10.358,M,0,*4B
$GPRMC,115948.22,A,3943.8626,N,11619.8131,E,0,0,150710,0,W,A*39
$GPVTG,0,T,0,M,0,N,0,K,A*23
$GPGSA,A,3,20,8,32,28,,,,,,,,,9.345,4.264,8.315*03
$GPGGA,115949.22,3943.8626,N,11619.8131,E,1,4,4.262,162.211,M,-10.358,M,0,*4C
$GPRMC,115949.22,A,3943.8626,N,11619.8131,E,0,0,150710,0,W,A*38
$GPVTG,0,T,0,M,0,N,0,K,A*23
$GPGSA,A,3,20,8,32,28,,,,,,,,,9.339,4.262,8.310*0B
$GPGSV,3,1,10,4,5,222,,7,14,191,,8,36,220,27,11,66,56,*49
$GPGSV,3,2,10,17,40,286,,19,14,76,,20,31,133,42,27,4,330,*7D
$GPGSV,3,3,10,28,73,314,34,32,29,102,38*75
$GPGGA,115950.22,3943.8626,N,11619.8131,E,1,4,4.261,162.211,M,-10.358,M,0,*47
$GPRMC,115950.22,A,3943.8626,N,11619.8131,E,0,0,150710,0,W,A*30
$GPVTG,0,T,0,M,0,N,0,K,A*23
$GPGSA,A,3,20,8,32,28,,,,,,,,,9.334,4.261,8.305*01
$GPGGA,115951.22,3943.8626,N,11619.8131,E,1,4,4.260,162.211,M,-10.358,M,0,*47
$GPRMC,115951.22,A,3943.8626,N,11619.8131,E,0,0,150710,0,W,A*31
$GPVTG,0,T,0,M,0,N,0,K,A*23
$GPGSA,A,3,20,8,32,28,,,,,,,,,9.329,4.260,8.300*09
$GPGGA,115952.22,3943.8626,N,11619.8131,E,1,4,4.258,162.211,M,-10.358,M,0,*4F
$GPRMC,115952.22,A,3943.8626,N,11619.8131,E,0,0,150710,0,W,A*32
$GPVTG,0,T,0,M,0,N,0,K,A*23
$GPGSA,A,3,20,8,32,28,,,,,,,,,9.324,4.258,8.295*02
$GPGGA,115953.22,3943.8626,N,11619.8131,E,1,4,4.257,162.211,M,-10.358,M,0,*41
$GPRMC,115953.22,A,3943.8626,N,11619.8131,E,0,0,150710,0,W,A*33
$GPVTG,0,T,0,M,0,N,0,K,A*23
$GPGSA,A,3,20,8,32,28,,,,,,,,,9.319,4.257,8.289*0E
$GPGGA,115954.22,3943.8626,N,11619.8131,E,1,4,4.255,162.211,M,-10.358,M,0,*44
$GPRMC,115954.22,A,3943.8626,N,11619.8131,E,0,0,150710,0,W,A*34
$GPVTG,0,T,0,M,0,N,0,K,A*23
$GPGSA,A,3,20,8,32,28,,,,,,,,,9.313,4.255,8.284*0B
$GPGSV,3,1,10,4,5,222,,7,14,191,,8,36,220,31,11,66,56,*4E
$GPGSV,3,2,10,17,40,286,,19,14,76,,20,31,132,41,27,4,330,*7F
$GPGSV,3,3,10,28,73,314,33,32,29,102,38*72
$GPGGA,115955.22,3943.8626,N,11619.8131,E,1,4,4.254,162.211,M,-10.358,M,0,*44
$GPRMC,115955.22,A,3943.8626,N,11619.8131,E,0,0,150710,0,W,A*35
$GPVTG,0,T,0,M,0,N,0,K,A*23
$GPGSA,A,3,20,8,32,28,,,,,,,,,9.308,4.254,8.279*02
$GPGGA,115956.22,3943.8626,N,11619.8131,E,1,4,4.253,162.211,M,-10.358,M,0,*40
$GPRMC,115956.22,A,3943.8626,N,11619.8131,E,0,0,150710,0,W,A*36
$GPVTG,0,T,0,M,0,N,0,K,A*23
$GPGSA,A,3,20,8,32,28,,,,,,,,,9.303,4.253,8.274*03
$GPGGA,115957.22,3943.8641,N,11619.8105,E,1,4,4.251,152.293,M,-10.358,M,0,*4C
$GPRMC,115957.22,A,3943.8641,N,11619.8105,E,0.054,42.113,150710,0,W,A*05
$GPVTG,42.113,T,42.113,M,0.054,N,0.100,K,A*23
$GPGSA,A,3,20,8,32,28,,,,,,,,,9.298,4.251,8.269*0E
$GPGGA,115958.22,3943.8641,N,11619.8105,E,1,4,4.250,152.293,M,-10.358,M,0,*42
$GPRMC,115958.22,A,3943.8641,N,11619.8105,E,0,0,150710,0,W,A*3E
$GPVTG,0,T,0,M,0,N,0,K,A*23
$GPGSA,A,3,20,8,32,28,,,,,,,,,9.293,4.250,8.264*09
$GPGGA,115959.22,3943.8641,N,11619.8105,E,1,4,4.248,152.293,M,-10.358,M,0,*4A
$GPRMC,115959.22,A,3943.8641,N,11619.8105,E,0,0,150710,0,W,A*3F
$GPVTG,0,T,0,M,0,N,0,K,A*23
$GPGSA,A,3,20,8,32,28,,,,,,,,,9.287,4.248,8.259*0B
$GPGSV,3,1,10,4,5,222,,7,14,191,,8,36,220,31,11,66,56,*4E
$GPGSV,3,2,10,17,40,286,,19,14,76,,20,31,132,43,27,4,330,*7D
$GPGSV,3,3,10,28,74,314,32,32,29,102,38*74
$GPGGA,120000.22,3943.8641,N,11619.8105,E,1,4,4.247,152.293,M,-10.358,M,0,*46
$GPRMC,120000.22,A,3943.8641,N,11619.8105,E,0,0,150710,0,W,A*3C
$GPVTG,0,T,0,M,0,N,0,K,A*23
$GPGSA,A,3,20,8,32,28,,,,,,,,,9.282,4.247,8.254*0C
$GPGGA,120001.22,3943.8641,N,11619.8105,E,1,4,4.246,152.293,M,-10.358,M,0,*46
$GPRMC,120001.22,A,3943.8641,N,11619.8105,E,0,0,150710,0,W,A*3D
$GPVTG,0,T,0,M,0,N,0,K,A*23
$GPGSA,A,3,20,8,32,28,,,,,,,,,9.277,4.246,8.249*0B
$GPGGA,120002.22,3943.8641,N,11619.8105,E,1,4,4.244,152.293,M,-10.358,M,0,*47
$GPRMC,120002.22,A,3943.8641,N,11619.8105,E,0,0,150710,0,W,A*3E
$GPVTG,0,T,0,M,0,N,0,K,A*23
$GPGSA,A,3,20,8,32,28,,,,,,,,,9.272,4.244,8.244*01
$GPGGA,120003.22,3943.8641,N,11619.8105,E,1,4,4.243,152.293,M,-10.358,M,0,*41
$GPRMC,120003.22,A,3943.8641,N,11619.8105,E,0,0,150710,0,W,A*3F
$GPVTG,0,T,0,M,0,N,0,K,A*23
$GPGSA,A,3,20,8,32,28,,,,,,,,,9.267,4.243,8.239*08
$GPGGA,120004.22,3943.8641,N,11619.8105,E,1,4,4.241,152.293,M,-10.358,M,0,*44
$GPRMC,120004.22,A,3943.8641,N,11619.8105,E,0,0,150710,0,W,A*38
$GPVTG,0,T,0,M,0,N,0,K,A*23
$GPGSA,A,3,20,8,32,28,,,,,,,,,9.262,4.241,8.233*05
$GPGSV,3,1,10,4,5,222,,7,14,191,,8,36,220,28,11,66,56,*46
$GPGSV,3,2,10,17,40,286,,19,14,76,,20,31,132,40,27,4,330,*7E
$GPGSV,3,3,10,28,74,314,31,32,29,102,37*78
$GPGGA,120005.22,3943.8641,N,11619.8105,E,1,4,4.240,152.293,M,-10.358,M,0,*44
$GPRMC,120005.22,A,3943.8641,N,11619.8105,E,0,0,150710,0,W,A*39
$GPVTG,0,T,0,M,0,N,0,K,A*23
$GPGSA,A,3,20,8,32,28,,,,,,,,,9.257,4.240,8.228*08
$GPGGA,120006.22,3943.8641,N,11619.8105,E,1,4,4.239,152.293,M,-10.358,M,0,*49
$GPRMC,120006.22,A,3943.8641,N,11619.8105,E,0,0,150710,0,W,A*3A
$GPVTG,0,T,0,M,0,N,0,K,A*23
$GPGSA,A,3,20,8,32,28,,,,,,,,,9.251,4.239,8.223*0B
$GPGGA,120007.22,3943.8641,N,11619.8105,E,1,4,4.237,152.293,M,-10.358,M,0,*46
$GPRMC,120007.22,A,3943.8641,N,11619.8105,E,0,0,150710,0,W,A*3B
$GPVTG,0,T,0,M,0,N,0,K,A*23
$GPGSA,A,3,20,8,32,28,,,,,,,,,9.246,4.237,8.218*0B
$GPGGA,120008.22,3943.8641,N,11619.8105,E,1,4,4.236,152.293,M,-10.358,M,0,*48
$GPRMC,120008.22,A,3943.8641,N,11619.8105,E,0,0,150710,0,W,A*34
$GPVTG,0,T,0,M,0,N,0,K,A*23
$GPGSA,A,3,20,8,32,28,,,,,,,,,9.241,4.236,8.213*06
$GPGGA,120009.22,3943.8641,N,11619.8105,E,1,4,4.234,152.293,M,-10.358,M,0,*4B
$GPRMC,120009.22,A,3943.8641,N,11619.8105,E,0,0,150710,0,W,A*35
$GPVTG,0,T,0,M,0,N,0,K,A*23
$GPGSA,A,3,20,8,32,28,,,,,,,,,9.236,4.234,8.208*0E
$GPGSV,3,1,10,4,5,222,,7,13,191,,8,36,220,33,11,66,56,*4B
$GPGSV,3,2,10,17,40,286,,19,14,76,,20,31,132,36,27,4,330,*7F
$GPGSV,3,3,10,28,74,313,29,32,29,102,37*76
$GPGGA,120010.22,3943.8641,N,11619.8105,E,1,4,4.233,152.293,M,-10.358,M,0,*44
$GPRMC,120010.22,A,3943.8641,N,11619.8105,E,0,0,150710,0,W,A*3D
$GPVTG,0,T,0,M,0,N,0,K,A*23
$GPGSA,A,3,20,8,32,28,,,,,,,,,9.231,4.233,8.203*05
$GPGGA,120011.22,3943.8641,N,11619.8105,E,1,4,4.232,152.293,M,-10.358,M,0,*44
$GPRMC,120011.22,A,3943.8641,N,11619.8105,E,0,0,150710,0,W,A*3C
$GPVTG,0,T,0,M,0,N,0,K,A*23
$GPGSA,A,3,20,8,32,28,,,,,,,,,9.226,4.232,8.198*03
$GPGGA,120012.22,3943.8641,N,11619.8105,E,1,4,4.230,152.293,M,-10.358,M,0,*45
$GPRMC,120012.22,A,3943.8641,N,11619.8105,E,0,0,150710,0,W,A*3F
$GPVTG,0,T,0,M,0,N,0,K,A*23
$GPGSA,A,3,20,8,32,28,,,,,,,,,9.221,4.230,8.193*0D
$GPGGA,120013.22,3943.8641,N,11619.8105,E,1,4,4.229,152.293,M,-10.358,M,0,*4C
$GPRMC,120013.22,A,3943.8641,N,11619.8105,E,0,0,150710,0,W,A*3E
$GPVTG,0,T,0,M,0,N,0,K,A*23
$GPGSA,A,3,20,8,32,28,,,,,,,,,9.216,4.229,8.188*0B
$GPGGA,120014.22,3943.8641,N,11619.8105,E,1,4,4.228,152.293,M,-10.358,M,0,*4A
$GPRMC,120014.22,A,3943.8641,N,11619.8105,E,0,0,150710,0,W,A*39
$GPVTG,0,T,0,M,0,N,0,K,A*23
$GPGSA,A,3,20,8,32,28,,,,,,,,,9.211,4.228,8.183*06
$GPGSV,3,1,10,4,5,222,,7,13,191,,8,36,220,32,11,66,56,*4A
$GPGSV,3,2,10,17,40,286,29,19,14,76,,20,31,132,37,27,4,330,*75
$GPGSV,3,3,10,28,74,313,27,32,29,102,36*79
$GPGGA,120015.22,3943.8641,N,11619.8105,E,1,4,4.226,152.293,M,-10.358,M,0,*45
$GPRMC,120015.22,A,3943.8641,N,11619.8105,E,0,0,150710,0,W,A*38
$GPVTG,0,T,0,M,0,N,0,K,A*23
$GPGSA,A,3,20,8,32,28,,,,,,,,,9.206,4.226,8.178*0A
$GPGGA,120016.22,3943.8641,N,11619.8105,E,1,4,4.225,152.293,M,-10.358,M,0,*45
$GPRMC,120016.22,A,3943.8641,N,11619.8105,E,0,0,150710,0,W,A*3B
$GPVTG,0,T,0,M,0,N,0,K,A*23
$GPGSA,A,3,20,8,32,28,,,,,,,,,9.201,4.225,8.173*05
$GPGGA,120017.22,3943.8641,N,11619.8105,E,1,4,4.223,152.293,M,-10.358,M,0,*42
$GPRMC,120017.22,A,3943.8641,N,11619.8105,E,0,0,150710,0,W,A*3A
$GPVTG,0,T,0,M,0,N,0,K,A*23
$GPGSA,A,3,20,8,32,28,,,,,,,,,9.195,4.223,8.168*07
$GPGGA,120018.22,3943.8641,N,11619.8105,E,1,4,4.222,152.293,M,-10.358,M,0,*4C
$GPRMC,120018.22,A,3943.8641,N,11619.8105,E,0,0,150710,0,W,A*35
$GPVTG,0,T,0,M,0,N,0,K,A*23
$GPGSA,A,3,20,8,32,28,,,,,,,,,9.190,4.222,8.163*08
$GPGGA,120019.22,3943.8641,N,11619.8105,E,1,4,4.221,152.293,M,-10.358,M,0,*4E
$GPRMC,120019.22,A,3943.8641,N,11619.8105,E,0,0,150710,0,W,A*34
$GPVTG,0,T,0,M,0,N,0,K,A*23
$GPGSA,A,3,20,8,32,28,,,,,,,,,9.185,4.221,8.158*07
$GPGSV,3,1,10,4,5,222,,7,13,191,,8,36,220,32,11,66,56,*4A
$GPGSV,3,2,10,17,40,286,29,19,14,76,,20,31,132,39,27,4,330,*7B
$GPGSV,3,3,10,28,74,313,27,32,29,102,37*78
$GPGGA,120020.22,3943.8641,N,11619.8105,E,1,4,4.219,152.293,M,-10.358,M,0,*4F
$GPRMC,120020.22,A,3943.8641,N,11619.8105,E,0,0,150710,0,W,A*3E
$GPVTG,0,T,0,M,0,N,0,K,A*23
$GPGSA,A,3,20,8,32,28,,,,,,,,,9.180,4.219,8.153*02
$GPGGA,120021.22,3943.8641,N,11619.8105,E,1,4,4.218,152.293,M,-10.358,M,0,*4F
$GPRMC,120021.22,A,3943.8641,N,11619.8105,E,0,0,150710,0,W,A*3F
$GPVTG,0,T,0,M,0,N,0,K,A*23
$GPGSA,A,3,20,8,32,28,,,,,,,,,9.175,4.218,8.148*03
$GPGGA,120022.22,3943.8641,N,11619.8105,E,1,4,4.217,152.293,M,-10.358,M,0,*43
$GPRMC,120022.22,A,3943.8641,N,11619.8105,E,0,0,150710,0,W,A*3C
$GPVTG,0,T,0,M,0,N,0,K,A*23
$GPGSA,A,3,20,8,32,28,,,,,,,,,9.170,4.217,8.143*02
$GPGGA,120023.22,3943.8641,N,11619.8105,E,1,4,4.215,152.293,M,-10.358,M,0,*40
$GPRMC,120023.22,A,3943.8641,N,11619.8105,E,0,0,150710,0,W,A*3D
$GPVTG,0,T,0,M,0,N,0,K,A*23
$GPGSA,A,3,20,8,32,28,,,,,,,,,9.165,4.215,8.138*08
$GPGGA,120024.22,3943.8641,N,11619.8105,E,1,4,4.214,152.293,M,-10.358,M,0,*46
$GPRMC,120024.22,A,3943.8641,N,11619.8105,E,0,0,150710,0,W,A*3A
$GPVTG,0,T,0,M,0,N,0,K,A*23
$GPGSA,A,3,20,8,32,28,,,,,,,,,9.160,4.214,8.133*07
$GPGSV,3,1,10,4,5,222,,7,13,191,,8,36,220,35,11,66,56,*4D
$GPGSV,3,2,10,17,40,286,30,19,14,76,,20,31,132,43,27,4,330,*7E
$GPGSV,3,3,10,28,74,313,31,32,29,102,35*7D
$GPGGA,120025.22,3943.8641,N,11619.8105,E,1,4,4.213,152.293,M,-10.358,M,0,*40
$GPRMC,120025.22,A,3943.8641,N,11619.8105,E,0,0,150710,0,W,A*3B
$GPVTG,0,T,0,M,0,N,0,K,A*23
$GPGSA,A,3,20,8,32,28,,,,,,,,,9.155,4.213,8.128*0C
$GPGGA,120026.22,3943.8641,N,11619.8105,E,1,4,4.211,152.293,M,-10.358,M,0,*41
$GPRMC,120026.22,A,3943.8641,N,11619.8105,E,0,0,150710,0,W,A*38
$GPVTG,0,T,0,M,0,N,0,K,A*23
$GPGSA,A,3,20,8,32,28,,,,,,,,,9.150,4.211,8.124*07
$GPGGA,120027.22,3943.8641,N,11619.8105,E,1,4,4.210,152.293,M,-10.358,M,0,*41
$GPRMC,120027.22,A,3943.8641,N,11619.8105,E,0,0,150710,0,W,A*39
$GPVTG,0,T,0,M,0,N,0,K,A*23
$GPGSA,A,3,20,8,32,28,,,,,,,,,9.145,4.210,8.119*0C
$GPGGA,120028.22,3943.8641,N,11619.8105,E,1,4,4.209,152.293,M,-10.358,M,0,*46
$GPRMC,120028.22,A,3943.8641,N,11619.8105,E,0,0,150710,0,W,A*36
$GPVTG,0,T,0,M,0,N,0,K,A*23
$GPGSA,A,3,20,8,32,28,,,,,,,,,9.140,4.209,8.114*0C
$GPGGA,120029.22,3943.8641,N,11619.8105,E,1,4,4.207,152.293,M,-10.358,M,0,*49
$GPRMC,120029.22,A,3943.8641,N,11619.8105,E,0,0,150710,0,W,A*37
$GPVTG,0,T,0,M,0,N,0,K,A*23
$GPGSA,A,3,20,8,32,28,,,,,,,,,9.135,4.207,8.109*0C
$GPGSV,3,1,10,4,5,222,,7,13,191,,8,36,220,35,11,66,56,*4D
$GPGSV,3,2,10,17,40,286,30,19,14,76,,20,31,132,41,27,4,330,*7C
$GPGSV,3,3,10,28,74,313,31,32,29,102,39*71
$GPGGA,120030.22,3943.8641,N,11619.8105,E,1,4,4.206,152.293,M,-10.358,M,0,*40
$GPRMC,120030.22,A,3943.8641,N,11619.8105,E,0,0,150710,0,W,A*3F
$GPVTG,0,T,0,M,0,N,0,K,A*23
$GPGSA,A,3,20,8,32,28,,,,,,,,,9.130,4.206,8.104*05
$GPGGA,120031.22,3943.8641,N,11619.8105,E,1,4,4.205,152.293,M,-10.358,M,0,*42
$GPRMC,120031.22,A,3943.8641,N,11619.8105,E,0,0,150710,0,W,A*3E
$GPVTG,0,T,0,M,0,N,0,K,A*23
$GPGSA,A,3,20,8,32,28,,,,,,,,,9.125,4.205,8.099*07
$GPGGA,120032.22,3943.8641,N,11619.8105,E,1,4,4.203,152.293,M,-10.358,M,0,*47
$GPRMC,120032.22,A,3943.8641,N,11619.8105,E,0,0,150710,0,W,A*3D
$GPVTG,0,T,0,M,0,N,0,K,A*23
$GPGSA,A,3,20,8,32,28,,,,,,,,,9.120,4.203,8.094*09
$GPGGA,120033.22,3943.8641,N,11619.8105,E,1,4,4.202,152.293,M,-10.358,M,0,*47
$GPRMC,120033.22,A,3943.8641,N,11619.8105,E,0,0,150710,0,W,A*3C
$GPVTG,0,T,0,M,0,N,0,K,A*23
$GPGSA,A,3,20,8,32,28,,,,,,,,,9.115,4.202,8.089*02
$GPGGA,120034.22,3943.8647,N,11619.8098,E,1,4,4.201,148.640,M,-10.358,M,0,*41
$GPRMC,120034.22,A,3943.8647,N,11619.8098,E,0.559,164.666,150710,0,W,A*34
$GPVTG,164.666,T,164.666,M,0.559,N,1.036,K,A*2E
$GPGSA,A,3,20,8,32,28,,,,,,,,,9.110,4.201,8.084*09
$GPGSV,3,1,10,4,5,222,,7,13,191,,8,36,220,34,11,66,56,*4C
$GPGSV,3,2,10,17,40,286,26,19,14,76,,20,31,132,41,27,4,330,*7B
$GPGSV,3,3,10,28,74,313,31,32,29,102,39*71
$GPGGA,120035.22,3943.8647,N,11619.8098,E,1,4,4.199,148.640,M,-10.358,M,0,*42
$GPRMC,120035.22,A,3943.8647,N,11619.8098,E,0,0,150710,0,W,A*39
$GPVTG,0,T,0,M,0,N,0,K,A*23
$GPGSA,A,3,20,8,32,28,,,,,,,,,9.106,4.199,8.079*0E
$GPGGA,120036.22,3943.8647,N,11619.8098,E,1,4,4.198,148.640,M,-10.358,M,0,*40
$GPRMC,120036.22,A,3943.8647,N,11619.8098,E,0,0,150710,0,W,A*3A
$GPVTG,0,T,0,M,0,N,0,K,A*23
$GPGSA,A,3,20,8,32,28,,,,,,,,,9.101,4.198,8.074*05
$GPGGA,120037.22,3943.8647,N,11619.8098,E,1,4,4.197,148.640,M,-10.358,M,0,*4E
$GPRMC,120037.22,A,3943.8647,N,11619.8098,E,0,0,150710,0,W,A*3B
$GPVTG,0,T,0,M,0,N,0,K,A*23
$GPGSA,A,3,20,8,32,28,,,,,,,,,9.096,4.197,8.070*01
$GPGGA,120038.22,3943.8647,N,11619.8098,E,1,4,4.195,148.640,M,-10.358,M,0,*43
$GPRMC,120038.22,A,3943.8647,N,11619.8098,E,0,0,150710,0,W,A*34
$GPVTG,0,T,0,M,0,N,0,K,A*23
$GPGSA,A,3,20,8,32,28,,,,,,,,,9.091,4.195,8.065*00
$GPGGA,120039.22,3943.8647,N,11619.8098,E,1,4,4.194,148.640,M,-10.358,M,0,*43
$GPRMC,120039.22,A,3943.8647,N,11619.8098,E,0,0,150710,0,W,A*35
$GPVTG,0,T,0,M,0,N,0,K,A*23
$GPGSA,A,3,20,8,32,28,,,,,,,,,9.086,4.194,8.060*02
$GPGSV,3,1,10,4,5,222,,7,13,191,,8,36,220,32,11,66,56,*4A
$GPGSV,3,2,10,17,40,287,22,19,14,76,,20,31,132,44,27,4,330,*7B
$GPGSV,3,3,10,28,74,313,32,32,29,102,39*72
$GPGGA,120040.22,3943.8647,N,11619.8098,E,1,4,4.193,148.640,M,-10.358,M,0,*4A
$GPRMC,120040.22,A,3943.8647,N,11619.8098,E,0,0,150710,0,W,A*3B
$GPVTG,0,T,0,M,0,N,0,K,A*23
$GPGSA,A,3,20,8,32,28,,,,,,,,,9.081,4.193,8.055*04
$GPGGA,120041.22,3943.8655,N,11619.8092,E,1,4,4.191,145.321,M,-10.358,M,0,*4F
$GPRMC,120041.22,A,3943.8655,N,11619.8092,E,0.410,74.980,150710,0,W,A*04
$GPVTG,74.980,T,74.980,M,0.410,N,0.759,K,A*2D
$GPGSA,A,3,20,8,32,28,,,,,,,,,9.076,4.191,8.050*0B
$GPGGA,120042.22,3943.8655,N,11619.8092,E,1,4,4.190,145.321,M,-10.358,M,0,*4D
$GPRMC,120042.22,A,3943.8655,N,11619.8092,E,0,0,150710,0,W,A*30
$GPVTG,0,T,0,M,0,N,0,K,A*23
$GPGSA,A,3,20,8,32,28,,,,,,,,,9.071,4.190,8.045*09
$GPGGA,120043.22,3943.8655,N,11619.8092,E,1,4,4.189,145.321,M,-10.358,M,0,*44
$GPRMC,120043.22,A,3943.8655,N,11619.8092,E,0,0,150710,0,W,A*31
$GPVTG,0,T,0,M,0,N,0,K,A*23
$GPGSA,A,3,20,8,32,28,,,,,,,,,9.066,4.189,8.040*02
$GPGGA,120044.22,3943.8663,N,11619.8083,E,1,4,4.187,140.087,M,-10.358,M,0,*42
$GPRMC,120044.22,A,3943.8663,N,11619.8083,E,0.636,177.629,150710,0,W,A*3C
$GPVTG,177.629,T,177.629,M,0.636,N,1.179,K,A*2E
$GPGSA,A,3,20,8,32,28,,,,,,,,,9.061,4.187,8.036*0A
$GPGSV,3,1,10,4,6,222,,7,13,191,,8,36,220,34,11,66,56,*4F
$GPGSV,3,2,10,17,40,287,26,19,14,76,,20,31,132,44,27,4,330,*7F
$GPGSV,3,3,10,28,74,313,31,32,29,102,40*7F
$GPGGA,120045.22,3943.8663,N,11619.8083,E,1,4,4.186,140.087,M,-10.358,M,0,*42
$GPRMC,120045.22,A,3943.8663,N,11619.8083,E,0,0,150710,0,W,A*32
$GPVTG,0,T,0,M,0,N,0,K,A*23
$GPGSA,A,3,20,8,32,28,,,,,,,,,9.056,4.186,8.031*08
$GPGGA,120046.22,3943.8663,N,11619.8083,E,1,4,4.185,140.087,M,-10.358,M,0,*42
$GPRMC,120046.22,A,3943.8663,N,11619.8083,E,0,0,150710,0,W,A*31
$GPVTG,0,T,0,M,0,N,0,K,A*23
$GPGSA,A,3,20,8,32,28,,,,,,,,,9.051,4.185,8.026*0A
$GPGGA,120047.22,3943.8663,N,11619.8083,E,1,4,4.184,140.087,M,-10.358,M,0,*42
$GPRMC,120047.22,A,3943.8663,N,11619.8083,E,0,0,150710,0,W,A*30
$GPVTG,0,T,0,M,0,N,0,K,A*23
$GPGSA,A,3,20,8,32,28,,,,,,,,,9.047,4.184,8.021*0B
$GPGGA,120048.22,3943.8663,N,11619.8083,E,1,4,4.182,140.087,M,-10.358,M,0,*4B
$GPRMC,120048.22,A,3943.8663,N,11619.8083,E,0,0,150710,0,W,A*3F
$GPVTG,0,T,0,M,0,N,0,K,A*23
$GPGSA,A,3,20,8,32,28,,,,,,,,,9.042,4.182,8.016*0C
$GPGGA,120049.22,3943.8663,N,11619.8083,E,1,4,4.181,140.087,M,-10.358,M,0,*49
$GPRMC,120049.22,A,3943.8663,N,11619.8083,E,0,0,150710,0,W,A*3E
$GPVTG,0,T,0,M,0,N,0,K,A*23
$GPGSA,A,3,20,8,32,28,,,,,,,,,9.037,4.181,8.012*09
$GPGSV,3,1,10,4,6,222,,7,13,191,,8,36,220,32,11,66,56,*49
$GPGSV,3,2,10,17,40,287,26,19,14,76,,20,31,132,44,27,4,330,*7F
$GPGSV,3,3,10,28,74,313,28,32,29,102,40*77
$GPGGA,120050.22,3943.8663,N,11619.8083,E,1,4,4.180,140.087,M,-10.358,M,0,*40
$GPRMC,120050.22,A,3943.8663,N,11619.8083,E,0,0,150710,0,W,A*36
$GPVTG,0,T,0,M,0,N,0,K,A*23
$GPGSA,A,3,20,8,32,28,,,,,,,,,9.032,4.180,8.007*09
$GPGGA,120051.22,3943.8663,N,11619.8083,E,1,4,4.178,140.087,M,-10.358,M,0,*46
$GPRMC,120051.22,A,3943.8663,N,11619.8083,E,0,0,150710,0,W,A*37
$GPVTG,0,T,0,M,0,N,0,K,A*23
$GPGSA,A,3,20,8,32,28,,,,,,,,,9.027,4.178,8.002*0F
$GPGGA,120052.22,3943.8663,N,11619.8083,E,1,4,4.177,140.087,M,-10.358,M,0,*4A
$GPRMC,120052.22,A,3943.8663,N,11619.8083,E,0,0,150710,0,W,A*34
$GPVTG,0,T,0,M,0,N,0,K,A*23
$GPGSA,A,3,20,8,32,28,,,,,,,,,9.022,4.177,7.997*0F
$GPGGA,120053.22,3943.8663,N,11619.8083,E,1,4,4.176,140.087,M,-10.358,M,0,*4A
$GPRMC,120053.22,A,3943.8663,N,11619.8083,E,0,0,150710,0,W,A*35
$GPVTG,0,T,0,M,0,N,0,K,A*23
$GPGSA,A,3,20,8,32,28,,,,,,,,,9.017,4.176,7.992*0D
$GPGGA,120054.22,3943.8663,N,11619.8083,E,1,4,4.174,140.087,M,-10.358,M,0,*4F
$GPRMC,120054.22,A,3943.8663,N,11619.8083,E,0,0,150710,0,W,A*32
$GPVTG,0,T,0,M,0,N,0,K,A*23
$GPGSA,A,3,20,8,32,28,,,,,,,,,9.013,4.174,7.988*00
$GPGSV,3,1,10,4,6,222,,7,13,191,,8,36,220,33,11,66,56,*48
$GPGSV,3,2,10,17,40,287,29,19,14,76,,20,31,132,44,27,4,330,*70
$GPGSV,3,3,10,28,74,313,29,32,29,102,39*78
$GPGGA,120055.22,3943.8663,N,11619.8083,E,1,4,4.173,140.087,M,-10.358,M,0,*49
$GPRMC,120055.22,A,3943.8663,N,11619.8083,E,0,0,150710,0,W,A*33
$GPVTG,0,T,0,M,0,N,0,K,A*23
$GPGSA,A,3,20,8,32,28,,,,,,,,,9.008,4.173,7.983*06
$GPGGA,120056.22,3943.8663,N,11619.8083,E,1,4,4.172,140.087,M,-10.358,M,0,*4B
$GPRMC,120056.22,A,3943.8663,N,11619.8083,E,0,0,150710,0,W,A*30
$GPVTG,0,T,0,M,0,N,0,K,A*23
$GPGSA,A,3,20,8,32,28,,,,,,,,,9.003,4.172,7.978*08
$GPGGA,120057.22,3943.8663,N,11619.8083,E,1,4,4.171,140.087,M,-10.358,M,0,*49
$GPRMC,120057.22,A,3943.8663,N,11619.8083,E,0,0,150710,0,W,A*31
$GPVTG,0,T,0,M,0,N,0,K,A*23
$GPGSA,A,3,20,8,32,28,,,,,,,,,8.998,4.171,7.973*0A
$GPGGA,120058.22,3943.8669,N,11619.8079,E,1,4,4.169,137.329,M,-10.358,M,0,*47
$GPRMC,120058.22,A,3943.8669,N,11619.8079,E,0.765,136.182,150710,0,W,A*3A
$GPVTG,136.182,T,136.182,M,0.765,N,1.417,K,A*24
$GPGSA,A,3,20,8,32,28,,,,,,,,,8.993,4.169,7.969*03
$GPGGA,120059.22,3943.8669,N,11619.8079,E,1,4,4.168,137.329,M,-10.358,M,0,*47
$GPRMC,120059.22,A,3943.8669,N,11619.8079,E,0,0,150710,0,W,A*30
$GPVTG,0,T,0,M,0,N,0,K,A*23
$GPGSA,A,3,20,8,32,28,,,,,,,,,8.989,4.168,7.964*04
$GPGSV,3,1,10,4,6,222,,7,13,191,,8,36,220,34,11,66,56,*4F
$GPGSV,3,2,10,17,41,287,25,19,14,76,,20,31,132,46,27,4,330,*7F
$GPGSV,3,3,10,28,74,313,28,32,29,102,40*77
$GPGGA,120100.22,3943.8669,N,11619.8079,E,1,4,4.167,137.329,M,-10.358,M,0,*45
$GPRMC,120100.22,A,3943.8669,N,11619.8079,E,0,0,150710,0,W,A*3D
$GPVTG,0,T,0,M,0,N,0,K,A*23
$GPGSA,A,3,20,8,32,28,,,,,,,,,8.984,4.167,7.959*08
$GPGGA,120101.22,3943.8669,N,11619.8079,E,1,4,4.165,137.329,M,-10.358,M,0,*46
$GPRMC,120101.22,A,3943.8669,N,11619.8079,E,0,0,150710,0,W,A*3C
$GPVTG,0,T,0,M,0,N,0,K,A*23
$GPGSA,A,3,20,8,32,28,,,,,,,,,8.979,4.165,7.954*05
$GPGGA,120102.22,3943.8669,N,11619.8079,E,1,4,4.164,137.329,M,-10.358,M,0,*44
$GPRMC,120102.22,A,3943.8669,N,11619.8079,E,0,0,150710,0,W,A*3F
$GPVTG,0,T,0,M,0,N,0,K,A*23
$GPGSA,A,3,20,8,32,28,,,,,,,,,8.974,4.164,7.950*0D
$GPGGA,120103.22,3943.8669,N,11619.8079,E,1,5,1.812,137.329,M,-10.358,M,0,*49
$GPRMC,120103.22,A,3943.8669,N,11619.8079,E,0,0,150710,0,W,A*3E
$GPVTG,0,T,0,M,0,N,0,K,A*23
$GPGSA,A,3,20,8,32,28,17,,,,,,,,4.084,1.812,3.660*04
$GPGGA,120104.22,3943.8669,N,11619.8079,E,1,5,1.812,137.329,M,-10.358,M,0,*4E
$GPRMC,120104.22,A,3943.8669,N,11619.8079,E,0,0,150710,0,W,A*39
$GPVTG,0,T,0,M,0,N,0,K,A*23
$GPGSA,A,3,20,8,32,28,17,,,,,,,,4.084,1.812,3.660*04
$GPGSV,3,1,10,4,6,222,,7,13,191,,8,36,220,32,11,65,56,*4A
$GPGSV,3,2,10,17,41,287,30,19,14,76,,20,31,132,46,27,5,330,*7A
$GPGSV,3,3,10,28,74,313,24,32,29,102,39*75
$GPGGA,120105.22,3943.8669,N,11619.8079,E,1,5,1.812,137.329,M,-10.358,M,0,*4F
$GPRMC,120105.22,A,3943.8669,N,11619.8079,E,0,0,150710,0,W,A*38
$GPVTG,0,T,0,M,0,N,0,K,A*23
$GPGSA,A,3,20,8,32,28,17,,,,,,,,4.083,1.812,3.659*09
$GPGGA,120106.22,3943.8669,N,11619.8079,E,1,5,1.812,137.329,M,-10.358,M,0,*4C
$GPRMC,120106.22,A,3943.8669,N,11619.8079,E,0,0,150710,0,W,A*3B
$GPVTG,0,T,0,M,0,N,0,K,A*23
$GPGSA,A,3,20,8,32,28,17,,,,,,,,4.083,1.812,3.659*09
$GPGGA,120107.22,3943.8669,N,11619.8079,E,1,5,1.812,137.329,M,-10.358,M,0,*4D
$GPRMC,120107.22,A,3943.8669,N,11619.8079,E,0,0,150710,0,W,A*3A
$GPVTG,0,T,0,M,0,N,0,K,A*23
$GPGSA,A,3,20,8,32,28,17,,,,,,,,4.083,1.812,3.659*09
$GPGGA,120108.22,3943.8669,N,11619.8079,E,1,5,1.812,137.329,M,-10.358,M,0,*42
$GPRMC,120108.22,A,3943.8669,N,11619.8079,E,0,0,150710,0,W,A*35
$GPVTG,0,T,0,M,0,N,0,K,A*23
$GPGSA,A,3,20,8,32,28,17,,,,,,,,4.083,1.812,3.659*09
$GPGGA,120109.22,3943.8669,N,11619.8079,E,1,5,1.812,137.329,M,-10.358,M,0,*43
$GPRMC,120109.22,A,3943.8669,N,11619.8079,E,0,0,150710,0,W,A*34
$GPVTG,0,T,0,M,0,N,0,K,A*23
$GPGSA,A,3,20,8,32,28,17,,,,,,,,4.083,1.812,3.659*09
$GPGSV,3,1,10,4,6,222,,7,13,191,,8,36,220,35,11,65,56,*4D
$GPGSV,3,2,10,17,41,287,32,19,14,76,,20,31,132,45,27,5,330,*7B
$GPGSV,3,3,10,28,74,313,22,32,29,102,39*73
$GPGGA,120110.22,3943.8669,N,11619.8079,E,1,5,1.812,137.329,M,-10.358,M,0,*4B
$GPRMC,120110.22,A,3943.8669,N,11619.8079,E,0,0,150710,0,W,A*3C
$GPVTG,0,T,0,M,0,N,0,K,A*23
$GPGSA,A,3,20,8,32,28,17,,,,,,,,4.082,1.812,3.658*09
$GPGGA,120111.22,3943.8669,N,11619.8079,E,1,5,1.812,137.329,M,-10.358,M,0,*4A
$GPRMC,120111.22,A,3943.8669,N,11619.8079,E,0,0,150710,0,W,A*3D
$GPVTG,0,T,0,M,0,N,0,K,A*23
$GPGSA,A,3,20,8,32,28,17,,,,,,,,4.082,1.812,3.658*09
$GPGGA,120112.22,3943.8669,N,11619.8079,E,1,5,1.812,137.329,M,-10.358,M,0,*49
$GPRMC,120112.22,A,3943.8669,N,11619.8079,E,0,0,150710,0,W,A*3E
$GPVTG,0,T,0,M,0,N,0,K,A*23
$GPGSA,A,3,20,8,32,28,17,,,,,,,,4.082,1.812,3.658*09
$GPGGA,120113.22,3943.8669,N,11619.8079,E,1,5,1.812,137.329,M,-10.358,M,0,*48
$GPRMC,120113.22,A,3943.8669,N,11619.8079,E,0,0,150710,0,W,A*3F
$GPVTG,0,T,0,M,0,N,0,K,A*23
$GPGSA,A,3,20,8,32,17,28,,,,,,,,4.082,1.812,3.658*09
$GPGGA,120114.22,3943.8669,N,11619.8079,E,1,5,1.812,137.329,M,-10.358,M,0,*4F
$GPRMC,120114.22,A,3943.8669,N,11619.8079,E,0,0,150710,0,W,A*38
$GPVTG,0,T,0,M,0,N,0,K,A*23
$GPGSA,A,3,20,8,32,28,17,,,,,,,,4.082,1.812,3.658*09
$GPGSV,3,1,10,4,6,222,,7,13,191,,8,36,220,35,11,65,56,*4D
$GPGSV,3,2,10,17,41,287,32,19,14,76,,20,31,132,47,27,5,330,*79
$GPGSV,3,3,10,28,74,313,20,32,29,102,39*71
$GPGGA,120115.22,3943.8669,N,11619.8079,E,1,5,1.811,137.329,M,-10.358,M,0,*4D
$GPRMC,120115.22,A,3943.8669,N,11619.8079,E,0,0,150710,0,W,A*39
$GPVTG,0,T,0,M,0,N,0,K,A*23
$GPGSA,A,3,20,8,32,28,17,,,,,,,,4.081,1.811,3.657*06
$GPGGA,120116.22,3943.8669,N,11619.8079,E,1,5,1.811,137.329,M,-10.358,M,0,*4E
$GPRMC,120116.22,A,3943.8669,N,11619.8079,E,0,0,150710,0,W,A*3A
$GPVTG,0,T,0,M,0,N,0,K,A*23
$GPGSA,A,3,20,8,32,28,17,,,,,,,,4.081,1.811,3.657*06
$GPGGA,120117.22,3943.8669,N,11619.8079,E,1,5,1.811,137.329,M,-10.358,M,0,*4F
$GPRMC,120117.22,A,3943.8669,N,11619.8079,E,0,0,150710,0,W,A*3B
$GPVTG,0,T,0,M,0,N,0,K,A*23
$GPGSA,A,3,20,8,32,17,28,,,,,,,,4.081,1.811,3.657*06
$GPGGA,120118.22,3943.8669,N,11619.8079,E,1,5,1.811,137.329,M,-10.358,M,0,*40
$GPRMC,120118.22,A,3943.8669,N,11619.8079,E,0,0,150710,0,W,A*34
$GPVTG,0,T,0,M,0,N,0,K,A*23
$GPGSA,A,3,20,8,32,17,28,,,,,,,,4.081,1.811,3.657*06
$GPGGA,120119.22,3943.8669,N,11619.8079,E,1,5,1.811,137.329,M,-10.358,M,0,*41
$GPRMC,120119.22,A,3943.8669,N,11619.8079,E,0,0,150710,0,W,A*35
$GPVTG,0,T,0,M,0,N,0,K,A*23
$GPGSA,A,3,20,8,32,17,28,,,,,,,,4.081,1.811,3.657*06
$GPGSV,3,1,10,4,6,222,,7,13,191,,8,36,220,34,11,65,56,*4C
$GPGSV,3,2,10,17,41,287,33,19,13,76,,20,31,132,45,27,5,330,*7D
$GPGSV,3,3,10,28,74,313,20,32,29,102,38*70
$GPGGA,120120.22,3943.8669,N,11619.8079,E,1,5,1.811,137.329,M,-10.358,M,0,*4B
$GPRMC,120120.22,A,3943.8669,N,11619.8079,E,0,0,150710,0,W,A*3F
$GPVTG,0,T,0,M,0,N,0,K,A*23
$GPGSA,A,3,20,8,32,17,28,,,,,,,,4.080,1.811,3.656*06
$GPGGA,120121.22,3943.8669,N,11619.8079,E,1,5,1.811,137.329,M,-10.358,M,0,*4A
$GPRMC,120121.22,A,3943.8669,N,11619.8079,E,0,0,150710,0,W,A*3E
$GPVTG,0,T,0,M,0,N,0,K,A*23
$GPGSA,A,3,20,8,32,17,28,,,,,,,,4.080,1.811,3.656*06
$GPGGA,120122.22,3943.8669,N,11619.8079,E,1,5,1.811,137.329,M,-10.358,M,0,*49
$GPRMC,120122.22,A,3943.8669,N,11619.8079,E,0,0,150710,0,W,A*3D
$GPVTG,0,T,0,M,0,N,0,K,A*23
$GPGSA,A,3,20,8,32,28,17,,,,,,,,4.080,1.811,3.656*06
$GPGGA,120123.22,3943.8669,N,11619.8079,E,1,5,1.811,137.329,M,-10.358,M,0,*48
$GPRMC,120123.22,A,3943.8669,N,11619.8079,E,0,0,150710,0,W,A*3C
$GPVTG,0,T,0,M,0,N,0,K,A*23
$GPGSA,A,3,20,8,32,17,28,,,,,,,,4.080,1.811,3.656*06
$GPGGA,120124.22,3943.8669,N,11619.8079,E,1,5,1.811,137.329,M,-10.358,M,0,*4F
$GPRMC,120124.22,A,3943.8669,N,11619.8079,E,0,0,150710,0,W,A*3B
$GPVTG,0,T,0,M,0,N,0,K,A*23
$GPGSA,A,3,20,8,32,28,17,,,,,,,,4.080,1.811,3.656*06
$GPGSV,3,1,10,4,6,222,,7,13,191,,8,36,220,35,11,65,56,*4D
$GPGSV,3,2,10,17,41,287,32,19,13,76,,20,31,132,40,27,5,330,*79
$GPGSV,3,3,10,28,74,313,22,32,30,102,39*7B
$GPGGA,120125.22,3943.8669,N,11619.8079,E,1,5,1.811,137.329,M,-10.358,M,0,*4E
$GPRMC,120125.22,A,3943.8669,N,11619.8079,E,0,0,150710,0,W,A*3A
$GPVTG,0,T,0,M,0,N,0,K,A*23
$GPGSA,A,3,20,8,32,28,17,,,,,,,,4.079,1.811,3.655*03
$GPGGA,120126.22,3943.8669,N,11619.8079,E,1,5,1.811,137.329,M,-10.358,M,0,*4D
$GPRMC,120126.22,A,3943.8669,N,11619.8079,E,0,0,150710,0,W,A*39
$GPVTG,0,T,0,M,0,N,0,K,A*23
$GPGSA,A,3,20,8,32,28,17,,,,,,,,4.079,1.811,3.655*03
$GPGGA,120127.22,3943.8669,N,11619.8079,E,1,5,1.811,137.329,M,-10.358,M,0,*4C
$GPRMC,120127.22,A,3943.8669,N,11619.8079,E,0,0,150710,0,W,A*38
$GPVTG,0,T,0,M,0,N,0,K,A*23
$GPGSA,A,3,20,8,32,28,17,,,,,,,,4.079,1.811,3.655*03
$GPGGA,120128.22,3943.8669,N,11619.8079,E,1,5,1.811,137.329,M,-10.358,M,0,*43
$GPRMC,120128.22,A,3943.8669,N,11619.8079,E,0,0,150710,0,W,A*37
$GPVTG,0,T,0,M,0,N,0,K,A*23
$GPGSA,A,3,20,8,32,28,17,,,,,,,,4.079,1.811,3.655*03
$GPGGA,120129.22,3943.8669,N,11619.8079,E,1,5,1.811,137.329,M,-10.358,M,0,*42
$GPRMC,120129.22,A,3943.8669,N,11619.8079,E,0,0,150710,0,W,A*36
$GPVTG,0,T,0,M,0,N,0,K,A*23
$GPGSA,A,3,20,8,32,28,17,,,,,,,,4.079,1.811,3.655*03
$GPGSV,3,1,10,4,6,222,,7,13,191,,8,36,220,35,11,65,56,*4D
$GPGSV,3,2,10,17,41,287,30,19,13,76,,20,31,132,40,27,5,329,*73
$GPGSV,3,3,10,28,74,313,24,32,30,101,39*7E
$GPGGA,120130.22,3943.8669,N,11619.8079,E,1,5,1.811,137.329,M,-10.358,M,0,*4A
$GPRMC,120130.22,A,3943.8669,N,11619.8079,E,0,0,150710,0,W,A*3E
$GPVTG,0,T,0,M,0,N,0,K,A*23
$GPGSA,A,3,20,8,32,28,17,,,,,,,,4.078,1.811,3.654*03
$GPGGA,120131.22,3943.8669,N,11619.8079,E,1,5,1.811,137.329,M,-10.358,M,0,*4B
$GPRMC,120131.22,A,3943.8669,N,11619.8079,E,0,0,150710,0,W,A*3F
$GPVTG,0,T,0,M,0,N,0,K,A*23
$GPGSA,A,3,20,8,32,28,17,,,,,,,,4.078,1.811,3.654*03
$GPGGA,120132.22,3943.8669,N,11619.8079,E,1,5,1.810,137.329,M,-10.358,M,0,*49
$GPRMC,120132.22,A,3943.8669,N,11619.8079,E,0,0,150710,0,W,A*3C
$GPVTG,0,T,0,M,0,N,0,K,A*23
$GPGSA,A,3,20,8,32,28,17,,,,,,,,4.078,1.810,3.654*02
$GPGGA,120133.22,3943.8669,N,11619.8079,E,1,5,1.810,137.329,M,-10.358,M,0,*48
$GPRMC,120133.22,A,3943.8669,N,11619.8079,E,0,0,150710,0,W,A*3D
$GPVTG,0,T,0,M,0,N,0,K,A*23
$GPGSA,A,3,20,8,32,28,17,,,,,,,,4.078,1.810,3.654*02
$GPGGA,120311.22,3943.8678,N,11619.8067,E,1,6,1.762,131.402,M,-10.358,M,0,*44
$GPRMC,120311.22,A,3943.8678,N,11619.8067,E,0,0,150710,0,W,A*30
$GPVTG,0,T,0,M,0,N,0,K,A*23
$GPGSA,A,3,20,8,32,28,17,11,,,,,,,3.725,1.762,3.283*0E
$GPGGA,120312.22,3943.8678,N,11619.8067,E,1,6,1.762,131.402,M,-10.358,M,0,*47
$GPRMC,120312.22,A,3943.8678,N,11619.8067,E,0,0,150710,0,W,A*33
$GPVTG,0,T,0,M,0,N,0,K,A*23
$GPGSA,A,3,20,8,32,28,17,11,,,,,,,3.726,1.762,3.283*0D
$GPGGA,120313.22,3943.8678,N,11619.8067,E,1,6,1.762,131.402,M,-10.358,M,0,*46
$GPRMC,120313.22,A,3943.8678,N,11619.8067,E,0,0,150710,0,W,A*32
$GPVTG,0,T,0,M,0,N,0,K,A*23
$GPGSA,A,3,20,8,32,28,17,11,,,,,,,3.726,1.762,3.283*0D
$GPGGA,120314.22,3943.8678,N,11619.8067,E,1,6,1.762,131.402,M,-10.358,M,0,*41
$GPRMC,120314.22,A,3943.8678,N,11619.8067,E,0,0,150710,0,W,A*35
$GPVTG,0,T,0,M,0,N,0,K,A*23
$GPGSA,A,3,20,8,32,28,17,11,,,,,,,3.726,1.762,3.283*0D
$GPGSV,3,1,10,4,6,223,,7,12,190,,8,35,219,34,11,65,55,33*47
$GPGSV,3,2,10,17,41,288,24,19,13,77,,20,32,131,44,27,5,329,*7C
$GPGSV,3,3,10,28,75,312,29,32,30,101,39*73
$GPGGA,120315.22,3943.8678,N,11619.8067,E,1,6,1.762,131.402,M,-10.358,M,0,*40
$GPRMC,120315.22,A,3943.8678,N,11619.8067,E,0,0,150710,0,W,A*34
$GPVTG,0,T,0,M,0,N,0,K,A*23
$GPGSA,A,3,20,8,32,28,17,11,,,,,,,3.726,1.762,3.284*0A
$GPGGA,120316.22,3943.8678,N,11619.8067,E,1,6,1.761,131.402,M,-10.358,M,0,*40
$GPRMC,120316.22,A,3943.8678,N,11619.8067,E,0,0,150710,0,W,A*37
$GPVTG,0,T,0,M,0,N,0,K,A*23
$GPGSA,A,3,20,8,32,28,17,11,,,,,,,3.726,1.761,3.284*09
$GPGGA,120317.22,3943.8678,N,11619.8067,E,1,6,1.761,131.402,M,-10.358,M,0,*41
$GPRMC,120317.22,A,3943.8678,N,11619.8067,E,0,0,150710,0,W,A*36
$GPVTG,0,T,0,M,0,N,0,K,A*23
$GPGSA,A,3,20,8,32,28,17,11,,,,,,,3.727,1.761,3.284*08
$GPGGA,120318.22,3943.8678,N,11619.8067,E,1,6,1.761,131.402,M,-10.358,M,0,*4E
$GPRMC,120318.22,A,3943.8678,N,11619.8067,E,0,0,150710,0,W,A*39
$GPVTG,0,T,0,M,0,N,0,K,A*23
$GPGSA,A,3,20,8,32,28,17,11,,,,,,,3.727,1.761,3.284*08
$GPGGA,120319.22,3943.8678,N,11619.8067,E,1,6,1.761,131.402,M,-10.358,M,0,*4F
$GPRMC,120319.22,A,3943.8678,N,11619.8067,E,0,0,150710,0,W,A*38
$GPVTG,0,T,0,M,0,N,0,K,A*23
$GPGSA,A,3,20,8,32,28,17,11,,,,,,,3.727,1.761,3.285*09
$GPGSV,3,1,10,4,7,223,,7,12,190,,8,35,219,32,11,64,55,33*41
$GPGSV,3,2,10,17,41,288,22,19,13,77,,20,32,131,44,27,5,329,*7A
$GPGSV,3,3,10,28,75,312,28,32,30,101,39*72
$GPGGA,120320.22,3943.8678,N,11619.8067,E,1,6,1.761,131.402,M,-10.358,M,0,*45
$GPRMC,120320.22,A,3943.8678,N,11619.8067,E,0,0,150710,0,W,A*32
$GPVTG,0,T,0,M,0,N,0,K,A*23
$GPGSA,A,3,20,8,32,28,17,11,,,,,,,3.727,1.761,3.285*09
$GPGGA,120321.22,3943.8678,N,11619.8067,E,1,6,1.761,131.402,M,-10.358,M,0,*44
$GPRMC,120321.22,A,3943.8678,N,11619.8067,E,0,0,150710,0,W,A*33
$GPVTG,0,T,0,M,0,N,0,K,A*23
$GPGSA,A,3,20,8,32,28,17,11,,,,,,,3.727,1.761,3.285*09
$GPGGA,120322.22,3943.8678,N,11619.8067,E,1,6,1.761,131.402,M,-10.358,M,0,*47
$GPRMC,120322.22,A,3943.8678,N,11619.8067,E,0,0,150710,0,W,A*30
$GPVTG,0,T,0,M,0,N,0,K,A*23
$GPGSA,A,3,20,8,32,28,17,11,,,,,,,3.728,1.761,3.285*06
$GPGGA,120323.22,3943.8678,N,11619.8067,E,1,6,1.761,131.402,M,-10.358,M,0,*46
$GPRMC,120323.22,A,3943.8678,N,11619.8067,E,0,0,150710,0,W,A*31
$GPVTG,0,T,0,M,0,N,0,K,A*23
$GPGSA,A,3,20,8,32,28,17,11,,,,,,,3.728,1.761,3.286*05
$GPGGA,120324.22,3943.8678,N,11619.8067,E,1,5,3.982,131.402,M,-10.358,M,0,*43
$GPRMC,120324.22,A,3943.8678,N,11619.8067,E,0,0,150710,0,W,A*36
$GPVTG,0,T,0,M,0,N,0,K,A*23
$GPGSA,A,3,20,8,32,28,11,,,,,,,,8.178,3.982,7.144*03
$GPGSV,3,1,10,4,7,223,,7,12,190,,8,35,219,28,11,64,55,31*48
$GPGSV,3,2,10,17,41,288,15,19,13,77,,20,32,131,44,27,5,329,*7E
$GPGSV,3,3,10,28,75,312,25,32,30,101,36*70
$GPGGA,120325.22,3943.8678,N,11619.8067,E,1,6,1.761,131.402,M,-10.358,M,0,*40
$GPRMC,120325.22,A,3943.8678,N,11619.8067,E,0,0,150710,0,W,A*37
$GPVTG,0,T,0,M,0,N,0,K,A*23
$GPGSA,A,3,20,8,32,28,11,17,,,,,,,3.728,1.761,3.286*05
$GPGGA,120326.22,3943.8680,N,11619.8066,E,1,6,1.761,130.197,M,-10.358,M,0,*4D
$GPRMC,120326.22,A,3943.8680,N,11619.8066,E,0.150,86.998,150710,0,W,A*00
$GPVTG,86.998,T,86.998,M,0.150,N,0.278,K,A*2A
$GPGSA,A,3,20,8,32,28,17,11,,,,,,,3.728,1.761,3.286*05
$GPGGA,120327.22,3943.8682,N,11619.8064,E,1,6,1.761,128.698,M,-10.358,M,0,*4D
$GPRMC,120327.22,A,3943.8682,N,11619.8064,E,0.403,207.524,150710,0,W,A*32
$GPVTG,207.524,T,207.524,M,0.403,N,0.747,K,A*20
$GPGSA,A,3,20,8,32,28,17,11,,,,,,,3.729,1.761,3.287*05
$GPGGA,120328.22,3943.8682,N,11619.8064,E,1,6,1.761,128.698,M,-10.358,M,0,*42
$GPRMC,120328.22,A,3943.8682,N,11619.8064,E,0,0,150710,0,W,A*3C
$GPVTG,0,T,0,M,0,N,0,K,A*23
$GPGSA,A,3,20,8,32,28,11,17,,,,,,,3.729,1.761,3.287*05
$GPGGA,120329.22,3943.8682,N,11619.8064,E,1,6,1.761,128.698,M,-10.358,M,0,*43
$GPRMC,120329.22,A,3943.8682,N,11619.8064,E,0,0,150710,0,W,A*3D
$GPVTG,0,T,0,M,0,N,0,K,A*23
$GPGSA,A,3,20,8,32,28,11,17,,,,,,,3.729,1.761,3.287*05
$GPGSV,3,1,10,4,7,223,,7,12,190,,8,35,219,16,11,64,55,31*45
$GPGSV,3,2,10,17,41,288,18,19,13,77,,20,32,131,44,27,5,329,*73
$GPGSV,3,3,10,28,75,312,22,32,30,101,37*76
$GPGGA,120330.22,3943.8682,N,11619.8064,E,1,6,1.761,128.698,M,-10.358,M,0,*4B
$GPRMC,120330.22,A,3943.8682,N,11619.8064,E,0,0,150710,0,W,A*35
$GPVTG,0,T,0,M,0,N,0,K,A*23
$GPGSA,A,3,20,8,32,28,17,11,,,,,,,3.729,1.761,3.287*05
$GPGGA,120331.22,3943.8682,N,11619.8064,E,1,6,1.761,128.698,M,-10.358,M,0,*4A
$GPRMC,120331.22,A,3943.8682,N,11619.8064,E,0,0,150710,0,W,A*34
$GPVTG,0,T,0,M,0,N,0,K,A*23
$GPGSA,A,3,20,8,32,28,17,11,,,,,,,3.729,1.761,3.288*0A
$GPGGA,120332.22,3943.8682,N,11619.8064,E,1,6,1.760,128.698,M,-10.358,M,0,*48
$GPRMC,120332.22,A,3943.8682,N,11619.8064,E,0,0,150710,0,W,A*37
$GPVTG,0,T,0,M,0,N,0,K,A*23
$GPGSA,A,3,20,32,28,17,11,8,,,,,,,3.730,1.760,3.288*03
$GPGGA,120333.22,3943.8682,N,11619.8064,E,1,6,1.760,128.698,M,-10.358,M,0,*49
$GPRMC,120333.22,A,3943.8682,N,11619.8064,E,0,0,150710,0,W,A*36
$GPVTG,0,T,0,M,0,N,0,K,A*23
$GPGSA,A,3,20,32,28,11,17,8,,,,,,,3.730,1.760,3.288*03
$GPGGA,120334.22,3943.8682,N,11619.8064,E,1,6,1.760,128.698,M,-10.358,M,0,*4E
$GPRMC,120334.22,A,3943.8682,N,11619.8064,E,0,0,150710,0,W,A*31
$GPVTG,0,T,0,M,0,N,0,K,A*23
$GPGSA,A,3,20,32,28,8,11,17,,,,,,,3.730,1.760,3.288*03
$GPGSV,3,1,10,4,7,223,,7,12,190,,8,35,219,20,11,64,55,28*48
$GPGSV,3,2,10,17,41,288,22,19,13,77,,20,32,131,44,27,5,329,*7A
$GPGSV,3,3,10,28,75,312,19,32,30,100,36*7E
$GPGGA,120335.22,3943.8682,N,11619.8064,E,1,6,1.760,128.698,M,-10.358,M,0,*4F
$GPRMC,120335.22,A,3943.8682,N,11619.8064,E,0,0,150710,0,W,A*30
$GPVTG,0,T,0,M,0,N,0,K,A*23
$GPGSA,A,3,20,8,32,28,11,17,,,,,,,3.730,1.760,3.289*02
$GPGGA,120336.22,3943.8682,N,11619.8064,E,1,5,1.820,128.698,M,-10.358,M,0,*44
$GPRMC,120336.22,A,3943.8682,N,11619.8064,E,0,0,150710,0,W,A*33
$GPVTG,0,T,0,M,0,N,0,K,A*23
$GPGSA,A,3,20,8,32,11,17,,,,,,,,4.716,1.820,4.351*03
$GPGGA,120337.22,3943.8682,N,11619.8064,E,1,5,1.820,128.698,M,-10.358,M,0,*45
$GPRMC,120337.22,A,3943.8682,N,11619.8064,E,0,0,150710,0,W,A*32
$GPVTG,0,T,0,M,0,N,0,K,A*23
$GPGSA,A,3,20,8,32,11,17,,,,,,,,4.718,1.820,4.353*0F
$GPGGA,120338.22,3943.8682,N,11619.8064,E,1,5,1.820,128.698,M,-10.358,M,0,*4A
$GPRMC,120338.22,A,3943.8682,N,11619.8064,E,0,0,150710,0,W,A*3D
$GPVTG,0,T,0,M,0,N,0,K,A*23
$GPGSA,A,3,20,32,8,11,17,,,,,,,,4.720,1.820,4.355*02
$GPGGA,120339.22,3943.8682,N,11619.8064,E,1,6,1.760,128.698,M,-10.358,M,0,*43
$GPRMC,120339.22,A,3943.8682,N,11619.8064,E,0,0,150710,0,W,A*3C
$GPVTG,0,T,0,M,0,N,0,K,A*23
$GPGSA,A,3,20,32,8,11,17,28,,,,,,,3.731,1.760,3.290*0B
$GPGSV,3,1,10,4,7,223,,7,12,190,,8,35,219,20,11,64,55,29*49
$GPGSV,3,2,10,17,41,288,25,19,13,77,,20,32,131,45,27,5,329,*7C
$GPGSV,3,3,10,28,75,312,16,32,30,100,38*7F
$GPGGA,120340.22,3943.8682,N,11619.8064,E,1,6,1.760,128.698,M,-10.358,M,0,*4D
$GPRMC,120340.22,A,3943.8682,N,11619.8064,E,0,0,150710,0,W,A*32
$GPVTG,0,T,0,M,0,N,0,K,A*23
$GPGSA,A,3,20,8,32,28,11,17,,,,,,,3.731,1.760,3.290*0B
$GPGGA,120341.22,3943.8682,N,11619.8064,E,1,6,1.760,128.698,M,-10.358,M,0,*4C
$GPRMC,120341.22,A,3943.8682,N,11619.8064,E,0,0,150710,0,W,A*33
$GPVTG,0,T,0,M,0,N,0,K,A*23
$GPGSA,A,3,20,8,32,28,17,11,,,,,,,3.731,1.760,3.290*0B
$GPGGA,120342.22,3943.8682,N,11619.8064,E,1,6,1.760,128.698,M,-10.358,M,0,*4F
$GPRMC,120342.22,A,3943.8682,N,11619.8064,E,0,0,150710,0,W,A*30
$GPVTG,0,T,0,M,0,N,0,K,A*23
$GPGSA,A,3,20,8,32,28,17,11,,,,,,,3.731,1.760,3.290*0B
$GPGGA,120343.22,3943.8682,N,11619.8064,E,1,6,1.760,128.698,M,-10.358,M,0,*4E
$GPRMC,120343.22,A,3943.8682,N,11619.8064,E,0,0,150710,0,W,A*31
$GPVTG,0,T,0,M,0,N,0,K,A*23
$GPGSA,A,3,20,8,32,28,17,11,,,,,,,3.732,1.760,3.291*09
$GPGGA,120344.22,3943.8682,N,11619.8064,E,1,6,1.760,128.698,M,-10.358,M,0,*49
$GPRMC,120344.22,A,3943.8682,N,11619.8064,E,0,0,150710,0,W,A*36
$GPVTG,0,T,0,M,0,N,0,K,A*23
$GPGSA,A,3,20,8,32,28,17,11,,,,,,,3.732,1.760,3.291*09
$GPGSV,3,1,10,4,7,223,,7,12,190,,8,35,219,31,11,64,55,26*46
$GPGSV,3,2,10,17,41,288,23,19,13,77,,20,32,131,44,27,5,329,*7B
$GPGSV,3,3,10,28,75,312,20,32,30,100,43*76
$GPGGA,120345.22,3943.8682,N,11619.8064,E,1,6,1.760,128.698,M,-10.358,M,0,*48
$GPRMC,120345.22,A,3943.8682,N,11619.8064,E,0,0,150710,0,W,A*37
$GPVTG,0,T,0,M,0,N,0,K,A*23
$GPGSA,A,3,20,8,32,28,17,11,,,,,,,3.732,1.760,3.291*09
$GPGGA,120346.22,3943.8682,N,11619.8064,E,1,6,1.760,128.698,M,-10.358,M,0,*4B
$GPRMC,120346.22,A,3943.8682,N,11619.8064,E,0,0,150710,0,W,A*34
$GPVTG,0,T,0,M,0,N,0,K,A*23
$GPGSA,A,3,20,8,32,28,17,11,,,,,,,3.732,1.760,3.291*09
$GPGGA,120347.22,3943.8682,N,11619.8064,E,1,6,1.759,128.698,M,-10.358,M,0,*40
$GPRMC,120347.22,A,3943.8682,N,11619.8064,E,0,0,150710,0,W,A*35
$GPVTG,0,T,0,M,0,N,0,K,A*23
$GPGSA,A,3,20,8,32,28,17,11,,,,,,,3.732,1.759,3.292*00
$GPGGA,120348.22,3943.8682,N,11619.8064,E,1,6,1.759,128.698,M,-10.358,M,0,*4F
$GPRMC,120348.22,A,3943.8682,N,11619.8064,E,0,0,150710,0,W,A*3A
$GPVTG,0,T,0,M,0,N,0,K,A*23
$GPGSA,A,3,20,8,32,28,17,11,,,,,,,3.733,1.759,3.292*01
$GPGGA,120349.22,3943.8682,N,11619.8064,E,1,6,1.759,128.698,M,-10.358,M,0,*4E
$GPRMC,120349.22,A,3943.8682,N,11619.8064,E,0,0,150710,0,W,A*3B
$GPVTG,0,T,0,M,0,N,0,K,A*23
$GPGSA,A,3,20,8,32,28,17,11,,,,,,,3.733,1.759,3.292*01
$GPGSV,3,1,10,4,7,223,,7,12,190,,8,35,219,32,11,64,55,30*42
$GPGSV,3,2,10,17,41,288,29,19,13,77,,20,32,131,47,27,5,329,*72
$GPGSV,3,3,10,28,75,312,28,32,30,100,42*7F
$GPGGA,120350.22,3943.8682,N,11619.8064,E,1,6,1.759,128.698,M,-10.358,M,0,*46
$GPRMC,120350.22,A,3943.8682,N,11619.8064,E,0,0,150710,0,W,A*33
$GPVTG,0,T,0,M,0,N,0,K,A*23
$GPGSA,A,3,20,8,32,28,17,11,,,,,,,3.733,1.759,3.292*01
$GPGGA,120351.22,3943.8682,N,11619.8064,E,1,6,1.759,128.698,M,-10.358,M,0,*47
$GPRMC,120351.22,A,3943.8682,N,11619.8064,E,0,0,150710,0,W,A*32
$GPVTG,0,T,0,M,0,N,0,K,A*23
$GPGSA,A,3,20,8,32,28,17,11,,,,,,,3.733,1.759,3.293*00
$GPGGA,120352.22,3943.8682,N,11619.8064,E,1,6,1.759,128.698,M,-10.358,M,0,*44
$GPRMC,120352.22,A,3943.8682,N,11619.8064,E,0,0,150710,0,W,A*31
$GPVTG,0,T,0,M,0,N,0,K,A*23
$GPGSA,A,3,20,8,32,28,17,11,,,,,,,3.733,1.759,3.293*00
$GPGGA,120353.22,3943.8682,N,11619.8064,E,1,6,1.759,128.698,M,-10.358,M,0,*45
$GPRMC,120353.22,A,3943.8682,N,11619.8064,E,0,0,150710,0,W,A*30
$GPVTG,0,T,0,M,0,N,0,K,A*23
$GPGSA,A,3,20,8,32,28,17,11,,,,,,,3.733,1.759,3.293*00
$GPGGA,120354.22,3943.8682,N,11619.8064,E,1,6,1.759,128.698,M,-10.358,M,0,*42
$GPRMC,120354.22,A,3943.8682,N,11619.8064,E,0,0,150710,0,W,A*37
$GPVTG,0,T,0,M,0,N,0,K,A*23
$GPGSA,A,3,20,8,32,28,17,11,,,,,,,3.734,1.759,3.293*07
$GPGSV,3,1,10,4,7,223,,7,12,190,,8,35,219,33,11,64,55,27*45
$GPGSV,3,2,10,17,41,288,29,19,13,77,,20,32,131,45,27,5,329,*70
$GPGSV,3,3,10,28,75,312,31,32,30,100,42*77
$GPGGA,120355.22,3943.8682,N,11619.8064,E,1,6,1.759,128.698,M,-10.358,M,0,*43
$GPRMC,120355.22,A,3943.8682,N,11619.8064,E,0,0,150710,0,W,A*36
$GPVTG,0,T,0,M,0,N,0,K,A*23
$GPGSA,A,3,20,8,32,28,17,11,,,,,,,3.734,1.759,3.293*07
$GPGGA,120356.22,3943.8682,N,11619.8064,E,1,6,1.759,128.698,M,-10.358,M,0,*40
$GPRMC,120356.22,A,3943.8682,N,11619.8064,E,0,0,150710,0,W,A*35
$GPVTG,0,T,0,M,0,N,0,K,A*23
$GPGSA,A,3,20,8,32,28,17,11,,,,,,,3.734,1.759,3.294*00
$GPGGA,120357.22,3943.8682,N,11619.8064,E,1,6,1.759,128.698,M,-10.358,M,0,*41
$GPRMC,120357.22,A,3943.8682,N,11619.8064,E,0,0,150710,0,W,A*34
$GPVTG,0,T,0,M,0,N,0,K,A*23
$GPGSA,A,3,20,8,32,28,17,11,,,,,,,3.734,1.759,3.294*00
$GPGGA,120358.22,3943.8682,N,11619.8064,E,1,6,1.759,128.698,M,-10.358,M,0,*4E
$GPRMC,120358.22,A,3943.8682,N,11619.8064,E,0,0,150710,0,W,A*3B
$GPVTG,0,T,0,M,0,N,0,K,A*23
$GPGSA,A,3,20,8,32,28,17,11,,,,,,,3.734,1.759,3.294*00
$GPGGA,120359.22,3943.8682,N,11619.8064,E,1,6,1.759,128.698,M,-10.358,M,0,*4F
$GPRMC,120359.22,A,3943.8682,N,11619.8064,E,0,0,150710,0,W,A*3A
$GPVTG,0,T,0,M,0,N,0,K,A*23
$GPGSA,A,3,20,8,32,28,17,11,,,,,,,3.734,1.759,3.294*00
$GPGSV,3,1,10,4,7,223,,7,12,190,,8,35,219,36,11,64,55,21*46
$GPGSV,3,2,10,17,41,288,26,19,13,77,,20,32,131,45,27,5,329,*7F
$GPGSV,3,3,10,28,75,312,33,32,30,100,42*75
