$GPGGA,050416.73,3943.9201,N,11619.7718,E,1,10,0.792,79.014,M,-10.122,M,0,*45
$GPRMC,050416.73,A,3943.9201,N,11619.7718,E,0,0,290710,0,W,A*36
$GPVTG,0,T,0,M,0,N,0,K,A*23
$GPGSA,A,3,23,20,29,31,32,6,16,21,13,3,,,1.348,0.792,1.091*31
$GPGSV,3,1,11,3,35,190,27,6,48,171,41,13,25,317,17,16,77,339,38*78
$GPGSV,3,2,11,19,7,194,,20,9,244,20,21,8,87,30,23,49,297,43*70
$GPGSV,3,3,11,29,11,38,20,31,40,98,42,32,9,224,16*71
$GPGGA,050417.73,3943.9201,N,11619.7718,E,1,10,0.792,79.014,M,-10.122,M,0,*44
$GPRMC,050417.73,A,3943.9201,N,11619.7718,E,0,0,290710,0,W,A*37
$GPVTG,0,T,0,M,0,N,0,K,A*23
$GPGSA,A,3,23,29,31,32,6,16,20,21,3,13,,,1.348,0.792,1.091*31
$GPGGA,050418.73,3943.9201,N,11619.7718,E,1,10,0.792,79.014,M,-10.122,M,0,*4B
$GPRMC,050418.73,A,3943.9201,N,11619.7718,E,0,0,290710,0,W,A*38
$GPVTG,0,T,0,M,0,N,0,K,A*23
$GPGSA,A,3,23,29,31,32,6,16,20,21,13,3,,,1.348,0.792,1.091*31
$GPGGA,050419.73,3943.9201,N,11619.7718,E,1,10,0.792,79.014,M,-10.122,M,0,*4A
$GPRMC,050419.73,A,3943.9201,N,11619.7718,E,0,0,290710,0,W,A*39
$GPVTG,0,T,0,M,0,N,0,K,A*23
$GPGSA,A,3,23,20,31,32,6,16,21,13,3,29,,,1.348,0.792,1.091*31
$GPGGA,050420.73,3943.9201,N,11619.7718,E,1,10,0.792,79.014,M,-10.122,M,0,*40
$GPRMC,050420.73,A,3943.9201,N,11619.7718,E,0,0,290710,0,W,A*33
$GPVTG,0,T,0,M,0,N,0,K,A*23
$GPGSA,A,3,23,20,31,6,16,21,13,32,3,29,,,1.348,0.792,1.091*31
$GPGGA,050421.73,3943.9201,N,11619.7718,E,1,10,0.792,79.014,M,-10.122,M,0,*41
$GPRMC,050421.73,A,3943.9201,N,11619.7718,E,0,0,290710,0,W,A*32
$GPVTG,0,T,0,M,0,N,0,K,A*23
$GPGSA,A,3,23,29,31,32,6,16,20,21,13,3,,,1.348,0.792,1.091*31
$GPGSV,3,1,11,3,35,190,27,6,48,171,41,13,26,317,15,16,77,339,39*78
$GPGSV,3,2,11,19,7,194,,20,9,244,21,21,8,87,29,23,49,297,43*79
$GPGSV,3,3,11,29,11,38,19,31,39,98,44,32,9,224,16*73
$GPGGA,050422.73,3943.9201,N,11619.7718,E,1,10,0.792,79.014,M,-10.122,M,0,*42
$GPRMC,050422.73,A,3943.9201,N,11619.7718,E,0,0,290710,0,W,A*31
$GPVTG,0,T,0,M,0,N,0,K,A*23
$GPGSA,A,3,23,31,32,6,16,20,21,13,3,29,,,1.348,0.792,1.090*30
$GPGGA,050423.73,3943.9201,N,11619.7718,E,1,10,0.792,79.014,M,-10.122,M,0,*43
$GPRMC,050423.73,A,3943.9201,N,11619.7718,E,0,0,290710,0,W,A*30
$GPVTG,0,T,0,M,0,N,0,K,A*23
$GPGSA,A,3,23,29,31,32,6,16,20,21,13,3,,,1.348,0.792,1.090*30
$GPGGA,050424.73,3943.9201,N,11619.7718,E,1,10,0.793,79.014,M,-10.122,M,0,*45
$GPRMC,050424.73,A,3943.9201,N,11619.7718,E,0,0,290710,0,W,A*37
$GPVTG,0,T,0,M,0,N,0,K,A*23
$GPGSA,A,3,23,20,31,32,6,16,21,13,3,29,,,1.348,0.793,1.090*31
$GPGGA,050425.73,3943.9201,N,11619.7718,E,1,10,0.793,79.014,M,-10.122,M,0,*44
$GPRMC,050425.73,A,3943.9201,N,11619.7718,E,0,0,290710,0,W,A*36
$GPVTG,0,T,0,M,0,N,0,K,A*23
$GPGSA,A,3,23,20,31,32,6,16,21,3,29,13,,,1.348,0.793,1.090*31
$GPGGA,050426.73,3943.9201,N,11619.7718,E,1,10,0.793,79.014,M,-10.122,M,0,*47
$GPRMC,050426.73,A,3943.9201,N,11619.7718,E,0,0,290710,0,W,A*35
$GPVTG,0,T,0,M,0,N,0,K,A*23
$GPGSA,A,3,23,20,31,32,6,16,21,3,29,13,,,1.348,0.793,1.090*31
$GPGSV,3,1,11,3,36,190,27,6,48,171,40,13,26,317,16,16,77,339,37*77
$GPGSV,3,2,11,19,7,194,,20,9,244,21,21,8,87,26,23,49,297,44*71
$GPGSV,3,3,11,29,11,38,19,31,39,98,43,32,9,224,19*7B
$GPGGA,050427.73,3943.9201,N,11619.7718,E,1,10,0.793,79.014,M,-10.122,M,0,*46
$GPRMC,050427.73,A,3943.9201,N,11619.7718,E,0,0,290710,0,W,A*34
$GPVTG,0,T,0,M,0,N,0,K,A*23
$GPGSA,A,3,23,20,29,31,32,6,16,21,13,3,,,1.348,0.793,1.090*31
$GPGGA,050428.73,3943.9201,N,11619.7718,E,1,10,0.793,79.014,M,-10.122,M,0,*49
$GPRMC,050428.73,A,3943.9201,N,11619.7718,E,0,0,290710,0,W,A*3B
$GPVTG,0,T,0,M,0,N,0,K,A*23
$GPGSA,A,3,23,20,31,32,6,16,21,3,29,13,,,1.347,0.793,1.090*3E
$GPGGA,050429.73,3943.9201,N,11619.7718,E,1,10,0.793,79.014,M,-10.122,M,0,*48
$GPRMC,050429.73,A,3943.9201,N,11619.7718,E,0,0,290710,0,W,A*3A
$GPVTG,0,T,0,M,0,N,0,K,A*23
$GPGSA,A,3,23,29,31,32,6,16,20,21,3,13,,,1.347,0.793,1.090*3E
$GPGGA,050430.73,3943.9201,N,11619.7718,E,1,10,0.793,79.014,M,-10.122,M,0,*40
$GPRMC,050430.73,A,3943.9201,N,11619.7718,E,0,0,290710,0,W,A*32
$GPVTG,0,T,0,M,0,N,0,K,A*23
$GPGSA,A,3,23,29,31,6,16,20,21,32,3,13,,,1.347,0.793,1.089*36
$GPGGA,050431.73,3943.9201,N,11619.7718,E,1,10,0.793,79.014,M,-10.122,M,0,*41
$GPRMC,050431.73,A,3943.9201,N,11619.7718,E,0,0,290710,0,W,A*33
$GPVTG,0,T,0,M,0,N,0,K,A*23
$GPGSA,A,3,23,20,29,31,6,16,21,32,3,13,,,1.347,0.793,1.089*36
$GPGSV,3,1,11,3,36,190,27,6,48,171,40,13,26,317,14,16,77,339,36*74
$GPGSV,3,2,11,19,7,194,,20,9,244,20,21,8,87,23,23,49,297,43*72
$GPGSV,3,3,11,29,11,38,14,31,39,98,43,32,9,224,21*7D
$GPGGA,050432.73,3943.9201,N,11619.7718,E,1,10,0.793,79.014,M,-10.122,M,0,*42
$GPRMC,050432.73,A,3943.9201,N,11619.7718,E,0,0,290710,0,W,A*30
$GPVTG,0,T,0,M,0,N,0,K,A*23
$GPGSA,A,3,23,20,31,6,16,21,32,3,29,13,,,1.347,0.793,1.089*36
$GPGGA,050433.73,3943.9201,N,11619.7718,E,1,10,0.793,79.014,M,-10.122,M,0,*43
$GPRMC,050433.73,A,3943.9201,N,11619.7718,E,0,0,290710,0,W,A*31
$GPVTG,0,T,0,M,0,N,0,K,A*23
$GPGSA,A,3,23,20,31,6,16,21,32,3,29,13,,,1.347,0.793,1.089*36
$GPGGA,050434.73,3943.9201,N,11619.7718,E,1,10,0.793,79.014,M,-10.122,M,0,*44
$GPRMC,050434.73,A,3943.9201,N,11619.7718,E,0,0,290710,0,W,A*36
$GPVTG,0,T,0,M,0,N,0,K,A*23
$GPGSA,A,3,23,29,31,32,6,16,20,21,3,13,,,1.347,0.793,1.089*36
$GPGGA,050435.73,3943.9201,N,11619.7718,E,1,10,0.793,79.014,M,-10.122,M,0,*45
$GPRMC,050435.73,A,3943.9201,N,11619.7718,E,0,0,290710,0,W,A*37
$GPVTG,0,T,0,M,0,N,0,K,A*23
$GPGSA,A,3,23,29,31,32,6,16,20,21,3,13,,,1.347,0.793,1.089*36
$GPGGA,050436.73,3943.9201,N,11619.7718,E,1,10,0.793,79.014,M,-10.122,M,0,*46
$GPRMC,050436.73,A,3943.9201,N,11619.7718,E,0,0,290710,0,W,A*34
$GPVTG,0,T,0,M,0,N,0,K,A*23
$GPGSA,A,3,23,13,29,31,32,6,16,20,21,3,,,1.347,0.793,1.089*36
$GPGSV,3,1,11,3,36,190,24,6,48,171,41,13,26,317,17,16,77,339,38*7B
$GPGSV,3,2,11,19,7,194,,20,9,244,24,21,8,87,23,23,49,297,43*76
$GPGSV,3,3,11,29,11,38,15,31,39,98,44,32,9,224,21*7B
$GPGGA,050437.73,3943.9201,N,11619.7718,E,1,9,0.879,79.014,M,-10.122,M,0,*74
$GPRMC,050437.73,A,3943.9201,N,11619.7718,E,0,0,290710,0,W,A*35
$GPVTG,0,T,0,M,0,N,0,K,A*23
$GPGSA,A,3,23,13,31,32,6,16,20,3,29,,,,1.504,0.879,1.220*3E
$GPGGA,050438.73,3943.9201,N,11619.7718,E,1,10,0.793,79.014,M,-10.122,M,0,*48
$GPRMC,050438.73,A,3943.9201,N,11619.7718,E,0,0,290710,0,W,A*3A
$GPVTG,0,T,0,M,0,N,0,K,A*23
$GPGSA,A,3,23,13,29,31,32,6,16,20,21,3,,,1.347,0.793,1.089*36
$GPGGA,050439.73,3943.9201,N,11619.7718,E,1,10,0.793,79.014,M,-10.122,M,0,*49
$GPRMC,050439.73,A,3943.9201,N,11619.7718,E,0,0,290710,0,W,A*3B
$GPVTG,0,T,0,M,0,N,0,K,A*23
$GPGSA,A,3,23,13,31,32,6,16,20,21,3,29,,,1.347,0.793,1.088*37
$GPGGA,050440.73,3943.9201,N,11619.7718,E,1,10,0.793,79.014,M,-10.122,M,0,*47
$GPRMC,050440.73,A,3943.9201,N,11619.7718,E,0,0,290710,0,W,A*35
$GPVTG,0,T,0,M,0,N,0,K,A*23
$GPGSA,A,3,23,13,31,32,6,16,20,21,3,29,,,1.347,0.793,1.088*37
$GPGGA,050441.73,3943.9201,N,11619.7718,E,1,10,0.793,79.014,M,-10.122,M,0,*46
$GPRMC,050441.73,A,3943.9201,N,11619.7718,E,0,0,290710,0,W,A*34
$GPVTG,0,T,0,M,0,N,0,K,A*23
$GPGSA,A,3,23,13,31,32,6,16,20,21,3,29,,,1.346,0.793,1.088*36
$GPGSV,3,1,11,3,36,190,19,6,48,171,43,13,26,317,13,16,77,340,40*72
$GPGSV,3,2,11,19,7,194,,20,9,244,25,21,8,87,24,23,49,297,43*70
$GPGSV,3,3,11,29,11,38,20,31,39,98,45,32,9,224,22*7F
$GPGGA,050442.73,3943.9201,N,11619.7718,E,1,10,0.793,79.014,M,-10.122,M,0,*45
$GPRMC,050442.73,A,3943.9201,N,11619.7718,E,0,0,290710,0,W,A*37
$GPVTG,0,T,0,M,0,N,0,K,A*23
$GPGSA,A,3,23,29,31,32,6,16,20,21,13,3,,,1.346,0.793,1.088*36
$GPGGA,050443.73,3943.9201,N,11619.7718,E,1,10,0.793,79.014,M,-10.122,M,0,*44
$GPRMC,050443.73,A,3943.9201,N,11619.7718,E,0,0,290710,0,W,A*36
$GPVTG,0,T,0,M,0,N,0,K,A*23
$GPGSA,A,3,23,29,31,32,6,16,20,21,13,3,,,1.346,0.793,1.088*36
$GPGGA,050444.73,3943.9201,N,11619.7718,E,1,10,0.793,79.014,M,-10.122,M,0,*43
$GPRMC,050444.73,A,3943.9201,N,11619.7718,E,0,0,290710,0,W,A*31
$GPVTG,0,T,0,M,0,N,0,K,A*23
$GPGSA,A,3,23,31,6,16,20,21,13,32,3,29,,,1.346,0.793,1.088*36
