3.9002,N,11619.7466,E,0,0,040211,0,W,A*3E
$GPVTG,0,T,0,M,0,N,0,K,A*23
$GPGSA,A,3,25,2,10,5,4,,,,,,,,3.618,2.562,2.554*0E
$GPGGA,032104.90,3943.9078,N,11619.7402,E,1,5,2.563,55.998,M,-10.359,M,0,*79
$GPRMC,032104.90,A,3943.9078,N,11619.7402,E,0.821,179.598,040211,0,W,A*36
$GPVTG,179.598,T,179.598,M,0.821,N,1.520,K,A*2E
$GPGSA,A,3,25,2,10,5,4,,,,,,,,3.618,2.563,2.554*0F
$GPGSV,6,1,22,2,73,7,41,3,4,251,,4,48,83,40,5,57,247,44*7A
$GPGSV,6,2,22,6,16,260,,9,18,142,,10,69,40,43,12,21,247,*43
$GPGSV,6,3,22,13,28,52,,14,5,,,15,5,,,16,5,,*40
$GPGSV,6,4,22,17,6,148,,18,5,,,19,5,,,20,5,,*40
$GPGSV,6,5,22,21,5,,,22,5,,,23,3,32,,25,17,292,41*77
$GPGSV,6,6,22,29,23,13,,31,21,332,*42
$GPGGA,032105.90,3943.9090,N,11619.7393,E,1,5,2.563,58.741,M,-10.359,M,0,*76
$GPRMC,032105.90,A,3943.9090,N,11619.7393,E,0.245,203.639,040211,0,W,A*30
$GPVTG,203.639,T,203.639,M,0.245,N,0.453,K,A*22
$GPGSA,A,3,25,2,10,5,4,,,,,,,,3.618,2.563,2.553*08
$GPGGA,032106.90,3943.9101,N,11619.7385,E,1,5,2.563,60.524,M,-10.359,M,0,*71
$GPRMC,032106.90,A,3943.9101,N,11619.7385,E,0.437,321.630,040211,0,W,A*36
$GPVTG,321.630,T,321.630,M,0.437,N,0.810,K,A*2A
$GPGSA,A,3,25,2,10,5,4,,,,,,,,3.618,2.563,2.553*08
$GPGGA,032107.90,3943.9103,N,11619.7379,E,1,5,2.564,59.369,M,-10.359,M,0,*73
$GPRMC,032107.90,A,3943.9103,N,11619.7379,E,0.367,195.278,040211,0,W,A*31
$GPVTG,195.278,T,195.278,M,0.367,N,0.680,K,A*2F
$GPGSA,A,3,25,2,10,5,4,,,,,,,,3.618,2.564,2.553*0F
$GPGGA,032108.90,3943.9100,N,11619.7383,E,1,5,2.564,57.478,M,-10.359,M,0,*73
$GPRMC,032108.90,A,3943.9100,N,11619.7383,E,0.292,239.479,040211,0,W,A*31
$GPVTG,239.479,T,239.479,M,0.292,N,0.541,K,A*2A
$GPGSA,A,3,25,2,10,5,4,,,,,,,,3.618,2.564,2.552*0E
$GPGGA,032109.90,3943.9094,N,11619.7388,E,1,5,2.564,56.265,M,-10.359,M,0,*7E
$GPRMC,032109.90,A,3943.9094,N,11619.7388,E,1.105,202.937,040211,0,W,A*34
$GPVTG,202.937,T,202.937,M,1.105,N,2.046,K,A*26
$GPGSA,A,3,25,2,10,5,4,,,,,,,,3.618,2.564,2.552*0E
$GPGSV,5,1,19,2,73,7,41,4,48,83,41,5,57,247,44,10,69,40,42*4D
$GPGSV,5,2,19,12,21,247,,13,28,52,,14,5,,,15,5,,*49
$GPGSV,5,3,19,16,5,,,17,6,148,,18,5,,,19,5,,*49
$GPGSV,5,4,19,20,5,,,21,5,,,22,5,,,23,3,32,*77
$GPGSV,5,5,19,25,17,292,34,26,9,183,,29,12,318,*7B
$GPGGA,032110.90,3943.9085,N,11619.7393,E,1,5,2.564,55.557,M,-10.359,M,0,*79
$GPRMC,032110.90,A,3943.9085,N,11619.7393,E,0.865,202.434,040211,0,W,A*36
$GPVTG,202.434,T,202.434,M,0.865,N,1.601,K,A*2E
$GPGSA,A,3,25,2,10,5,4,,,,,,,,3.617,2.564,2.551*02
$GPGGA,032111.90,3943.9075,N,11619.7399,E,1,5,2.565,56.719,M,-10.359,M,0,*77
$GPRMC,032111.90,A,3943.9075,N,11619.7399,E,0.826,4.122,040211,0,W,A*33
$GPVTG,4.122,T,4.122,M,0.826,N,1.530,K,A*28
$GPGSA,A,3,25,2,10,5,4,,,,,,,,3.617,2.565,2.551*03
$GPGGA,032112.90,3943.9063,N,11619.7405,E,1,5,2.565,58.872,M,-10.359,M,0,*7D
$GPRMC,032112.90,A,3943.9063,N,11619.7405,E,0.056,15.488,040211,0,W,A*0F
$GPVTG,15.488,T,15.488,M,0.056,N,0.103,K,A*22
$GPGSA,A,3,25,2,10,5,4,,,,,,,,3.617,2.565,2.551*03
$GPGGA,032113.90,3943.9025,N,11619.7417,E,1,5,2.565,64.116,M,-10.359,M,0,*79
$GPRMC,032113.90,A,3943.9025,N,11619.7417,E,0.023,119.124,040211,0,W,A*33
$GPVTG,119.124,T,119.124,M,0.023,N,0.042,K,A*24
$GPGSA,A,3,25,2,10,5,4,,,,,,,,3.617,2.565,2.550*02
$GPGGA,032114.90,3943.9008,N,11619.7416,E,1,5,2.566,67.599,M,-10.359,M,0,*73
$GPRMC,032114.90,A,3943.9008,N,11619.7416,E,0.012,348.315,040211,0,W,A*3E
$GPVTG,348.315,T,348.315,M,0.012,N,0.023,K,A*21
$GPGSA,A,3,25,2,10,5,4,,,,,,,,3.617,2.566,2.550*01
$GPGSV,3,1,11,2,73,8,42,4,48,83,41,5,57,247,44,10,69,40,40*4D
$GPGSV,3,2,11,12,21,247,,13,28,52,38,17,6,148,,23,3,32,*73
$GPGSV,3,3,11,25,17,292,43,26,9,183,,29,12,318,*73
$GPGGA,032115.90,3943.9008,N,11619.7416,E,1,5,2.566,67.599,M,-10.359,M,0,*72
$GPRMC,032115.90,A,3943.9008,N,11619.7416,E,0,0,040211,0,W,A*34
$GPVTG,0,T,0,M,0,N,0,K,A*23
$GPGSA,A,3,25,2,10,5,4,,,,,,,,3.617,2.566,2.549*09
$GPGGA,032116.90,3943.9008,N,11619.7416,E,1,5,2.566,67.599,M,-10.359,M,0,*71
$GPRMC,032116.90,A,3943.9008,N,11619.7416,E,0,0,040211,0,W,A*37
$GPVTG,0,T,0,M,0,N,0,K,A*23
$GPGSA,A,3,25,2,10,5,4,,,,,,,,3.617,2.566,2.549*09
$GPGGA,032117.90,3943.9008,N,11619.7416,E,1,5,2.567,67.599,M,-10.359,M,0,*71
$GPRMC,032117.90,A,3943.9008,N,11619.7416,E,0,0,040211,0,W,A*36
$GPVTG,0,T,0,M,0,N,0,K,A*23
$GPGSA,A,3,25,2,10,5,4,,,,,,,,3.617,2.567,2.548*09
$GPGGA,032118.90,3943.9008,N,11619.7416,E,1,5,2.567,67.599,M,-10.359,M,0,*7E
$GPRMC,032118.90,A,3943.9008,N,11619.7416,E,0,0,040211,0,W,A*39
$GPVTG,0,T,0,M,0,N,0,K,A*23
$GPGSA,A,3,25,2,10,5,4,,,,,,,,3.617,2.567,2.548*09
$GPGGA,032119.90,3943.9008,N,11619.7416,E,1,5,2.567,67.599,M,-10.359,M,0,*7F
$GPRMC,032119.90,A,3943.9008,N,11619.7416,E,0,0,040211,0,W,A*38
$GPVTG,0,T,0,M,0,N,0,K,A*23
$GPGSA,A,3,25,2,10,5,4,,,,,,,,3.617,2.567,2.548*09
$GPGSV,3,1,11,2,73,8,42,4,48,83,39,5,57,247,43,10,69,40,40*45
$GPGSV,3,2,11,12,21,247,,13,28,52,37,17,6,148,,23,3,32,*7C
$GPGSV,3,3,11,25,17,292,44,26,9,183,,29,12,318,36*71
$GPGGA,032120.90,3943.9008,N,11619.7416,E,1,5,2.568,67.599,M,-10.359,M,0,*7A
$GPRMC,032120.90,A,3943.9008,N,11619.7416,E,0,0,040211,0,W,A*32
$GPVTG,0,T,0,M,0,N,0,K,A*23
$GPGSA,A,3,25,2,10,5,4,,,,,,,,3.617,2.568,2.547*09
$GPGGA,032121.90,3943.9008,N,11619.7416,E,1,5,2.568,67.599,M,-10.359,M,0,*7B
$GPRMC,032121.90,A,3943.9008,N,11619.7416,E,0,0,040211,0,W,A*33
$GPVTG,0,T,0,M,0,N,0,K,A*23
$GPGSA,A,3,25,2,10,5,4,,,,,,,,3.617,2.568,2.547*09
$GPGGA,032122.90,3943.9008,N,11619.7416,E,1,5,2.568,67.599,M,-10.359,M,0,*78
$GPRMC,032122.90,A,3943.9008,N,11619.7416,E,0,0,040211,0,W,A*30
$GPVTG,0,T,0,M,0,N,0,K,A*23
$GPGSA,A,3,25,2,10,5,4,,,,,,,,3.617,2.568,2.546*08
$GPGGA,032123.90,3943.9008,N,11619.7416,E,1,5,2.569,67.599,M,-10.359,M,0,*78
$GPRMC,032123.90,A,3943.9008,N,11619.7416,E,0,0,040211,0,W,A*31
$GPVTG,0,T,0,M,0,N,0,K,A*23
$GPGSA,A,3,25,2,10,5,4,,,,,,,,3.616,2.569,2.546*08
$GPGGA,032124.90,3943.9008,N,11619.7416,E,1,5,2.569,67.599,M,-10.359,M,0,*7F
$GPRMC,032124.90,A,3943.9008,N,11619.7416,E,0,0,040211,0,W,A*36
$GPVTG,0,T,0,M,0,N,0,K,A*23
$GPGSA,A,3,25,2,10,5,4,,,,,,,,3.616,2.569,2.545*0B
$GPGSV,3,1,11,2,73,8,41,4,48,83,38,5,57,247,42,10,69,40,40*46
$GPGSV,3,2,11,12,21,247,,13,28,52,34,17,6,148,,23,3,32,*7F
$GPGSV,3,3,11,25,17,292,41,26,9,183,,29,12,318,35*77
$GPGGA,032125.90,3943.9008,N,11619.7416,E,1,5,2.569,67.599,M,-10.359,M,0,*7E
$GPRMC,032125.90,A,3943.9008,N,11619.7416,E,0,0,040211,0,W,A*37
$GPVTG,0,T,0,M,0,N,0,K,A*23
$GPGSA,A,3,25,2,10,5,4,,,,,,,,3.616,2.569,2.545*0B
$GPGGA,032126.90,3943.9008,N,11619.7416,E,1,5,2.569,67.599,M,-10.359,M,0,*7D
$GPRMC,032126.90,A,3943.9008,N,11619.7416,E,0,0,040211,0,W,A*34
$GPVTG,0,T,0,M,0,N,0,K,A*23
$GPGSA,A,3,25,2,10,5,4,,,,,,,,3.616,2.569,2.545*0B
$GPGGA,032127.90,3943.9008,N,11619.7416,E,1,5,2.570,67.599,M,-10.359,M,0,*74
$GPRMC,032127.90,A,3943.9008,N,11619.7416,E,0,0,040211,0,W,A*35
$GPVTG,0,T,0,M,0,N,0,K,A*23
$GPGSA,A,3,25,2,10,5,4,,,,,,,,3.616,2.570,2.544*02
$GPGGA,032128.90,3943.9008,N,11619.7416,E,1,5,2.570,67.599,M,-10.359,M,0,*7B
$GPRMC,032128.90,A,3943.9008,N,11619.7416,E,0,0,040211,0,W,A*3A
$GPVTG,0,T,0,M,0,N,0,K,A*23
$GPGSA,A,3,25,2,10,5,4,,,,,,,,3.616,2.570,2.544*02
$GPGGA,032129.90,3943.9008,N,11619.7416,E,1,5,2.570,67.599,M,-10.359,M,0,*7A
$GPRMC,032129.90,A,3943.9008,N,11619.7416,E,0,0,040211,0,W,A*3B
$GPVTG,0,T,0,M,0,N,0,K,A*23
$GPGSA,A,3,25,2,10,5,4,,,,,,,,3.616,2.570,2.543*05
$GPGSV,3,1,11,2,73,8,43,4,48,83,38,5,57,247,43,10,69,40,40*45
$GPGSV,3,2,11,12,21,247,,13,28,52,36,17,6,148,,23,3,32,*7D
$GPGSV,3,3,11,25,17,292,39,26,9,183,,29,12,318,30*7D
$GPGGA,032130.90,3943.9008,N,11619.7420,E,1,5,2.571,66.854,M,-10.359,M,0,*7B
$GPRMC,032130.90,A,3943.9008,N,11619.7420,E,1.084,59.884,040211,0,W,A*03
$GPVTG,59.884,T,59.884,M,1.084,N,2.007,K,A*2B
$GPGSA,A,3,25,2,10,5,4,,,,,,,,3.616,2.571,2.543*04
$GPGGA,032131.90,3943.9008,N,11619.7427,E,1,5,2.571,66.545,M,-10.359,M,0,*70
$GPRMC,032131.90,A,3943.9008,N,11619.7427,E,1.478,94.998,040211,0,W,A*0F
$GPVTG,94.998,T,94.998,M,1.478,N,2.737,K,A*28
$GPGSA,A,3,25,2,10,5,4,,,,,,,,3.616,2.571,2.542*05
$GPGGA,032132.90,3943.9008,N,11619.7427,E,1,5,2.571,66.545,M,-10.359,M,0,*73
$GPRMC,032132.90,A,3943.9008,N,11619.7427,E,0,0,040211,0,W,A*33
$GPVTG,0,T,0,M,0,N,0,K,A*23
$GPGSA,A,3,25,2,10,5,4,,,,,,,,3.616,2.571,2.542*05
$GPGGA,032133.90,3943.9008,N,11619.7427,E,1,5,2.572,66.545,M,-10.359,M,0,*71
$GPRMC,032133.90,A,3943.9008,N,11619.7427,E,0,0,040211,0,W,A*32
$GPVTG,0,T,0,M,0,N,0,K,A*23
$GPGSA,A,3,25,2,10,5,4,,,,,,,,3.616,2.572,2.542*06
$GPGGA,032134.90,3943.9008,N,11619.7427,E,1,5,2.572,66.545,M,-10.359,M,0,*76
$GPRMC,032134.90,A,3943.9008,N,11619.7427,E,0,0,040211,0,W,A*35
$GPVTG,0,T,0,M,0,N,0,K,A*23
$GPGSA,A,3,25,2,10,5,4,,,,,,,,3.616,2.572,2.541*05
$GPGSV,3,1,11,2,73,8,43,4,48,83,39,5,57,247,44,10,69,40,40*43
$GPGSV,3,2,11,12,21,247,,13,28,52,33,17,6,148,,23,3,32,*78
$GPGSV,3,3,11,25,17,292,35,26,9,183,,29,12,318,29*79
$GPGGA,032135.90,3943.9008,N,11619.7427,E,1,5,2.572,66.545,M,-10.359,M,0,*77
$GPRMC,032135.90,A,3943.9008,N,11619.7427,E,0,0,040211,0,W,A*34
$GPVTG,0,T,0,M,0,N,0,K,A*23
$GPGSA,A,3,25,2,10,5,4,,,,,,,,3.616,2.572,2.541*05
$GPGGA,032136.90,3943.9008,N,11619.7427,E,1,5,2.573,66.545,M,-10.359,M,0,*75
$GPRMC,032136.90,A,3943.9008,N,11619.7427,E,0,0,040211,0,W,A*37
$GPVTG,0,T,0,M,0,N,0,K,A*23
$GPGSA,A,3,25,2,10,5,4,,,,,,,,3.615,2.573,2.540*06
$GPGGA,032137.90,3943.9005,N,11619.7426,E,1,5,2.573,66.168,M,-10.359,M,0,*73
$GPRMC,032137.90,A,3943.9005,N,11619.7426,E,1.310,270.978,040211,0,W,A*3A
$GPVTG,270.978,T,270.978,M,1.310,N,2.426,K,A*22
$GPGSA,A,3,25,2,10,5,4,,,,,,,,3.615,2.573,2.540*06
$GPGGA,032138.90,3943.9000,N,11619.7422,E,1,5,2.573,65.662,M,-10.359,M,0,*73
$GPRMC,032138.90,A,3943.9000,N,11619.7422,E,2.637,250.375,040211,0,W,A*32
$GPVTG,250.375,T,250.375,M,2.637,N,4.883,K,A*24
$GPGSA,A,3,25,2,10,5,4,,,,,,,,3.615,2.573,2.539*08
$GPGGA,032139.90,3943.8997,N,11619.7411,E,1,5,2.574,65.114,M,-10.359,M,0,*75
$GPRMC,032139.90,A,3943.8997,N,11619.7411,E,3.956,269.618,040211,0,W,A*38
$GPVTG,269.618,T,269.618,M,3.956,N,7.326,K,A*2A
$GPGSA,A,3,25,2,10,5,4,,,,,,,,3.615,2.574,2.539*0F
$GPGSV,3,1,11,2,73,8,42,4,48,83,41,5,57,247,44,10,69,40,39*43
$GPGSV,3,2,11,12,21,247,38,13,28,52,34,17,6,148,,23,3,32,*74
$GPGSV,3,3,11,25,17,292,32,26,9,183,,29,12,318,30*76
$GPGGA,032140.90,3943.8996,N,11619.7401,E,1,5,2.574,64.819,M,-10.359,M,0,*7E
$GPRMC,032140.90,A,3943.8996,N,11619.7401,E,3.911,267.237,040211,0,W,A*32
$GPVTG,267.237,T,267.237,M,3.911,N,7.244,K,A*2C
$GPGSA,A,3,25,2,10,5,4,,,,,,,,3.615,2.574,2.539*0F
$GPGGA,032141.90,3943.8994,N,11619.7388,E,1,5,2.574,64.483,M,-10.359,M,0,*74
$GPRMC,032141.90,A,3943.8994,N,11619.7388,E,4.614,267.184,040211,0,W,A*31
$GPVTG,267.184,T,267.184,M,4.614,N,8.545,K,A*28
$GPGSA,A,3,25,2,10,5,4,,,,,,,,3.615,2.574,2.538*0E
$GPGGA,032142.90,3943.8992,N,11619.7374,E,1,5,2.574,64.181,M,-10.359,M,0,*75
$GPRMC,032142.90,A,3943.8992,N,11619.7374,E,4.455,267.964,040211,0,W,A*36
$GPVTG,267.964,T,267.964,M,4.455,N,8.250,K,A*2C
$GPGSA,A,3,25,2,10,5,4,,,,,,,,3.615,2.574,2.538*0E
$GPGGA,032143.90,3943.8990,N,11619.7355,E,1,5,2.575,63.918,M,-10.359,M,0,*7B
$GPRMC,032143.90,A,3943.8990,N,11619.7355,E,5.837,266.642,040211,0,W,A*35
$GPVTG,266.642,T,266.642,M,5.837,N,10.809,K,A*1A
$GPGSA,A,3,25,2,10,5,4,,,,,,,,3.615,2.575,2.537*00
$GPGGA,032144.90,3943.8989,N,11619.7334,E,1,5,2.575,63.801,M,-10.359,M,0,*7A
$GPRMC,032144.90,A,3943.8989,N,11619.7334,E,5.467,267.978,040211,0,W,A*33
$GPVTG,267.978,T,267.978,M,5.467,N,10.125,K,A*14
$GPGSA,A,3,25,2,10,5,4,,,,,,,,3.615,2.575,2.537*00
$GPGSV,3,1,11,2,73,8,42,4,48,83,38,5,57,247,42,10,69,40,38*4A
$GPGSV,3,2,11,12,21,247,37,13,28,52,31,17,6,148,,23,3,32,*7E
$GPGSV,3,3,11,25,17,292,32,26,9,183,,29,12,318,33*75
$GPGGA,032145.90,3943.8987,N,11619.7316,E,1,5,2.575,63.662,M,-10.359,M,0,*7E
$GPRMC,032145.90,A,3943.8987,N,11619.7316,E,4.879,263.262,040211,0,W,A*3A
$GPVTG,263.262,T,263.262,M,4.879,N,9.036,K,A*2D
$GPGSA,A,3,25,2,10,5,4,,,,,,,,3.615,2.575,2.537*00
$GPGGA,032146.90,3943.8982,N,11619.7301,E,1,5,2.576,63.348,M,-10.359,M,0,*70
$GPRMC,032146.90,A,3943.8982,N,11619.7301,E,4.600,253.273,040211,0,W,A*39
$GPVTG,253.273,T,253.273,M,4.600,N,8.519,K,A*24
$GPGSA,A,3,25,2,10,5,4,,,,,,,,3.615,2.576,2.536*02
$GPGGA,032147.90,3943.8976,N,11619.7287,E,1,5,2.576,62.533,M,-10.359,M,0,*7E
$GPRMC,032147.90,A,3943.8976,N,11619.7287,E,4.885,236.732,040211,0,W,A*3C
$GPVTG,236.732,T,236.732,M,4.885,N,9.047,K,A*28
$GPGSA,A,3,25,2,10,5,4,,,,,,,,3.615,2.576,2.536*02
$GPGGA,032148.90,3943.8967,N,11619.7275,E,1,5,2.576,61.953,M,-10.359,M,0,*75
$GPRMC,032148.90,A,3943.8967,N,11619.7275,E,4.248,211.217,040211,0,W,A*32
$GPVTG,211.217,T,211.217,M,4.248,N,7.867,K,A*27
$GPGSA,A,3,25,2,10,5,4,,,,,,,,3.615,2.576,2.535*01
$GPGGA,032149.90,3943.8967,N,11619.7275,E,1,5,2.577,61.953,M,-10.359,M,0,*75
$GPRMC,032149.90,A,3943.8967,N,11619.7275,E,0,0,040211,0,W,A*3F
$GPVTG,0,T,0,M,0,N,0,K,A*23
$GPGSA,A,3,25,2,10,5,4,,,,,,,,3.614,2.577,2.535*01
$GPGSV,3,1,11,2,73,8,42,4,48,83,38,5,57,247,44,10,69,40,40*43
$GPGSV,3,2,11,12,21,247,38,13,28,52,35,17,6,148,,23,3,32,*75
$GPGSV,3,3,11,25,17,292,38,26,9,183,,29,12,318,30*7C
$GPGGA,032150.90,3943.8967,N,11619.7273,E,1,5,2.577,61.681,M,-10.359,M,0,*7B
$GPRMC,032150.90,A,3943.8967,N,11619.7273,E,1.777,223.848,040211,0,W,A*30
$GPVTG,223.848,T,223.848,M,1.777,N,3.290,K,A*2D
$GPGSA,A,3,25,2,10,5,4,,,,,,,,3.614,2.577,2.534*00
$GPGGA,032151.90,3943.8958,N,11619.7272,E,1,5,2.577,61.817,M,-10.359,M,0,*76
$GPRMC,032151.90,A,3943.8958,N,11619.7272,E,2.665,182.354,040211,0,W,A*33
$GPVTG,182.354,T,182.354,M,2.665,N,4.936,K,A*2C
$GPGSA,A,3,25,2,10,5,4,,,,,,,,3.614,2.577,2.534*00
$GPGGA,032152.90,3943.8947,N,11619.7281,E,1,5,2.578,62.023,M,-10.359,M,0,*74
$GPRMC,032152.90,A,3943.8947,N,11619.7281,E,3.218,143.301,040211,0,W,A*30
$GPVTG,143.301,T,143.301,M,3.218,N,5.960,K,A*21
$GPGSA,A,3,25,2,10,5,4,,,,,,,,3.614,2.578,2.534*0F
$GPGGA,032153.90,3943.8939,N,11619.7291,E,1,5,2.578,61.346,M,-10.359,M,0,*7E
$GPRMC,032153.90,A,3943.8939,N,11619.7291,E,3.482,116.881,040211,0,W,A*3F
$GPVTG,116.881,T,116.881,M,3.482,N,6.449,K,A*21
$GPGSA,A,3,25,2,10,5,4,,,,,,,,3.614,2.578,2.533*08
$GPGGA,032154.90,3943.8932,N,11619.7306,E,1,5,2.578,60.913,M,-10.359,M,0,*76
$GPRMC,032154.90,A,3943.8932,N,11619.7306,E,4.453,111.890,040211,0,W,A*30
$GPVTG,111.890,T,111.890,M,4.453,N,8.247,K,A*2C
$GPGSA,A,3,25,2,10,5,4,,,,,,,,3.614,2.578,2.533*08
$GPGSV,3,1,11,2,74,9,43,4,48,83,44,5,57,247,39,10,69,40,43*46
$GPGSV,3,2,11,12,21,247,25,13,28,52,43,17,6,148,,23,3,32,*78
$GPGSV,3,3,11,25,17,292,31,26,9,183,,29,12,318,34*71
$GPGGA,032155.90,3943.8932,N,11619.7321,E,1,5,2.579,60.625,M,-10.359,M,0,*79
$GPRMC,032155.90,A,3943.8932,N,11619.7321,E,3.976,90.037,040211,0,W,A*04
$GPVTG,90.037,T,90.037,M,3.976,N,7.363,K,A*29
$GPGSA,A,3,25,2,10,5,4,,,,,,,,3.614,2.579,2.532*08
$GPGGA,032156.90,3943.8930,N,11619.7337,E,1,5,2.579,60.005,M,-10.359,M,0,*7B
$GPRMC,032156.90,A,3943.8930,N,11619.7337,E,4.178,90.631,040211,0,W,A*03
$GPVTG,90.631,T,90.631,M,4.178,N,7.738,K,A*22
$GPGSA,A,3,25,2,10,5,4,,,,,,,,3.614,2.579,2.532*08
$GPGGA,032157.90,3943.8936,N,11619.7358,E,1,5,2.579,59.557,M,-10.359,M,0,*7D
$GPRMC,032157.90,A,3943.8936,N,11619.7358,E,4.607,89.363,040211,0,W,A*08
$GPVTG,89.363,T,89.363,M,4.607,N,8.532,K,A*2A
$GPGSA,A,3,25,2,10,5,4,,,,,,,,3.614,2.579,2.531*0B
$GPGGA,032158.90,3943.8946,N,11619.7378,E,1,5,2.580,59.527,M,-10.359,M,0,*76
$GPRMC,032158.90,A,3943.8946,N,11619.7378,E,5.428,69.169,040211,0,W,A*0A
$GPVTG,69.169,T,69.169,M,5.428,N,10.053,K,A*1F
$GPGSA,A,3,25,2,10,5,4,,,,,,,,3.614,2.580,2.531*0D
$GPGGA,032159.90,3943.8951,N,11619.7398,E,1,5,2.580,59.351,M,-10.359,M,0,*78
$GPRMC,032159.90,A,3943.8951,N,11619.7398,E,6.420,80.015,040211,0,W,A*05
$GPVTG,80.015,T,80.015,M,6.420,N,11.890,K,A*12
$GPGSA,A,3,25,2,10,5,4,,,,,,,,3.614,2.580,2.531*0D
$GPGSV,3,1,11,2,74,9,39,4,48,83,44,5,57,247,25,10,69,40,46*43
$GPGSV,3,2,11,12,21,247,25,13,28,52,48,17,5,148,,23,3,32,*70
$GPGSV,3,3,11,25,17,292,36,26,9,183,,29,12,318,34*76
$GPGGA,032200.90,3943.8956,N,11619.7422,E,1,5,2.580,58.908,M,-10.359,M,0,*71
$GPRMC,032200.90,A,3943.8956,N,11619.7422,E,6.070,77.515,040211,0,W,A*07
$GPVTG,77.515,T,77.515,M,6.070,N,11.242,K,A*16
$GPGSA,A,3,25,2,10,5,4,,,,,,,,3.614,2.580,2.530*0C
$GPGGA,032201.90,3943.8967,N,11619.7445,E,1,5,2.580,58.486,M,-10.359,M,0,*78
$GPRMC,032201.90,A,3943.8967,N,11619.7445,E,5.924,70.015,040211,0,W,A*0C
$GPVTG,70.015,T,70.015,M,5.924,N,10.971,K,A*17
$GPGSA,A,3,25,2,10,5,4,,,,,,,,3.614,2.580,2.530*0C
$GPGGA,032202.90,3943.8973,N,11619.7464,E,1,5,2.581,58.287,M,-10.359,M,0,*7B
$GPRMC,032202.90,A,3943.8973,N,11619.7464,E,5.596,66.767,040211,0,W,A*09
$GPVTG,66.767,T,66.767,M,5.596,N,10.364,K,A*1C
$GPGSA,A,3,25,2,10,5,4,,,,,,,,3.614,2.581,2.529*05
$GPGGA,032203.90,3943.8973,N,11619.7481,E,1,6,2.413,58.228,M,-10.359,M,0,*7D
$GPRMC,032203.90,A,3943.8973,N,11619.7481,E,4.277,83.416,040211,0,W,A*04
$GPVTG,83.416,T,83.416,M,4.277,N,7.921,K,A*28
$GPGSA,A,3,25,2,10,5,4,13,,,,,,,3.251,2.413,2.178*08
$GPGGA,032204.90,3943.8976,N,11619.7496,E,1,6,2.413,57.896,M,-10.359,M,0,*79
$GPRMC,032204.90,A,3943.8976,N,11619.7496,E,4.399,67.994,040211,0,W,A*0C
$GPVTG,67.994,T,67.994,M,4.399,N,8.147,K,A*2E
$GPGSA,A,3,25,2,10,5,4,13,,,,,,,3.251,2.413,2.178*08
$GPGSV,3,1,11,2,74,9,37,4,48,83,44,5,58,247,23,10,69,40,46*44
$GPGSV,3,2,11,12,21,247,26,13,28,51,46,17,5,148,,23,3,32,*7E
$GPGSV,3,3,11,25,17,292,39,26,9,183,,29,12,318,26*7A
$GPGGA,032205.90,3943.8982,N,11619.7514,E,1,6,2.414,55.964,M,-10.359,M,0,*71
$GPRMC,032205.90,A,3943.8982,N,11619.7514,E,4.228,77.084,040211,0,W,A*0F
$GPVTG,77.084,T,77.084,M,4.228,N,7.831,K,A*22
$GPGSA,A,3,25,2,10,5,4,13,,,,,,,3.251,2.414,2.178*0F
$GPGGA,032206.90,3943.8983,N,11619.7529,E,1,6,2.414,55.441,M,-10.359,M,0,*77
$GPRMC,032206.90,A,3943.8983,N,11619.7529,E,3.236,87.292,040211,0,W,A*01
$GPVTG,87.292,T,87.292,M,3.236,N,5.994,K,A*26
$GPGSA,A,3,25,2,10,5,4,13,,,,,,,3.251,2.414,2.178*0F
$GPGGA,032207.90,3943.8985,N,11619.7542,E,1,6,2.414,54.972,M,-10.359,M,0,*71
$GPRMC,032207.90,A,3943.8985,N,11619.7542,E,3.190,70.128,040211,0,W,A*0E
$GPVTG,70.128,T,70.128,M,3.190,N,5.907,K,A*23
$GPGSA,A,3,25,2,10,5,4,13,,,,,,,3.251,2.414,2.178*0F
$GPGGA,032208.90,3943.8986,N,11619.7554,E,1,6,2.414,54.572,M,-10.359,M,0,*76
$GPRMC,032208.90,A,3943.8986,N,11619.7554,E,2.784,77.027,040211,0,W,A*0E
$GPVTG,77.027,T,77.027,M,2.784,N,5.156,K,A*2D
$GPGSA,A,3,25,2,10,5,4,13,,,,,,,3.251,2.414,2.177*00
$GPGGA,032209.90,3943.8986,N,11619.7566,E,1,6,2.414,54.037,M,-10.359,M,0,*72
$GPRMC,032209.90,A,3943.8986,N,11619.7566,E,3.260,77.112,040211,0,W,A*07
$GPVTG,77.112,T,77.112,M,3.260,N,6.038,K,A*29
$GPGSA,A,3,25,2,10,5,4,13,,,,,,,3.251,2.414,2.177*00
$GPGSV,3,1,11,2,74,9,41,4,48,84,44,5,58,247,28,10,69,40,47*48
$GPGSV,3,2,11,12,21,247,28,13,28,51,47,17,5,148,,23,3,32,*71
$GPGSV,3,3,11,25,17,292,40,26,9,183,,29,12,318,27*75
$GPGGA,032210.90,3943.8984,N,11619.7580,E,1,6,2.414,53.543,M,-10.359,M,0,*71
$GPRMC,032210.90,A,3943.8984,N,11619.7580,E,4.057,82.521,040211,0,W,A*0A
$GPVTG,82.521,T,82.521,M,4.057,N,7.514,K,A*22
$GPGSA,A,3,25,2,10,5,4,13,,,,,,,3.251,2.414,2.177*00
$GPGGA,032211.90,3943.8982,N,11619.7595,E,1,6,2.414,53.538,M,-10.359,M,0,*7E
$GPRMC,032211.90,A,3943.8982,N,11619.7595,E,3.925,78.072,040211,0,W,A*04
$GPVTG,78.072,T,78.072,M,3.925,N,7.270,K,A*2C
$GPGSA,A,3,25,2,10,5,4,13,,,,,,,3.251,2.414,2.177*00
$GPGGA,032212.90,3943.8981,N,11619.7610,E,1,6,2.414,52.939,M,-10.359,M,0,*7C
$GPRMC,032212.90,A,3943.8981,N,11619.7610,E,4.250,90.498,040211,0,W,A*02
$GPVTG,90.498,T,90.498,M,4.250,N,7.871,K,A*29
$GPGSA,A,3,25,2,10,5,4,13,,,,,,,3.251,2.414,2.177*00
$GPGGA,032213.90,3943.8979,N,11619.7627,E,1,6,2.414,52.583,M,-10.359,M,0,*73
$GPRMC,032213.90,A,3943.8979,N,11619.7627,E,4.542,92.485,040211,0,W,A*0A
$GPVTG,92.485,T,92.485,M,4.542,N,8.412,K,A*2B
$GPGSA,A,3,25,2,10,5,4,13,,,,,,,3.251,2.414,2.177*00
$GPGGA,032214.90,3943.8979,N,11619.7643,E,1,6,2.415,52.173,M,-10.359,M,0,*7C
$GPRMC,032214.90,A,3943.8979,N,11619.7643,E,4.579,79.183,040211,0,W,A*01
$GPVTG,79.183,T,79.183,M,4.579,N,8.481,K,A*29
$GPGSA,A,3,25,2,10,5,4,13,,,,,,,3.251,2.415,2.177*01
$GPGSV,3,1,11,2,74,9,37,4,48,84,43,5,58,248,30,10,69,40,47*48
$GPGSV,3,2,11,12,21,247,27,13,28,51,47,17,5,148,,23,3,32,*7E
$GPGSV,3,3,11,25,17,292,40,26,9,183,,29,12,318,25*77
$GPGGA,032215.90,3943.8976,N,11619.7660,E,1,6,2.415,51.752,M,-10.359,M,0,*75
$GPRMC,032215.90,A,3943.8976,N,11619.7660,E,5.184,85.546,040211,0,W,A*07
$GPVTG,85.546,T,85.546,M,5.184,N,9.601,K,A*25
$GPGSA,A,3,25,2,10,5,4,13,,,,,,,3.251,2.415,2.177*01
$GPGGA,032216.90,3943.8977,N,11619.7677,E,1,6,2.415,51.649,M,-10.359,M,0,*7A
$GPRMC,032216.90,A,3943.8977,N,11619.7677,E,5.326,80.508,040211,0,W,A*06
$GPVTG,80.508,T,80.508,M,5.326,N,9.863,K,A*25
$GPGSA,A,3,25,2,10,5,4,13,,,,,,,3.251,2.415,2.176*00
$GPGGA,032217.90,3943.8987,N,11619.7690,E,1,6,2.415,51.831,M,-10.359,M,0,*7C
$GPRMC,032217.90,A,3943.8987,N,11619.7690,E,4.733,63.869,040211,0,W,A*07
$GPVTG,63.869,T,63.869,M,4.733,N,8.765,K,A*2C
$GPGSA,A,3,25,2,10,5,4,13,,,,,,,3.251,2.415,2.176*00
$GPGGA,032218.90,3943.9005,N,11619.7693,E,1,6,2.415,52.383,M,-10.359,M,0,*73
$GPRMC,032218.90,A,3943.9005,N,11619.7693,E,4.754,11.872,040211,0,W,A*07
$GPVTG,11.872,T,11.872,M,4.754,N,8.804,K,A*25
$GPGSA,A,3,25,2,10,5,4,13,,,,,,,3.251,2.415,2.176*00
$GPGGA,032219.90,3943.9020,N,11619.7691,E,1,6,2.415,52.503,M,-10.359,M,0,*79
$GPRMC,032219.90,A,3943.9020,N,11619.7691,E,5.341,2.773,040211,0,W,A*3E
$GPVTG,2.773,T,2.773,M,5.341,N,9.892,K,A*2A
$GPGSA,A,3,25,2,10,5,4,13,,,,,,,3.251,2.415,2.176*00
$GPGSV,3,1,11,2,74,9,41,4,48,84,44,5,58,248,36,10,68,40,41*4F
$GPGSV,3,2,11,12,21,247,30,13,28,51,44,17,5,148,,23,3,32,*7B
$GPGSV,3,3,11,25,17,292,36,26,9,183,,29,12,318,25*76
$GPGGA,032220.90,3943.9031,N,11619.7687,E,1,6,2.415,52.938,M,-10.359,M,0,*70
$GPRMC,032220.90,A,3943.9031,N,11619.7687,E,4.396,357.315,040211,0,W,A*3F
$GPVTG,357.315,T,357.315,M,4.396,N,8.142,K,A*24
$GPGSA,A,3,25,2,10,5,4,13,,,,,,,3.251,2.415,2.176*00
$GPGGA,032221.90,3943.9041,N,11619.7683,E,1,6,2.415,53.305,M,-10.359,M,0,*77
$GPRMC,032221.90,A,3943.9041,N,11619.7683,E,4.356,356.252,040211,0,W,A*32
$GPVTG,356.252,T,356.252,M,4.356,N,8.068,K,A*21
$GPGSA,A,3,25,2,10,5,4,13,,,,,,,3.251,2.415,2.176*00
$GPGGA,032222.90,3943.9052,N,11619.7679,E,1,6,2.415,53.502,M,-10.359,M,0,*72
$GPRMC,032222.90,A,3943.9052,N,11619.7679,E,3.996,355.549,040211,0,W,A*39
$GPVTG,355.549,T,355.549,M,3.996,N,7.400,K,A*25
$GPGSA,A,3,25,2,10,5,4,13,,,,,,,3.251,2.415,2.176*00
$GPGGA,032223.90,3943.9062,N,11619.7676,E,1,6,2.416,54.075,M,-10.359,M,0,*7E
$GPRMC,032223.90,A,3943.9062,N,11619.7676,E,3.793,358.877,040211,0,W,A*32
$GPVTG,358.877,T,358.877,M,3.793,N,7.025,K,A*2D
$GPGSA,A,3,25,2,10,5,4,13,,,,,,,3.251,2.416,2.175*00
$GPGGA,032224.90,3943.9073,N,11619.7678,E,1,6,2.416,54.507,M,-10.359,M,0,*77
$GPRMC,032224.90,A,3943.9073,N,11619.7678,E,3.997,10.506,040211,0,W,A*05
$GPVTG,10.506,T,10.506,M,3.997,N,7.402,K,A*26
$GPGSA,A,3,25,2,10,5,4,13,,,,,,,3.251,2.416,2.175*00
$GPGSV,3,1,11,2,74,9,41,4,48,84,39,5,58,248,44,10,68,40,33*45
$GPGSV,3,2,11,12,21,247,34,13,28,51,27,17,5,148,,23,3,32,*7A
$GPGSV,3,3,11,25,17,292,33,26,9,183,,29,12,318,29*7F
$GPGGA,032225.90,3943.9086,N,11619.7685,E,1,6,2.416,55.017,M,-10.359,M,0,*7B
$GPRMC,032225.90,A,3943.9086,N,11619.7685,E,3.725,18.917,040211,0,W,A*0F
$GPVTG,18.917,T,18.917,M,3.725,N,6.899,K,A*2E
$GPGSA,A,3,25,2,10,5,4,13,,,,,,,3.251,2.416,2.175*00
$GPGGA,032226.90,3943.9099,N,11619.7686,E,1,6,2.416,55.365,M,-10.359,M,0,*73
$GPRMC,032226.90,A,3943.9099,N,11619.7686,E,4.271,358.726,040211,0,W,A*39
$GPVTG,358.726,T,358.726,M,4.271,N,7.909,K,A*24
$GPGSA,A,3,25,2,10,5,4,13,,,,,,,3.251,2.416,2.175*00
$GPGGA,032227.90,3943.9099,N,11619.7686,E,1,6,2.416,55.365,M,-10.359,M,0,*72
$GPRMC,032227.90,A,3943.9099,N,11619.7686,E,0,0,040211,0,W,A*35
$GPVTG,0,T,0,M,0,N,0,K,A*23
$GPGSA,A,3,25,2,10,5,4,13,,,,,,,3.251,2.416,2.175*00
$GPGGA,032228.90,3943.9110,N,11619.7685,E,1,6,2.416,55.485,M,-10.359,M,0,*77
$GPRMC,032228.90,A,3943.9110,N,11619.7685,E,5.132,4.187,040211,0,W,A*36
$GPVTG,4.187,T,4.187,M,5.132,N,9.504,K,A*2E
$GPGSA,A,3,25,2,10,5,4,13,,,,,,,3.251,2.416,2.175*00
$GPGGA,032229.90,3943.9132,N,11619.7684,E,1,6,2.416,55.508,M,-10.359,M,0,*73
$GPRMC,032229.90,A,3943.9132,N,11619.7684,E,6.229,0.341,040211,0,W,A*30
$GPVTG,0.341,T,0.341,M,6.229,N,11.536,K,A*1C
$GPGSA,A,3,25,2,10,5,4,13,,,,,,,3.251,2.416,2.175*00
$GPGSV,3,1,11,2,74,10,41,4,48,84,28,5,58,248,37,10,68,40,31*7B
$GPGSV,3,2,11,12,21,247,33,13,28,51,29,17,5,148,,23,3,32,*73
$GPGSV,3,3,11,25,17,292,31,26,9,183,,29,12,318,31*74
$GPGGA,032230.90,3943.9156,N,11619.7684,E,1,6,2.416,55.776,M,-10.359,M,0,*72
$GPRMC,032230.90,A,3943.9156,N,11619.7684,E,6.432,358.379,040211,0,W,A*33
$GPVTG,358.379,T,358.379,M,6.432,N,11.912,K,A*1A
$GPGSA,A,3,25,2,10,5,4,13,,,,,,,3.251,2.416,2.174*01
$GPGGA,032231.90,3943.9174,N,11619.7682,E,1,6,2.416,55.637,M,-10.359,M,0,*71
$GPRMC,032231.90,A,3943.9174,N,11619.7682,E,5.605,1.429,040211,0,W,A*3C
$GPVTG,1.429,T,1.429,M,5.605,N,10.380,K,A*1F
$GPGSA,A,3,25,2,10,5,4,13,,,,,,,3.251,2.416,2.174*01
$GPGGA,032232.90,3943.9191,N,11619.7679,E,1,6,2.417,55.800,M,-10.359,M,0,*76
$GPRMC,032232.90,A,3943.9191,N,11619.7679,E,5.547,356.068,040211,0,W,A*35
$GPVTG,356.068,T,356.068,M,5.547,N,10.273,K,A*17
$GPGSA,A,3,25,2,10,5,4,13,,,,,,,3.251,2.417,2.174*00
$GPGGA,032233.90,3943.9206,N,11619.7678,E,1,6,2.417,55.484,M,-10.359,M,0,*7B
$GPRMC,032233.90,A,3943.9206,N,11619.7678,E,4.556,357.262,040211,0,W,A*30
$GPVTG,357.262,T,357.262,M,4.556,N,8.438,K,A*26
$GPGSA,A,3,25,2,10,5,4,13,,,,,,,3.251,2.417,2.174*00
$GPGGA,032234.90,3943.9221,N,11619.7673,E,1,6,2.417,55.411,M,-10.359,M,0,*7E
$GPRMC,032234.90,A,3943.9221,N,11619.7673,E,4.033,342.810,040211,0,W,A*34
$GPVTG,342.810,T,342.810,M,4.033,N,7.469,K,A*2B
$GPGSA,A,3,25,2,10,5,4,13,,,,,,,3.251,2.417,2.174*00
$GPGSV,3,1,11,2,74,10,39,4,48,84,40,5,58,248,44,10,68,40,34*7B
$GPGSV,3,2,11,12,21,247,28,13,28,51,41,17,5,148,,23,3,32,*77
$GPGSV,3,3,11,25,17,292,41,26,9,183,,29,12,318,28*7B
$GPGGA,032235.90,3943.9232,N,11619.7662,E,1,6,2.417,55.507,M,-10.359,M,0,*7B
$GPRMC,032235.90,A,3943.9232,N,11619.7662,E,3.931,320.607,040211,0,W,A*37
$GPVTG,320.607,T,320.607,M,3.931,N,7.280,K,A*26
$GPGSA,A,3,25,2,10,5,4,13,,,,,,,3.251,2.417,2.174*00
$GPGGA,032236.90,3943.9243,N,11619.7647,E,1,6,2.417,55.917,M,-10.359,M,0,*74
$GPRMC,032236.90,A,3943.9243,N,11619.7647,E,3.941,298.143,040211,0,W,A*37
$GPVTG,298.143,T,298.143,M,3.941,N,7.298,K,A*28
$GPGSA,A,3,25,2,10,5,4,13,,,,,,,3.251,2.417,2.174*00
$GPGGA,032237.90,3943.9244,N,11619.7629,E,1,6,2.417,55.433,M,-10.359,M,0,*71
$GPRMC,032237.90,A,3943.9244,N,11619.7629,E,4.901,288.721,040211,0,W,A*39
$GPVTG,288.721,T,288.721,M,4.901,N,9.077,K,A*26
$GPGSA,A,3,25,2,10,5,4,13,,,,,,,3.251,2.417,2.173*07
$GPGGA,032238.90,3943.9241,N,11619.7606,E,1,6,2.417,54.780,M,-10.359,M,0,*7C
$GPRMC,032238.90,A,3943.9241,N,11619.7606,E,7.154,275.343,040211,0,W,A*37
$GPVTG,275.343,T,275.343,M,7.154,N,13.249,K,A*19
$GPGSA,A,3,25,2,10,5,4,13,,,,,,,3.251,2.417,2.173*07
$GPGGA,032239.90,3943.9235,N,11619.7570,E,1,6,2.417,54.548,M,-10.359,M,0,*7A
$GPRMC,032239.90,A,3943.9235,N,11619.7570,E,10.533,266.781,040211,0,W,A*0C
$GPVTG,266.781,T,266.781,M,10.533,N,19.507,K,A*2D
$GPGSA,A,3,25,2,10,5,4,13,,,,,,,3.251,2.417,2.173*07
$GPGSV,3,1,11,2,74,10,41,4,48,84,39,5,58,248,44,10,68,40,41*78
$GPGSV,3,2,11,12,21,247,36,13,27,51,29,17,5,148,,23,3,32,*79
$GPGSV,3,3,11,25,17,292,43,26,9,183,,29,12,318,33*73
$GPGGA,032240.90,3943.9229,N,11619.7533,E,1,6,2.417,54.435,M,-10.359,M,0,*75
$GPRMC,032240.90,A,3943.9229,N,11619.7533,E,10.693,268.408,040211,0,W,A*0D
$GPVTG,268.408,T,268.408,M,10.693,N,19.803,K,A*2D
$GPGSA,A,3,25,2,10,5,4,13,,,,,,,3.250,2.417,2.173*06
$GPGGA,032241.90,3943.9224,N,11619.7497,E,1,6,2.417,54.213,M,-10.359,M,0,*74
$GPRMC,032241.90,A,3943.9224,N,11619.7497,E,10.431,272.624,040211,0,W,A*03
$GPVTG,272.624,T,272.624,M,10.431,N,19.319,K,A*27
$GPGSA,A,3,25,2,10,5,4,13,,,,,,,3.250,2.417,2.173*06
$GPGGA,032242.90,3943.9219,N,11619.7462,E,1,6,2.418,53.787,M,-10.359,M,0,*73
$GPRMC,032242.90,A,3943.9219,N,11619.7462,E,10.109,267.338,040211,0,W,A*06
$GPVTG,267.338,T,267.338,M,10.109,N,18.721,K,A*27
$GPGSA,A,3,25,2,10,5,4,13,,,,,,,3.250,2.418,2.173*09
$GPGGA,032243.90,3943.9215,N,11619.7426,E,1,6,2.418,53.328,M,-10.359,M,0,*7F
$GPRMC,032243.90,A,3943.9215,N,11619.7426,E,10.832,269.132,040211,0,W,A*0C
$GPVTG,269.132,T,269.132,M,10.832,N,20.060,K,A*2F
$GPGSA,A,3,25,2,10,5,4,13,,,,,,,3.250,2.418,2.173*09
$GPGGA,032244.90,3943.9211,N,11619.7387,E,1,6,2.418,52.983,M,-10.359,M,0,*7A
$GPRMC,032244.90,A,3943.9211,N,11619.7387,E,11.610,270.016,040211,0,W,A*03
$GPVTG,270.016,T,270.016,M,11.610,N,21.501,K,A*23
$GPGSA,A,3,25,2,10,5,4,13,,,,,,,3.250,2.418,2.172*08
$GPGSV,3,1,11,2,74,10,41,4,48,84,39,5,58,248,41,10,68,40,38*73
$GPGSV,3,2,11,12,21,247,37,13,27,51,35,17,5,148,,23,3,32,*75
$GPGSV,3,3,11,25,17,292,29,26,9,183,,29,12,318,29*74
$GPGGA,032245.90,3943.9210,N,11619.7343,E,1,6,2.418,52.655,M,-10.359,M,0,*76
$GPRMC,032245.90,A,3943.9210,N,11619.7343,E,12.685,271.838,040211,0,W,A*01
$GPVTG,271.838,T,271.838,M,12.685,N,23.492,K,A*25
$GPGSA,A,3,25,2,10,5,4,13,,,,,,,3.250,2.418,2.172*08
$GPGGA,032246.90,3943.9209,N,11619.7293,E,1,6,2.418,52.133,M,-10.359,M,0,*76
$GPRMC,032246.90,A,3943.9209,N,11619.7293,E,14.352,273.811,040211,0,W,A*06
$GPVTG,273.811,T,273.811,M,14.352,N,26.580,K,A*2B
$GPGSA,A,3,25,2,10,5,4,13,,,,,,,3.250,2.418,2.172*08
$GPGGA,032247.90,3943.9208,N,11619.7242,E,1,6,2.418,51.758,M,-10.359,M,0,*72
$GPRMC,032247.90,A,3943.9208,N,11619.7242,E,14.064,269.585,040211,0,W,A*07
$GPVTG,269.585,T,269.585,M,14.064,N,26.047,K,A*23
$GPGSA,A,3,25,2,10,5,4,13,,,,,,,3.250,2.418,2.172*08
$GPGGA,032248.90,3943.9206,N,11619.7189,E,1,6,2.418,51.795,M,-10.359,M,0,*76
$GPRMC,032248.90,A,3943.9206,N,11619.7189,E,14.886,270.569,040211,0,W,A*0C
$GPVTG,270.569,T,270.569,M,14.886,N,27.568,K,A*2E
$GPGSA,A,3,25,2,10,5,4,13,,,,,,,3.250,2.418,2.172*08
$GPGGA,032249.90,3943.9206,N,11619.7133,E,1,6,2.418,51.443,M,-10.359,M,0,*7E
$GPRMC,032249.90,A,3943.9206,N,11619.7133,E,15.496,272.835,040211,0,W,A*06
$GPVTG,272.835,T,272.835,M,15.496,N,28.699,K,A*20
$GPGSA,A,3,25,2,10,5,4,13,,,,,,,3.250,2.418,2.172*08
$GPGSV,3,1,11,2,74,10,40,4,48,84,36,5,58,248,42,10,68,40,38*7E
$GPGSV,3,2,11,12,21,247,39,13,27,51,33,17,5,148,,23,3,32,*7D
$GPGSV,3,3,11,25,17,292,24,26,9,183,,29,12,318,28*78
$GPGGA,032250.90,3943.9206,N,11619.7076,E,1,6,2.418,51.119,M,-10.359,M,0,*7C
$GPRMC,032250.90,A,3943.9206,N,11619.7076,E,15.484,269.341,040211,0,W,A*0F
$GPVTG,269.341,T,269.341,M,15.484,N,28.676,K,A*22
$GPGSA,A,3,25,2,10,5,4,13,,,,,,,3.250,2.418,2.172*08
$GPGGA,032251.90,3943.9204,N,11619.7021,E,1,6,2.418,50.873,M,-10.359,M,0,*79
$GPRMC,032251.90,A,3943.9204,N,11619.7021,E,15.529,269.023,040211,0,W,A*0F
$GPVTG,269.023,T,269.023,M,15.529,N,28.759,K,A*28
$GPGSA,A,3,25,2,10,5,4,13,,,,,,,3.250,2.418,2.171*0B
$GPGGA,032252.90,3943.9202,N,11619.6965,E,1,6,2.418,51.010,M,-10.359,M,0,*78
$GPRMC,032252.90,A,3943.9202,N,11619.6965,E,15.529,268.939,040211,0,W,A*01
$GPVTG,268.939,T,268.939,M,15.529,N,28.760,K,A*22
$GPGSA,A,3,25,2,10,5,4,13,,,,,,,3.250,2.418,2.171*0B
$GPGGA,032253.90,3943.9200,N,11619.6910,E,1,6,2.419,50.818,M,-10.359,M,0,*79
$GPRMC,032253.90,A,3943.9200,N,11619.6910,E,15.482,268.066,040211,0,W,A*03
$GPVTG,268.066,T,268.066,M,15.482,N,28.673,K,A*21
$GPGSA,A,3,25,2,10,5,4,13,,,,,,,3.250,2.419,2.171*0A
$GPGGA,032254.90,3943.9202,N,11619.6858,E,1,6,2.419,50.625,M,-10.359,M,0,*71
$GPRMC,032254.90,A,3943.9202,N,11619.6858,E,15.082,272.418,040211,0,W,A*09
$GPVTG,272.418,T,272.418,M,15.082,N,27.932,K,A*20
$GPGSA,A,3,25,2,10,5,4,13,,,,,,,3.250,2.419,2.171*0A
$GPGSV,3,1,11,2,74,10,41,4,48,84,36,5,58,248,40,10,68,40,37*72
$GPGSV,3,2,11,12,21,247,36,13,27,51,33,17,5,148,,23,3,32,*72
$GPGSV,3,3,11,25,17,291,27,26,9,183,,29,13,318,25*74
$GPGGA,032255.90,3943.9203,N,11619.6807,E,1,6,2.419,50.830,M,-10.359,M,0,*71
$GPRMC,032255.90,A,3943.9203,N,11619.6807,E,14.793,269.653,040211,0,W,A*02
$GPVTG,269.653,T,269.653,M,14.793,N,27.396,K,A*22
$GPGSA,A,3,25,2,10,5,4,13,,,,,,,3.250,2.419,2.171*0A
$GPGGA,032256.90,3943.9203,N,11619.6754,E,1,6,2.419,50.965,M,-10.359,M,0,*7A
$GPRMC,032256.90,A,3943.9203,N,11619.6754,E,14.488,272.536,040211,0,W,A*0B
$GPVTG,272.536,T,272.536,M,14.488,N,26.831,K,A*2C
$GPGSA,A,3,25,2,10,5,4,13,,,,,,,3.250,2.419,2.171*0A
$GPGGA,032257.90,3943.9202,N,11619.6703,E,1,6,2.419,50.864,M,-10.359,M,0,*78
$GPRMC,032257.90,A,3943.9202,N,11619.6703,E,14.401,270.427,040211,0,W,A*0B
$GPVTG,270.427,T,270.427,M,14.401,N,26.670,K,A*26
$GPGSA,A,3,25,2,10,5,4,13,,,,,,,3.250,2.419,2.171*0A
$GPGGA,032258.90,3943.9199,N,11619.6655,E,1,6,2.419,50.900,M,-10.359,M,0,*77
$GPRMC,032258.90,A,3943.9199,N,11619.6655,E,13.039,269.261,040211,0,W,A*03
$GPVTG,269.261,T,269.261,M,13.039,N,24.149,K,A*21
$GPGSA,A,3,25,2,10,5,4,13,,,,,,,3.250,2.419,2.170*0B
$GPGGA,032259.90,3943.9197,N,11619.6605,E,1,6,2.419,50.971,M,-10.359,M,0,*7B
$GPRMC,032259.90,A,3943.9197,N,11619.6605,E,14.111,272.327,040211,0,W,A*0C
$GPVTG,272.327,T,272.327,M,14.111,N,26.134,K,A*25
$GPGSA,A,3,25,2,10,5,4,13,,,,,,,3.250,2.419,2.170*0B
$GPGSV,3,1,11,2,74,10,42,4,48,84,37,5,58,248,39,10,68,40,38*71
$GPGSV,3,2,11,12,21,247,34,13,27,51,35,17,5,148,,23,3,32,*76
$GPGSV,3,3,11,25,17,291,28,26,9,183,,29,13,318,37*78
$GPGGA,032300.90,3943.9197,N,11619.6555,E,1,6,2.419,51.172,M,-10.359,M,0,*7A
$GPRMC,032300.90,A,3943.9197,N,11619.6555,E,14.021,267.909,040211,0,W,A*07
$GPVTG,267.909,T,267.909,M,14.021,N,25.966,K,A*2B
$GPGSA,A,3,25,2,10,5,4,13,,,,,,,3.250,2.419,2.170*0B
$GPGGA,032301.90,3943.9196,N,11619.6506,E,1,6,2.419,51.288,M,-10.359,M,0,*7A
$GPRMC,032301.90,A,3943.9196,N,11619.6506,E,14.318,269.561,040211,0,W,A*04
$GPVTG,269.561,T,269.561,M,14.318,N,26.517,K,A*2B
$GPGSA,A,3,25,2,10,5,4,13,,,,,,,3.250,2.419,2.170*0B
$GPGGA,032302.90,3943.9195,N,11619.6456,E,1,6,2.419,51.212,M,-10.359,M,0,*7D
$GPRMC,032302.90,A,3943.9195,N,11619.6456,E,13.913,268.726,040211,0,W,A*06
$GPVTG,268.726,T,268.726,M,13.913,N,25.767,K,A*2B
$GPGSA,A,3,25,2,10,5,4,13,,,,,,,3.250,2.419,2.170*0B
$GPGGA,032303.90,3943.9194,N,11619.6405,E,1,6,2.419,50.969,M,-10.359,M,0,*7D
$GPRMC,032303.90,A,3943.9194,N,11619.6405,E,14.031,269.442,040211,0,W,A*0E
$GPVTG,269.442,T,269.442,M,14.031,N,25.986,K,A*24
$GPGSA,A,3,25,2,10,5,4,13,,,,,,,3.250,2.419,2.170*0B
$GPGGA,032304.90,3943.9192,N,11619.6355,E,1,6,2.419,50.620,M,-10.359,M,0,*7C
$GPRMC,032304.90,A,3943.9192,N,11619.6355,E,13.868,269.893,040211,0,W,A*0E
$GPVTG,269.893,T,269.893,M,13.868,N,25.683,K,A*2D
$GPGSA,A,3,25,2,10,5,4,13,,,,,,,3.250,2.419,2.170*0B
$GPGSV,3,1,11,2,74,10,41,4,48,84,36,5,58,248,39,10,68,40,37*7C
$GPGSV,3,2,11,12,21,247,32,13,27,51,33,17,5,148,,23,3,32,*76
$GPGSV,3,3,11,25,17,291,25,26,9,183,,29,13,318,35*77
$GPGGA,032305.90,3943.9190,N,11619.6306,E,1,6,2.420,49.993,M,-10.359,M,0,*7C
$GPRMC,032305.90,A,3943.9190,N,11619.6306,E,13.155,267.735,040211,0,W,A*01
$GPVTG,267.735,T,267.735,M,13.155,N,24.364,K,A*27
$GPGSA,A,3,25,2,10,5,4,13,,,,,,,3.250,2.420,2.169*09
$GPGGA,032306.90,3943.9192,N,11619.6259,E,1,6,2.420,49.964,M,-10.359,M,0,*7E
$GPRMC,032306.90,A,3943.9192,N,11619.6259,E,12.519,272.787,040211,0,W,A*0B
$GPVTG,272.787,T,272.787,M,12.519,N,23.184,K,A*21
$GPGSA,A,3,25,2,10,5,4,13,,,,,,,3.250,2.420,2.169*09
$GPGGA,032307.90,3943.9196,N,11619.6216,E,1,6,2.420,49.549,M,-10.359,M,0,*73
$GPRMC,032307.90,A,3943.9196,N,11619.6216,E,12.095,274.933,040211,0,W,A*03
$GPVTG,274.933,T,274.933,M,12.095,N,22.400,K,A*28
$GPGSA,A,3,25,2,10,5,4,13,,,,,,,3.250,2.420,2.169*09
$GPGGA,032308.90,3943.9198,N,11619.6176,E,1,6,2.420,49.344,M,-10.359,M,0,*7C
$GPRMC,032308.90,A,3943.9198,N,11619.6176,E,11.434,271.014,040211,0,W,A*02
$GPVTG,271.014,T,271.014,M,11.434,N,21.176,K,A*23
$GPGSA,A,3,25,2,10,5,4,13,,,,,,,3.250,2.420,2.169*09
$GPGGA,032309.90,3943.9198,N,11619.6138,E,1,6,2.420,49.432,M,-10.359,M,0,*71
$GPRMC,032309.90,A,3943.9198,N,11619.6138,E,10.766,270.724,040211,0,W,A*09
$GPVTG,270.724,T,270.724,M,10.766,N,19.939,K,A*2E
$GPGSA,A,3,25,2,10,5,4,13,,,,,,,3.250,2.420,2.169*09
$GPGSV,3,1,11,2,74,11,41,4,48,84,35,5,58,248,39,10,68,40,40*7E
$GPGSV,3,2,11,12,21,247,40,13,27,51,37,17,5,148,,23,3,32,*77
$GPGSV,3,3,11,25,17,291,34,26,10,183,,29,13,318,35*4F
$GPGGA,032310.90,3943.9199,N,11619.6103,E,1,6,2.420,49.270,M,-10.359,M,0,*70
$GPRMC,032310.90,A,3943.9199,N,11619.6103,E,9.976,275.496,040211,0,W,A*30
$GPVTG,275.496,T,275.496,M,9.976,N,18.475,K,A*1D
$GPGSA,A,3,25,2,10,5,4,13,,,,,,,3.249,2.420,2.169*01
$GPGGA,032311.90,3943.9199,N,11619.6074,E,1,6,2.420,50.085,M,-10.359,M,0,*70
$GPRMC,032311.90,A,3943.9199,N,11619.6074,E,8.511,268.881,040211,0,W,A*3A
$GPVTG,268.881,T,268.881,M,8.511,N,15.763,K,A*18
$GPGSA,A,3,25,2,10,5,4,13,,,,,,,3.249,2.420,2.168*00
$GPGGA,032312.90,3943.9199,N,11619.6046,E,1,6,2.420,50.019,M,-10.359,M,0,*77
$GPRMC,032312.90,A,3943.9199,N,11619.6046,E,8.786,274.051,040211,0,W,A*3C
$GPVTG,274.051,T,274.051,M,8.786,N,16.272,K,A*12
$GPGSA,A,3,25,2,10,5,4,13,,,,,,,3.249,2.420,2.168*00
$GPGGA,032313.90,3943.9200,N,11619.6018,E,1,6,2.420,49.877,M,-10.359,M,0,*76
$GPRMC,032313.90,A,3943.9200,N,11619.6018,E,8.154,273.198,040211,0,W,A*3F
$GPVTG,273.198,T,273.198,M,8.154,N,15.102,K,A*1C
$GPGSA,A,3,25,2,10,5,4,13,,,,,,,3.249,2.420,2.168*00
$GPGGA,032314.90,3943.9201,N,11619.5987,E,1,6,2.420,49.744,M,-10.359,M,0,*73
$GPRMC,032314.90,A,3943.9201,N,11619.5987,E,7.641,275.164,040211,0,W,A*3C
$GPVTG,275.164,T,275.164,M,7.641,N,14.152,K,A*14
$GPGSA,A,3,25,2,10,5,4,13,,,,,,,3.249,2.420,2.168*00
$GPGSV,3,1,11,2,74,11,40,4,48,84,37,5,58,248,40,10,68,40,38*7C
$GPGSV,3,2,11,12,21,247,42,13,27,51,35,17,5,148,,23,3,32,*77
$GPGSV,3,3,11,25,17,291,35,26,10,183,,29,13,318,39*42
$GPGGA,032315.90,3943.9209,N,11619.5960,E,1,6,2.420,49.136,M,-10.359,M,0,*70
$GPRMC,032315.90,A,3943.9209,N,11619.5960,E,6.748,294.699,040211,0,W,A*3F
$GPVTG,294.699,T,294.699,M,6.748,N,12.498,K,A*18
$GPGSA,A,3,25,2,10,5,4,13,,,,,,,3.249,2.420,2.168*00
$GPGGA,032316.90,3943.9222,N,11619.5940,E,1,6,2.420,48.354,M,-10.359,M,0,*7F
$GPRMC,032316.90,A,3943.9222,N,11619.5940,E,5.254,322.332,040211,0,W,A*34
$GPVTG,322.332,T,322.332,M,5.254,N,9.730,K,A*28
$GPGSA,A,3,25,2,10,5,4,13,,,,,,,3.249,2.420,2.168*00
$GPGGA,032317.90,3943.9242,N,11619.5925,E,1,6,2.421,47.572,M,-10.359,M,0,*77
$GPRMC,032317.90,A,3943.9242,N,11619.5925,E,7.014,342.886,040211,0,W,A*36
$GPVTG,342.886,T,342.886,M,7.014,N,12.990,K,A*12
$GPGSA,A,3,25,2,10,5,4,13,,,,,,,3.249,2.421,2.168*01
$GPGGA,032318.90,3943.9269,N,11619.5918,E,1,6,2.421,47.481,M,-10.359,M,0,*72
$GPRMC,032318.90,A,3943.9269,N,11619.5918,E,10.877,358.384,040211,0,W,A*07
$GPVTG,358.384,T,358.384,M,10.877,N,20.144,K,A*29
$GPGSA,A,3,25,2,10,5,4,13,,,,,,,3.249,2.421,2.167*0E
$GPGGA,032319.90,3943.9303,N,11619.5916,E,1,6,2.421,47.115,M,-10.359,M,0,*78
$GPRMC,032319.90,A,3943.9303,N,11619.5916,E,12.026,359.245,040211,0,W,A*06
$GPVTG,359.245,T,359.245,M,12.026,N,22.272,K,A*23
$GPGSA,A,3,25,2,10,5,4,13,,,,,,,3.249,2.421,2.167*0E
$GPGSV,3,1,11,2,74,11,40,4,48,84,38,5,58,248,44,10,68,40,40*78
$GPGSV,3,2,11,12,21,246,38,13,27,50,40,17,5,148,,23,3,32,*78
$GPGSV,3,3,11,25,17,291,44,26,10,183,29,29,13,318,43*42
$GPGGA,032320.90,3943.9341,N,11619.5913,E,1,6,2.421,46.247,M,-10.359,M,0,*74
$GPRMC,032320.90,A,3943.9341,N,11619.5913,E,13.689,358.459,040211,0,W,A*07
$GPVTG,358.459,T,358.459,M,13.689,N,25.352,K,A*25
$GPGSA,A,3,25,2,10,5,4,13,,,,,,,3.249,2.421,2.167*0E
$GPGGA,032321.90,3943.9385,N,11619.5909,E,1,6,2.421,46.121,M,-10.359,M,0,*75
$GPRMC,032321.90,A,3943.9385,N,11619.5909,E,15.120,359.012,040211,0,W,A*0D
$GPVTG,359.012,T,359.012,M,15.120,N,28.002,K,A*2C
$GPGSA,A,3,25,2,10,5,4,13,,,,,,,3.249,2.421,2.167*0E
$GPGGA,032322.90,3943.9432,N,11619.5907,E,1,6,2.421,45.971,M,-10.359,M,0,*7D
$GPRMC,032322.90,A,3943.9432,N,11619.5907,E,15.434,358.986,040211,0,W,A*0E
$GPVTG,358.986,T,358.986,M,15.434,N,28.583,K,A*20
$GPGSA,A,3,25,2,10,5,4,13,,,,,,,3.249,2.421,2.167*0E
$GPGGA,032323.90,3943.9479,N,11619.5903,E,1,6,2.421,45.667,M,-10.359,M,0,*7F
$GPRMC,032323.90,A,3943.9479,N,11619.5903,E,15.294,359.060,040211,0,W,A*08
$GPVTG,359.060,T,359.060,M,15.294,N,28.325,K,A*26
$GPGSA,A,3,25,2,10,5,4,13,,,,,,,3.249,2.421,2.167*0E
$GPGGA,032324.90,3943.9524,N,11619.5901,E,1,6,2.421,45.235,M,-10.359,M,0,*70
$GPRMC,032324.90,A,3943.9524,N,11619.5901,E,15.281,359.177,040211,0,W,A*07
$GPVTG,359.177,T,359.177,M,15.281,N,28.301,K,A*24
$GPGSA,A,3,25,2,10,5,4,13,,,,,,,3.249,2.421,2.166*0F
$GPGSV,3,1,11,2,74,11,40,4,47,84,40,5,58,248,45,10,68,40,30*7E
$GPGSV,3,2,11,12,21,246,33,13,27,50,42,17,5,148,,23,3,32,*71
$GPGSV,3,3,11,25,17,291,44,26,10,183,30,29,13,318,47*4E
$GPGGA,032325.90,3943.9571,N,11619.5899,E,1,6,2.421,45.465,M,-10.359,M,0,*72
$GPRMC,032325.90,A,3943.9571,N,11619.5899,E,16.754,359.719,040211,0,W,A*06
$GPVTG,359.719,T,359.719,M,16.754,N,31.029,K,A*2B
$GPGSA,A,3,25,2,10,5,4,13,,,,,,,3.249,2.421,2.166*0F
$GPGGA,032326.90,3943.9624,N,11619.5899,E,1,6,2.421,45.129,M,-10.359,M,0,*7F
$GPRMC,032326.90,A,3943.9624,N,11619.5899,E,18.704,359.450,040211,0,W,A*03
$GPVTG,359.450,T,359.450,M,18.704,N,34.639,K,A*22
$GPGSA,A,3,25,2,10,5,4,13,,,,,,,3.249,2.421,2.166*0F
$GPGGA,032327.90,3943.9682,N,11619.5899,E,1,6,2.421,44.797,M,-10.359,M,0,*70
$GPRMC,032327.90,A,3943.9682,N,11619.5899,E,19.587,359.730,040211,0,W,A*03
$GPVTG,359.730,T,359.730,M,19.587,N,36.275,K,A*24
$GPGSA,A,3,25,2,10,5,4,13,,,,,,,3.249,2.421,2.166*0F
$GPGGA,032328.90,3943.9742,N,11619.5897,E,1,6,2.421,44.967,M,-10.359,M,0,*7D
$GPRMC,032328.90,A,3943.9742,N,11619.5897,E,20.658,359.150,040211,0,W,A*04
$GPVTG,359.150,T,359.150,M,20.658,N,38.258,K,A*2E
$GPGSA,A,3,25,2,10,5,4,13,,,,,,,3.249,2.421,2.166*0F
$GPGGA,032329.90,3943.9802,N,11619.5895,E,1,6,2.421,45.006,M,-10.359,M,0,*7A
$GPRMC,032329.90,A,3943.9802,N,11619.5895,E,20.852,0.457,040211,0,W,A*05
$GPVTG,0.457,T,0.457,M,20.852,N,38.619,K,A*2B
$GPGSA,A,3,25,2,10,5,4,13,,,,,,,3.249,2.421,2.166*0F
$GPGSV,3,1,11,2,74,11,41,4,47,84,41,5,58,248,46,10,68,40,30*7D
$GPGSV,3,2,11,12,21,246,31,13,27,50,42,17,5,148,,23,3,32,*73
$GPGSV,3,3,11,25,17,291,43,26,10,183,33,29,13,318,34*4E
$GPGGA,032330.90,3943.9866,N,11619.5892,E,1,6,2.421,44.780,M,-10.359,M,0,*7F
$GPRMC,032330.90,A,3943.9866,N,11619.5892,E,21.994,359.252,040211,0,W,A*0E
$GPVTG,359.252,T,359.252,M,21.994,N,40.732,K,A*26
$GPGSA,A,3,25,2,10,5,4,13,,,,,,,3.248,2.421,2.166*0E
$GPGGA,032331.90,3943.9933,N,11619.5891,E,1,6,2.421,44.636,M,-10.359,M,0,*70
$GPRMC,032331.90,A,3943.9933,N,11619.5891,E,22.834,359.369,040211,0,W,A*0C
$GPVTG,359.369,T,359.369,M,22.834,N,42.289,K,A*29
$GPGSA,A,3,25,2,10,5,4,13,,,,,,,3.248,2.421,2.165*0D
$GPGGA,032332.90,3944.0001,N,11619.5890,E,1,6,2.422,44.696,M,-10.359,M,0,*7D
$GPRMC,032332.90,A,3944.0001,N,11619.5890,E,22.893,0.607,040211,0,W,A*07
$GPVTG,0.607,T,0.607,M,22.893,N,42.398,K,A*25
$GPGSA,A,3,25,2,10,5,4,13,,,,,,,3.248,2.422,2.165*0E
$GPGGA,032333.90,3944.0069,N,11619.5891,E,1,6,2.422,44.749,M,-10.359,M,0,*70
$GPRMC,032333.90,A,3944.0069,N,11619.5891,E,23.230,359.996,040211,0,W,A*03
$GPVTG,359.996,T,359.996,M,23.230,N,43.021,K,A*27
$GPGSA,A,3,25,2,10,5,4,13,,,,,,,3.248,2.422,2.165*0E
$GPGGA,032334.90,3944.0132,N,11619.5891,E,1,6,2.422,45.253,M,-10.359,M,0,*77
$GPRMC,032334.90,A,3944.0132,N,11619.5891,E,23.782,358.999,040211,0,W,A*09
$GPVTG,358.999,T,358.999,M,23.782,N,44.044,K,A*2F
$GPGSA,A,3,25,2,10,5,4,13,,,,,,,3.248,2.422,2.165*0E
$GPGSV,3,1,11,2,74,11,40,4,47,84,39,5,58,248,45,10,68,40,29*78
$GPGSV,3,2,11,12,21,246,31,13,27,50,41,17,5,148,,23,3,32,*70
$GPGSV,3,3,11,25,17,291,37,26,10,183,32,29,13,318,30*48
$GPGGA,032335.90,3944.0200,N,11619.5889,E,1,6,2.422,45.534,M,-10.359,M,0,*7B
$GPRMC,032335.90,A,3944.0200,N,11619.5889,E,23.837,358.853,040211,0,W,A*05
$GPVTG,358.853,T,358.853,M,23.837,N,44.146,K,A*2D
$GPGSA,A,3,25,2,10,5,4,13,,,,,,,3.248,2.422,2.165*0E
$GPGGA,032336.90,3944.0271,N,11619.5891,E,1,6,2.422,45.959,M,-10.359,M,0,*70
$GPRMC,032336.90,A,3944.0271,N,11619.5891,E,24.284,1.894,040211,0,W,A*08
$GPVTG,1.894,T,1.894,M,24.284,N,44.974,K,A*21
$GPGSA,A,3,25,2,10,5,4,13,,,,,,,3.248,2.422,2.165*0E
$GPGGA,032337.90,3944.0341,N,11619.5892,E,1,6,2.422,46.505,M,-10.359,M,0,*76
$GPRMC,032337.90,A,3944.0341,N,11619.5892,E,23.666,358.883,040211,0,W,A*0E
$GPVTG,358.883,T,358.883,M,23.666,N,43.829,K,A*20
$GPGSA,A,3,25,2,10,5,4,13,,,,,,,3.248,2.422,2.164*0F
$GPGGA,032338.90,3944.0410,N,11619.5890,E,1,6,2.422,47.079,M,-10.359,M,0,*77
$GPRMC,032338.90,A,3944.0410,N,11619.5890,E,23.742,359.341,040211,0,W,A*03
$GPVTG,359.341,T,359.341,M,23.742,N,43.970,K,A*2A
$GPGSA,A,3,25,2,10,5,4,13,,,,,,,3.248,2.422,2.164*0F
$GPGGA,032339.90,3944.0477,N,11619.5889,E,1,6,2.422,46.862,M,-10.359,M,0,*7C
$GPRMC,032339.90,A,3944.0477,N,11619.5889,E,23.060,359.111,040211,0,W,A*0B
$GPVTG,359.111,T,359.111,M,23.060,N,42.708,K,A*2D
$GPGSA,A,3,25,2,10,5,4,13,,,,,,,3.248,2.422,2.164*0F
$GPGSV,3,1,11,2,74,11,40,4,47,84,38,5,58,248,44,10,68,40,28*79
$GPGSV,3,2,11,12,21,246,29,13,27,50,40,17,5,148,,23,3,32,*78
$GPGSV,3,3,11,25,17,291,37,26,10,183,31,29,13,318,23*49
$GPGGA,032340.90,3944.0540,N,11619.5889,E,1,6,2.422,47.124,M,-10.359,M,0,*7D
$GPRMC,032340.90,A,3944.0540,N,11619.5889,E,22.621,358.906,040211,0,W,A*0D
$GPVTG,358.906,T,358.906,M,22.621,N,41.894,K,A*26
$GPGSA,A,3,25,2,10,5,4,13,,,,,,,3.248,2.422,2.164*0F
$GPGGA,032341.90,3944.0604,N,11619.5888,E,1,6,2.422,47.493,M,-10.359,M,0,*77
$GPRMC,032341.90,A,3944.0604,N,11619.5888,E,22.760,358.584,040211,0,W,A*0C
$GPVTG,358.584,T,358.584,M,22.760,N,42.151,K,A*21
$GPGSA,A,3,25,2,10,5,4,13,,,,,,,3.248,2.422,2.164*0F
$GPGGA,032342.90,3944.0665,N,11619.5886,E,1,6,2.422,47.333,M,-10.359,M,0,*70
$GPRMC,032342.90,A,3944.0665,N,11619.5886,E,22.674,357.741,040211,0,W,A*06
$GPVTG,357.741,T,357.741,M,22.674,N,41.991,K,A*22
$GPGSA,A,3,25,2,10,5,4,13,,,,,,,3.248,2.422,2.164*0F
$GPGGA,032343.90,3944.0728,N,11619.5884,E,1,6,2.422,47.760,M,-10.359,M,0,*79
$GPRMC,032343.90,A,3944.0728,N,11619.5884,E,22.200,358.772,040211,0,W,A*05
$GPVTG,358.772,T,358.772,M,22.200,N,41.114,K,A*20
$GPGSA,A,3,25,2,10,5,4,13,,,,,,,3.248,2.422,2.163*08
$GPGGA,032344.90,3944.0789,N,11619.5884,E,1,6,2.422,47.470,M,-10.359,M,0,*77
$GPRMC,032344.90,A,3944.0789,N,11619.5884,E,21.343,359.527,040211,0,W,A*0F
$GPVTG,359.527,T,359.527,M,21.343,N,39.528,K,A*21
$GPGSA,A,3,25,2,10,5,4,13,,,,,,,3.248,2.422,2.163*08
$GPGSV,3,1,11,2,74,12,40,4,47,84,38,5,58,248,44,10,68,40,27*75
$GPGSV,3,2,11,12,21,246,30,13,27,50,38,17,5,148,,23,3,32,*7F
$GPGSV,3,3,11,25,17,291,38,26,10,182,31,29,13,318,24*40
$GPGGA,032345.90,3944.0850,N,11619.5884,E,1,6,2.422,47.375,M,-10.359,M,0,*7F
$GPRMC,032345.90,A,3944.0850,N,11619.5884,E,21.403,359.089,040211,0,W,A*07
$GPVTG,359.089,T,359.089,M,21.403,N,39.638,K,A*20
$GPGSA,A,3,25,2,10,5,4,13,,,,,,,3.248,2.422,2.163*08
$GPGGA,032346.90,3944.0909,N,11619.5888,E,1,6,2.422,47.564,M,-10.359,M,0,*7B
$GPRMC,032346.90,A,3944.0909,N,11619.5888,E,20.134,1.786,040211,0,W,A*03
$GPVTG,1.786,T,1.786,M,20.134,N,37.289,K,A*20
$GPGSA,A,3,25,2,10,5,4,13,,,,,,,3.247,2.422,2.163*07
$GPGGA,032347.90,3944.0966,N,11619.5892,E,1,6,2.422,47.606,M,-10.359,M,0,*7F
$GPRMC,032347.90,A,3944.0966,N,11619.5892,E,20.011,359.615,040211,0,W,A*03
$GPVTG,359.615,T,359.615,M,20.011,N,37.061,K,A*22
$GPGSA,A,3,25,2,10,5,4,13,,,,,,,3.247,2.422,2.163*07
$GPGGA,032348.90,3944.1024,N,11619.5890,E,1,6,2.422,47.371,M,-10.359,M,0,*79
$GPRMC,032348.90,A,3944.1024,N,11619.5890,E,20.606,357.934,040211,0,W,A*02
$GPVTG,357.934,T,357.934,M,20.606,N,38.162,K,A*2F
$GPGSA,A,3,25,2,10,5,4,13,,,,,,,3.247,2.422,2.163*07
$GPGGA,032349.90,3944.1080,N,11619.5889,E,1,6,2.423,47.736,M,-10.359,M,0,*78
$GPRMC,032349.90,A,3944.1080,N,11619.5889,E,19.372,357.793,040211,0,W,A*0A
$GPVTG,357.793,T,357.793,M,19.372,N,35.877,K,A*23
$GPGSA,A,3,25,2,10,5,4,13,,,,,,,3.247,2.423,2.162*07
$GPGSV,3,1,11,2,74,12,39,4,47,84,38,5,58,248,44,10,68,40,29*75
$GPGSV,3,2,11,12,20,246,35,13,27,50,40,17,5,148,,23,3,32,*74
$GPGSV,3,3,11,25,17,291,26,26,10,182,31,29,13,318,42*4F
$GPGGA,032350.90,3944.1135,N,11619.5886,E,1,6,2.423,47.317,M,-10.359,M,0,*77
$GPRMC,032350.90,A,3944.1135,N,11619.5886,E,19.409,356.605,040211,0,W,A*06
$GPVTG,356.605,T,356.605,M,19.409,N,35.946,K,A*2B
$GPGSA,A,3,25,2,10,5,4,13,,,,,,,3.247,2.423,2.162*07
$GPGGA,032351.90,3944.1188,N,11619.5883,E,1,6,2.423,47.181,M,-10.359,M,0,*78
$GPRMC,032351.90,A,3944.1188,N,11619.5883,E,18.091,356.885,040211,0,W,A*06
$GPVTG,356.885,T,356.885,M,18.091,N,33.504,K,A*23
$GPGSA,A,3,25,2,10,5,4,13,,,,,,,3.247,2.423,2.162*07
$GPGGA,032352.90,3944.1237,N,11619.5880,E,1,6,2.423,47.148,M,-10.359,M,0,*7A
$GPRMC,032352.90,A,3944.1237,N,11619.5880,E,17.477,357.040,040211,0,W,A*02
$GPVTG,357.040,T,357.040,M,17.477,N,32.367,K,A*22
$GPGSA,A,3,25,2,10,5,4,13,,,,,,,3.247,2.423,2.162*07
$GPGGA,032353.90,3944.1284,N,11619.5877,E,1,6,2.423,46.862,M,-10.359,M,0,*7B
$GPRMC,032353.90,A,3944.1284,N,11619.5877,E,17.201,357.411,040211,0,W,A*04
$GPVTG,357.411,T,357.411,M,17.201,N,31.856,K,A*2F
$GPGSA,A,3,25,2,10,5,4,13,,,,,,,3.247,2.423,2.162*07
$GPGGA,032354.90,3944.1329,N,11619.5874,E,1,6,2.423,46.434,M,-10.359,M,0,*76
$GPRMC,032354.90,A,3944.1329,N,11619.5874,E,16.006,358.775,040211,0,W,A*0C
$GPVTG,358.775,T,358.775,M,16.006,N,29.642,K,A*29
$GPGSA,A,3,25,2,10,5,4,13,,,,,,,3.247,2.423,2.162*07
$GPGSV,3,1,11,2,74,12,41,4,47,84,38,5,58,248,44,10,68,40,28*7B
$GPGSV,3,2,11,12,20,246,30,13,27,50,41,17,5,148,,23,2,32,*71
$GPGSV,3,3,11,25,17,291,28,26,10,182,29,29,13,318,47*4D
$GPGGA,032355.90,3944.1371,N,11619.5874,E,1,6,2.423,46.656,M,-10.359,M,0,*7C
$GPRMC,032355.90,A,3944.1371,N,11619.5874,E,15.351,359.371,040211,0,W,A*03
$GPVTG,359.371,T,359.371,M,15.351,N,28.431,K,A*2C
$GPGSA,A,3,25,2,10,5,4,13,,,,,,,3.247,2.423,2.161*04
$GPGGA,032356.90,3944.1416,N,11619.5869,E,1,6,2.423,46.091,M,-10.359,M,0,*78
$GPRMC,032356.90,A,3944.1416,N,11619.5869,E,15.578,358.738,040211,0,W,A*0F
$GPVTG,358.738,T,358.738,M,15.578,N,28.850,K,A*2A
$GPGSA,A,3,25,2,10,5,4,13,,,,,,,3.247,2.423,2.161*04
$GPGGA,032357.90,3944.1461,N,11619.5866,E,1,6,2.423,46.711,M,-10.359,M,0,*79
$GPRMC,032357.90,A,3944.1461,N,11619.5866,E,14.759,358.904,040211,0,W,A*00
$GPVTG,358.904,T,358.904,M,14.759,N,27.333,K,A*2B
$GPGSA,A,3,25,2,10,5,4,13,,,,,,,3.247,2.423,2.161*04
$GPGGA,032358.90,3944.1502,N,11619.5865,E,1,6,2.423,45.985,M,-10.359,M,0,*71
$GPRMC,032358.90,A,3944.1502,N,11619.5865,E,14.019,358.510,040211,0,W,A*02
$GPVTG,358.510,T,358.510,M,14.019,N,25.963,K,A*25
$GPGSA,A,3,25,2,10,5,4,13,,,,,,,3.247,2.423,2.161*04
$GPGGA,032359.90,3944.1540,N,11619.5864,E,1,6,2.423,45.533,M,-10.359,M,0,*76
$GPRMC,032359.90,A,3944.1540,N,11619.5864,E,12.377,1.781,040211,0,W,A*0C
$GPVTG,1.781,T,1.781,M,12.377,N,22.922,K,A*2A
$GPGSA,A,3,25,2,10,5,4,13,,,,,,,3.247,2.423,2.161*04
$GPGSV,3,1,11,2,74,12,41,4,47,84,38,5,58,249,44,10,68,40,32*71
$GPGSV,3,2,11,12,20,246,27,13,27,50,40,17,5,148,,23,2,32,*76
$GPGSV,3,3,11,25,17,291,42,26,10,182,30,29,13,318,42*4C
$GPGGA,032400.90,3944.1569,N,11619.5863,E,1,6,2.423,45.717,M,-10.359,M,0,*75
$GPRMC,032400.90,A,3944.1569,N,11619.5863,E,9.929,358.481,040211,0,W,A*3C
$GPVTG,358.481,T,358.481,M,9.929,N,18.388,K,A*12
$GPGSA,A,3,25,2,10,5,4,13,,,,,,,3.246,2.423,2.161*05
$GPGGA,032401.90,3944.1595,N,11619.5862,E,1,6,2.423,45.529,M,-10.359,M,0,*79
$GPRMC,032401.90,A,3944.1595,N,11619.5862,E,8.527,1.730,040211,0,W,A*3A
$GPVTG,1.730,T,1.730,M,8.527,N,15.792,K,A*13
$GPGSA,A,3,25,2,10,5,4,13,,,,,,,3.246,2.423,2.160*04
$GPGGA,032402.90,3944.1617,N,11619.5862,E,1,6,2.423,45.471,M,-10.359,M,0,*7F
$GPRMC,032402.90,A,3944.1617,N,11619.5862,E,7.095,356.517,040211,0,W,A*35
$GPVTG,356.517,T,356.517,M,7.095,N,13.139,K,A*11
$GPGSA,A,3,25,2,10,5,4,13,,,,,,,3.246,2.423,2.160*04
$GPGGA,032403.90,3944.1617,N,11619.5862,E,1,6,2.423,45.471,M,-10.359,M,0,*7E
$GPRMC,032403.90,A,3944.1617,N,11619.5862,E,0,0,040211,0,W,A*3C
$GPVTG,0,T,0,M,0,N,0,K,A*23
$GPGSA,A,3,25,2,10,5,4,13,,,,,,,3.246,2.423,2.160*04
$GPGGA,032404.90,3944.1617,N,11619.5862,E,1,6,2.423,45.471,M,-10.359,M,0,*79
$GPRMC,032404.90,A,3944.1617,N,11619.5862,E,0,0,040211,0,W,A*3B
$GPVTG,0,T,0,M,0,N,0,K,A*23
$GPGSA,A,3,25,2,10,5,4,13,,,,,,,3.246,2.423,2.160*04
$GPGSV,3,1,11,2,74,12,40,4,47,84,38,5,58,249,44,10,68,40,31*73
$GPGSV,3,2,11,12,20,246,30,13,27,50,40,17,5,148,,23,2,32,*70
$GPGSV,3,3,11,25,17,291,42,26,10,182,30,29,13,318,26*4E
$GPGGA,032405.90,3944.1617,N,11619.5862,E,1,6,2.423,45.471,M,-10.359,M,0,*78
$GPRMC,032405.90,A,3944.1617,N,11619.5862,E,0,0,040211,0,W,A*3A
$GPVTG,0,T,0,M,0,N,0,K,A*23
$GPGSA,A,3,25,2,10,5,4,13,,,,,,,3.246,2.423,2.160*04
$GPGGA,032406.90,3944.1617,N,11619.5862,E,1,6,2.423,45.471,M,-10.359,M,0,*7B
$GPRMC,032406.90,A,3944.1617,N,11619.5862,E,0,0,040211,0,W,A*39
$GPVTG,0,T,0,M,0,N,0,K,A*23
$GPGSA,A,3,25,2,10,5,4,13,,,,,,,3.246,2.423,2.160*04
$GPGGA,032407.90,3944.1617,N,11619.5862,E,1,6,2.423,45.471,M,-10.359,M,0,*7A
$GPRMC,032407.90,A,3944.1617,N,11619.5862,E,0,0,040211,0,W,A*38
$GPVTG,0,T,0,M,0,N,0,K,A*23
$GPGSA,A,3,25,2,10,5,4,13,,,,,,,3.246,2.423,2.159*0E
$GPGGA,032408.90,3944.1617,N,11619.5862,E,1,6,2.423,45.471,M,-10.359,M,0,*75
$GPRMC,032408.90,A,3944.1617,N,11619.5862,E,0,0,040211,0,W,A*37
$GPVTG,0,T,0,M,0,N,0,K,A*23
$GPGSA,A,3,25,2,10,5,4,13,,,,,,,3.246,2.423,2.159*0E
$GPGGA,032409.90,3944.1617,N,11619.5862,E,1,6,2.424,45.471,M,-10.359,M,0,*73
$GPRMC,032409.90,A,3944.1617,N,11619.5862,E,0,0,040211,0,W,A*36
$GPVTG,0,T,0,M,0,N,0,K,A*23
$GPGSA,A,3,25,2,10,5,4,13,,,,,,,3.246,2.424,2.159*09
$GPGSV,3,1,11,2,74,12,40,4,47,85,41,5,58,249,42,10,68,40,29*73
$GPGSV,3,2,11,12,20,246,32,13,27,50,41,17,5,148,,23,2,32,*73
$GPGSV,3,3,11,25,17,291,42,26,10,182,30,29,13,318,25*4D
$GPGGA,032410.90,3944.1617,N,11619.5862,E,1,6,2.424,45.471,M,-10.359,M,0,*7B
$GPRMC,032410.90,A,3944.1617,N,11619.5862,E,0,0,040211,0,W,A*3E
$GPVTG,0,T,0,M,0,N,0,K,A*23
$GPGSA,A,3,25,2,10,5,4,13,,,,,,,3.246,2.424,2.159*09
$GPGGA,032411.90,3944.1617,N,11619.5862,E,1,6,2.424,45.471,M,-10.359,M,0,*7A
$GPRMC,032411.90,A,3944.1617,N,11619.5862,E,0,0,040211,0,W,A*3F
$GPVTG,0,T,0,M,0,N,0,K,A*23
$GPGSA,A,3,25,2,10,5,4,13,,,,,,,3.246,2.424,2.159*09
$GPGGA,032412.90,3944.1617,N,11619.5862,E,1,6,2.424,45.471,M,-10.359,M,0,*79
$GPRMC,032412.90,A,3944.1617,N,11619.5862,E,0,0,040211,0,W,A*3C
$GPVTG,0,T,0,M,0,N,0,K,A*23
$GPGSA,A,3,25,2,10,5,4,13,,,,,,,3.246,2.424,2.159*09
$GPGGA,032413.90,3944.1614,N,11619.5863,E,1,6,2.424,45.526,M,-10.359,M,0,*79
$GPRMC,032413.90,A,3944.1614,N,11619.5863,E,0.429,120.365,040211,0,W,A*33
$GPVTG,120.365,T,120.365,M,0.429,N,0.795,K,A*27
$GPGSA,A,3,25,2,10,5,4,13,,,,,,,3.245,2.424,2.158*0B
$GPGGA,032414.90,3944.1614,N,11619.5863,E,1,6,2.424,45.526,M,-10.359,M,0,*7E
$GPRMC,032414.90,A,3944.1614,N,11619.5863,E,0,0,040211,0,W,A*38
$GPVTG,0,T,0,M,0,N,0,K,A*23
$GPGSA,A,3,25,2,10,5,4,13,,,,,,,3.245,2.424,2.158*0B
$GPGSV,3,1,11,2,74,12,39,4,47,85,40,5,58,249,43,10,68,40,31*74
$GPGSV,3,2,11,12,20,246,33,13,27,50,42,17,5,148,,23,2,32,*71
$GPGSV,3,3,11,25,17,291,43,26,10,182,31,29,13,318,23*4B
$GPGGA,032415.90,3944.1614,N,11619.5863,E,1,6,2.424,45.526,M,-10.359,M,0,*7F
$GPRMC,032415.90,A,3944.1614,N,11619.5863,E,0,0,040211,0,W,A*39
$GPVTG,0,T,0,M,0,N,0,K,A*23
$GPGSA,A,3,25,2,10,5,4,13,,,,,,,3.245,2.424,2.158*0B
$GPGGA,032416.90,3944.1614,N,11619.5863,E,1,6,2.424,45.526,M,-10.359,M,0,*7C
$GPRMC,032416.90,A,3944.1614,N,11619.5863,E,0,0,040211,0,W,A*3A
$GPVTG,0,T,0,M,0,N,0,K,A*23
$GPGSA,A,3,25,2,10,5,4,13,,,,,,,3.245,2.424,2.158*0B
$GPGGA,032417.90,3944.1614,N,11619.5863,E,1,6,2.424,45.526,M,-10.359,M,0,*7D
$GPRMC,032417.90,A,3944.1614,N,11619.5863,E,0,0,040211,0,W,A*3B
$GPVTG,0,T,0,M,0,N,0,K,A*23
$GPGSA,A,3,25,2,10,5,4,13,,,,,,,3.245,2.424,2.158*0B
$GPGGA,032418.90,3944.1614,N,11619.5863,E,1,6,2.424,45.526,M,-10.359,M,0,*72
$GPRMC,032418.90,A,3944.1614,N,11619.5863,E,0,0,040211,0,W,A*34
$GPVTG,0,T,0,M,0,N,0,K,A*23
$GPGSA,A,3,25,2,10,5,4,13,,,,,,,3.245,2.424,2.158*0B
$GPGGA,032419.90,3944.1614,N,11619.5863,E,1,6,2.424,45.526,M,-10.359,M,0,*73
$GPRMC,032419.90,A,3944.1614,N,11619.5863,E,0,0,040211,0,W,A*35
$GPVTG,0,T,0,M,0,N,0,K,A*23
$GPGSA,A,3,25,2,10,5,4,13,,,,,,,3.245,2.424,2.157*04
$GPGSV,3,1,11,2,74,13,41,4,47,85,42,5,58,249,43,10,68,40,31*78
$GPGSV,3,2,11,12,20,246,31,13,27,50,45,17,5,148,,23,2,32,*74
$GPGSV,3,3,11,25,17,291,43,26,10,182,33,29,13,318,19*40
$GPGGA,032420.90,3944.1614,N,11619.5863,E,1,6,2.424,45.526,M,-10.359,M,0,*79
$GPRMC,032420.90,A,3944.1614,N,11619.5863,E,0,0,040211,0,W,A*3F
$GPVTG,0,T,0,M,0,N,0,K,A*23
$GPGSA,A,3,25,2,10,5,4,13,,,,,,,3.245,2.424,2.157*04
$GPGGA,032421.90,3944.1614,N,11619.5863,E,1,6,2.424,45.526,M,-10.359,M,0,*78
$GPRMC,032421.90,A,3944.1614,N,11619.5863,E,0,0,040211,0,W,A*3E
$GPVTG,0,T,0,M,0,N,0,K,A*23
$GPGSA,A,3,25,2,10,5,4,13,,,,,,,3.245,2.424,2.157*04
$GPGGA,032422.90,3944.1614,N,11619.5863,E,1,6,2.424,45.526,M,-10.359,M,0,*7B
$GPRMC,032422.90,A,3944.1614,N,11619.5863,E,0,0,040211,0,W,A*3D
$GPVTG,0,T,0,M,0,N,0,K,A*23
$GPGSA,A,3,25,2,10,5,4,13,,,,,,,3.245,2.424,2.157*04
$GPGGA,032423.90,3944.1614,N,11619.5863,E,1,6,2.424,45.526,M,-10.359,M,0,*7A
$GPRMC,032423.90,A,3944.1614,N,11619.5863,E,0,0,040211,0,W,A*3C
$GPVTG,0,T,0,M,0,N,0,K,A*23
$GPGSA,A,3,25,2,10,5,4,13,,,,,,,3.245,2.424,2.157*04
$GPGGA,032424.90,3944.1614,N,11619.5863,E,1,6,2.424,45.526,M,-10.359,M,0,*7D
$GPRMC,032424.90,A,3944.1614,N,11619.5863,E,0,0,040211,0,W,A*3B
$GPVTG,0,T,0,M,0,N,0,K,A*23
$GPGSA,A,3,25,2,10,5,4,13,,,,,,,3.244,2.424,2.156*04
$GPGSV,3,1,11,2,74,13,40,4,47,85,42,5,58,249,44,10,68,40,32*7D
$GPGSV,3,2,11,12,20,246,31,13,27,50,44,17,5,148,,23,2,32,*75
$GPGSV,3,3,11,25,17,291,42,26,10,182,33,29,13,318,21*4A
$GPGGA,032425.90,3944.1614,N,11619.5863,E,1,6,2.424,45.526,M,-10.359,M,0,*7C
$GPRMC,032425.90,A,3944.1614,N,11619.5863,E,0,0,040211,0,W,A*3A
$GPVTG,0,T,0,M,0,N,0,K,A*23
$GPGSA,A,3,25,2,10,5,4,13,,,,,,,3.244,2.424,2.156*04
$GPGGA,032426.90,3944.1614,N,11619.5863,E,1,6,2.424,45.526,M,-10.359,M,0,*7F
$GPRMC,032426.90,A,3944.1614,N,11619.5863,E,0,0,040211,0,W,A*39
$GPVTG,0,T,0,M,0,N,0,K,A*23
$GPGSA,A,3,25,2,10,5,4,13,,,,,,,3.244,2.424,2.156*04
$GPGGA,032427.90,3944.1614,N,11619.5863,E,1,6,2.424,45.526,M,-10.359,M,0,*7E
$GPRMC,032427.90,A,3944.1614,N,11619.5863,E,0,0,040211,0,W,A*38
$GPVTG,0,T,0,M,0,N,0,K,A*23
$GPGSA,A,3,25,2,10,5,4,13,,,,,,,3.244,2.424,2.156*04
$GPGGA,032428.90,3944.1625,N,11619.5866,E,1,6,2.424,44.897,M,-10.359,M,0,*70
$GPRMC,032428.90,A,3944.1625,N,11619.5866,E,5.557,0.242,040211,0,W,A*36
$GPVTG,0.242,T,0.242,M,5.557,N,10.291,K,A*1A
$GPGSA,A,3,25,2,10,5,4,13,,,,,,,3.244,2.424,2.156*04
$GPGGA,032429.90,3944.1648,N,11619.5867,E,1,6,2.424,44.832,M,-10.359,M,0,*74
$GPRMC,032429.90,A,3944.1648,N,11619.5867,E,8.499,358.751,040211,0,W,A*3A
$GPVTG,358.751,T,358.751,M,8.499,N,15.741,K,A*19
$GPGSA,A,3,25,2,10,5,4,13,,,,,,,3.244,2.424,2.156*04
$GPGSV,3,1,11,2,74,13,40,4,47,85,41,5,58,249,44,10,67,40,29*7B
$GPGSV,3,2,11,12,20,246,30,13,27,50,42,17,4,148,,23,2,32,*73
$GPGSV,3,3,11,25,17,291,43,26,10,182,31,29,13,318,25*4D
$GPGGA,032430.90,3944.1677,N,11619.5867,E,1,6,2.424,44.524,M,-10.359,M,0,*7A
$GPRMC,032430.90,A,3944.1677,N,11619.5867,E,10.536,358.910,040211,0,W,A*08
$GPVTG,358.910,T,358.910,M,10.536,N,19.513,K,A*2D
$GPGSA,A,3,25,2,10,5,4,13,,,,,,,3.244,2.424,2.155*07
$GPGGA,032431.90,3944.1708,N,11619.5866,E,1,6,2.424,44.480,M,-10.359,M,0,*7C
$GPRMC,032431.90,A,3944.1708,N,11619.5866,E,9.986,359.468,040211,0,W,A*3D
$GPVTG,359.468,T,359.468,M,9.986,N,18.494,K,A*1D
$GPGSA,A,3,25,2,10,5,4,13,,,,,,,3.244,2.424,2.155*07
$GPGGA,032432.90,3944.1738,N,11619.5865,E,1,6,2.424,44.707,M,-10.359,M,0,*73
$GPRMC,032432.90,A,3944.1738,N,11619.5865,E,11.379,1.490,040211,0,W,A*04
$GPVTG,1.490,T,1.490,M,11.379,N,21.074,K,A*2E
$GPGSA,A,3,25,2,10,5,4,13,,,,,,,3.244,2.424,2.155*07
$GPGGA,032433.90,3944.1774,N,11619.5862,E,1,7,1.130,44.687,M,-10.359,M,0,*76
$GPRMC,032433.90,A,3944.1774,N,11619.5862,E,13.801,359.807,040211,0,W,A*00
$GPVTG,359.807,T,359.807,M,13.801,N,25.560,K,A*2C
$GPGSA,A,3,25,2,10,5,4,13,26,,,,,,1.811,1.130,1.415*0A
$GPGGA,032434.90,3944.1815,N,11619.5863,E,1,7,1.130,44.835,M,-10.359,M,0,*7F
$GPRMC,032434.90,A,3944.1815,N,11619.5863,E,16.649,359.269,040211,0,W,A*0B
$GPVTG,359.269,T,359.269,M,16.649,N,30.834,K,A*23
$GPGSA,A,3,25,2,10,5,4,13,26,,,,,,1.811,1.130,1.415*0A
$GPGSV,3,1,11,2,74,13,41,4,47,85,41,5,58,249,44,10,67,40,30*72
$GPGSV,3,2,11,12,20,246,28,13,27,50,44,17,4,148,,23,2,32,*7C
$GPGSV,3,3,11,25,17,291,42,26,10,182,34,29,13,318,32*4F
$GPGGA,032435.90,3944.1865,N,11619.5866,E,1,7,1.130,44.821,M,-10.359,M,0,*79
$GPRMC,032435.90,A,3944.1865,N,11619.5866,E,18.223,357.779,040211,0,W,A*04
$GPVTG,357.779,T,357.779,M,18.223,N,33.749,K,A*23
$GPGSA,A,3,25,2,10,5,4,13,26,,,,,,1.811,1.130,1.415*0A
