$GPGSA,A,3,04,08,10,11,17,20,24,27,28,32,,,1.4,0.8,1.1*3E
$GPGSV,3,1,11,28,79,179,20,20,46,071,35,17,52,342,34,11,19,055,26*7D
$GPGSV,3,2,11,24,17,045,27,08,14,200,18,32,22,049,29,04,37,253,21*7A
$GPGSV,3,3,11,02,08,243,26,27,08,303,21,10,08,196,17*4D
$GPRMC,004826.000,A,2755.2629,N,11636.5935,E,44.4,81.2,150111,,,A*6F
$GPGGA,004826.000,2755.2629,N,11636.5935,E,1,10,0.8,50.9,M,7.4,M,,0000*51
$GPGSA,A,3,04,08,10,11,17,20,24,27,28,32,,,1.4,0.8,1.1*3E
$GPRMC,004827.000,A,2755.2650,N,11636.6073,E,45.3,78.4,150111,,,A*6E
$GPGGA,004827.000,2755.2650,N,11636.6073,E,1,10,0.8,50.3,M,7.4,M,,0000*5C
$GPGSA,A,3,04,08,10,11,17,20,24,27,28,32,,,1.4,0.8,1.1*3E
$GPRMC,004828.000,A,2755.2673,N,11636.6213,E,45.7,79.3,150111,,,A*66
$GPGGA,004828.000,2755.2673,N,11636.6213,E,1,09,0.9,50.4,M,7.4,M,,0000*58
$GPGSA,A,3,08,10,11,17,20,24,27,28,32,,,,1.4,0.9,1.1*3B
$GPRMC,004829.000,A,2755.2696,N,11636.6357,E,47.2,79.5,150111,,,A*6C
$GPGGA,004829.000,2755.2696,N,11636.6357,E,1,09,0.9,50.4,M,7.4,M,,0000*53
$GPGSA,A,3,04,10,11,17,20,24,27,28,32,,,,1.4,0.9,1.1*37
$GPRMC,004830.000,A,2755.2719,N,11636.6504,E,47.9,79.0,150111,,,A*6C
$GPGGA,004830.000,2755.2719,N,11636.6504,E,1,10,0.8,50.5,M,7.4,M,,0000*55
$GPGSA,A,3,04,08,10,11,17,20,24,27,28,32,,,1.4,0.8,1.1*3E
$GPGSV,3,1,11,28,79,179,23,20,46,071,37,17,52,342,35,11,19,055,31*7B
$GPGSV,3,2,11,24,17,045,28,08,14,200,17,32,22,049,29,04,37,253,23*78
$GPGSV,3,3,11,02,08,243,25,27,08,303,23,10,08,196,18*43
$GPRMC,004831.000,A,2755.2743,N,11636.6657,E,49.4,78.7,150111,,,A*62
$GPGGA,004831.000,2755.2743,N,11636.6657,E,1,10,0.8,49.9,M,7.4,M,,0000*5A
$GPGSA,A,3,04,08,10,11,17,20,24,27,28,32,,,1.4,0.8,1.1*3E
$GPRMC,004832.000,A,2755.2771,N,11636.6810,E,50.0,78.9,150111,,,A*6F
$GPGGA,004832.000,2755.2771,N,11636.6810,E,1,08,0.9,50.5,M,7.4,M,,0000*59
$GPGSA,A,3,10,11,17,20,24,27,28,32,,,,,1.5,0.9,1.2*31
$GPRMC,004833.000,A,2755.2802,N,11636.6960,E,48.4,78.3,150111,,,A*64
$GPGGA,004833.000,2755.2802,N,11636.6960,E,1,09,0.9,51.5,M,7.4,M,,0000*55
$GPGSA,A,3,08,10,11,17,20,24,27,28,32,,,,1.4,0.9,1.1*3B
$GPRMC,004834.000,A,2755.2831,N,11636.7111,E,49.1,78.0,150111,,,A*6B
$GPGGA,004834.000,2755.2831,N,11636.7111,E,1,09,0.9,52.4,M,7.4,M,,0000*5F
$GPGSA,A,3,08,10,11,17,20,24,27,28,32,,,,1.4,0.9,1.1*3B
$GPRMC,004835.000,A,2755.2860,N,11636.7261,E,48.1,78.3,150111,,,A*68
$GPGGA,004835.000,2755.2860,N,11636.7261,E,1,09,0.9,53.4,M,7.4,M,,0000*5F
$GPGSA,A,3,08,10,11,17,20,24,27,28,32,,,,1.4,0.9,1.1*3B
$GPGSV,3,1,11,28,79,179,23,20,46,070,37,17,52,342,36,11,19,055,31*79
$GPGSV,3,2,11,24,17,045,31,08,14,200,18,32,22,049,30,04,37,253,18*7F
$GPGSV,3,3,11,02,08,243,20,27,08,303,22,10,08,196,16*49
$GPRMC,004836.000,A,2755.2887,N,11636.7410,E,48.7,77.9,150111,,,A*61
$GPGGA,004836.000,2755.2887,N,11636.7410,E,1,10,0.8,53.8,M,7.4,M,,0000*50
$GPGSA,A,3,04,08,10,11,17,20,24,27,28,32,,,1.4,0.8,1.1*3E
$GPRMC,004837.000,A,2755.2913,N,11636.7563,E,49.6,78.3,150111,,,A*6C
$GPGGA,004837.000,2755.2913,N,11636.7563,E,1,10,0.8,54.2,M,7.4,M,,0000*55
$GPGSA,A,3,04,08,10,11,17,20,24,27,28,32,,,1.4,0.8,1.1*3E
$GPRMC,004838.000,A,2755.2941,N,11636.7716,E,50.5,78.6,150111,,,A*6A
$GPGGA,004838.000,2755.2941,N,11636.7716,E,1,10,0.8,54.6,M,7.4,M,,0000*59
$GPGSA,A,3,04,08,10,11,17,20,24,27,28,32,,,1.4,0.8,1.1*3E
$GPRMC,004839.000,A,2755.2970,N,11636.7870,E,51.2,78.4,150111,,,A*62
$GPGGA,004839.000,2755.2970,N,11636.7870,E,1,10,0.8,54.9,M,7.4,M,,0000*5A
$GPGSA,A,3,04,08,10,11,17,20,24,27,28,32,,,1.4,0.8,1.1*3E
$GPRMC,004840.000,A,2755.2998,N,11636.8029,E,51.9,78.9,150111,,,A*67
$GPGGA,004840.000,2755.2998,N,11636.8029,E,1,10,0.8,54.9,M,7.4,M,,0000*59
$GPGSA,A,3,04,08,10,11,17,20,24,27,28,32,,,1.4,0.8,1.1*3E
$GPGSV,3,1,11,28,79,179,24,20,46,070,37,17,52,342,36,11,19,055,32*7D
$GPGSV,3,2,11,24,17,045,30,08,14,200,16,32,22,049,29,04,37,253,17*77
$GPGSV,3,3,11,02,08,243,18,27,08,303,25,10,08,196,16*45
$GPRMC,004841.000,A,2755.3026,N,11636.8187,E,50.5,78.6,150111,,,A*6C
$GPGGA,004841.000,2755.3026,N,11636.8187,E,1,10,0.8,55.3,M,7.4,M,,0000*5B
$GPGSA,A,3,04,08,10,11,17,20,24,27,28,32,,,1.4,0.8,1.1*3E
$GPRMC,004842.000,A,2755.3056,N,11636.8342,E,50.0,79.2,150111,,,A*63
$GPGGA,004842.000,2755.3056,N,11636.8342,E,1,10,0.8,55.8,M,7.4,M,,0000*5F
$GPGSA,A,3,04,08,10,11,17,20,24,27,28,32,,,1.4,0.8,1.1*3E
$GPRMC,004843.000,A,2755.3088,N,11636.8499,E,49.6,78.6,150111,,,A*6B
$GPGGA,004843.000,2755.3088,N,11636.8499,E,1,10,0.8,56.3,M,7.4,M,,0000*54
$GPGSA,A,3,04,08,10,11,17,20,24,27,28,32,,,1.4,0.8,1.1*3E
$GPRMC,004844.000,A,2755.3117,N,11636.8652,E,48.7,78.0,150111,,,A*68
$GPGGA,004844.000,2755.3117,N,11636.8652,E,1,10,0.8,56.5,M,7.4,M,,0000*57
$GPGSA,A,3,04,08,10,11,17,20,24,27,28,32,,,1.4,0.8,1.1*3E
$GPRMC,004845.000,A,2755.3148,N,11636.8802,E,48.2,78.2,150111,,,A*6F
$GPGGA,004845.000,2755.3148,N,11636.8802,E,1,09,1.2,57.0,M,7.4,M,,0000*50
$GPGSA,A,3,04,08,10,11,17,20,24,28,32,,,,1.8,1.2,1.4*39
$GPGSV,3,1,11,28,78,179,23,20,46,070,37,17,52,342,36,11,19,055,33*7A
$GPGSV,3,2,11,24,17,045,30,08,14,200,16,32,22,049,30,04,37,253,16*7E
$GPGSV,3,3,11,02,08,243,23,27,08,303,19,10,08,196,18*4C
$GPRMC,004846.000,A,2755.3180,N,11636.8952,E,47.9,77.3,150111,,,A*66
$GPGGA,004846.000,2755.3180,N,11636.8952,E,1,10,0.8,57.4,M,7.4,M,,0000*54
$GPGSA,A,3,04,08,10,11,17,20,24,27,28,32,,,1.4,0.8,1.1*3E
$GPRMC,004847.000,A,2755.3211,N,11636.9099,E,47.1,77.1,150111,,,A*69
$GPGGA,004847.000,2755.3211,N,11636.9099,E,1,10,0.8,57.9,M,7.4,M,,0000*5C
$GPGSA,A,3,04,08,10,11,17,20,24,27,28,32,,,1.4,0.8,1.1*3E
$GPRMC,004848.000,A,2755.3241,N,11636.9243,E,46.3,77.8,150111,,,A*6C
$GPGGA,004848.000,2755.3241,N,11636.9243,E,1,10,0.8,58.8,M,7.4,M,,0000*5D
$GPGSA,A,3,04,08,10,11,17,20,24,27,28,32,,,1.4,0.8,1.1*3E
$GPRMC,004849.000,A,2755.3271,N,11636.9386,E,46.8,78.0,150111,,,A*6A
$GPGGA,004849.000,2755.3271,N,11636.9386,E,1,10,0.8,59.5,M,7.4,M,,0000*5B
$GPGSA,A,3,04,08,10,11,17,20,24,27,28,32,,,1.4,0.8,1.1*3E
$GPRMC,004850.000,A,2755.3299,N,11636.9529,E,45.8,78.5,150111,,,A*61
$GPGGA,004850.000,2755.3299,N,11636.9529,E,1,10,0.8,60.0,M,7.4,M,,0000*59
$GPGSA,A,3,04,08,10,11,17,20,24,27,28,32,,,1.4,0.8,1.1*3E
$GPGSV,3,1,11,28,78,179,19,20,46,070,38,17,52,342,33,11,19,055,32*78
$GPGSV,3,2,11,24,17,045,28,08,14,200,18,32,22,049,31,04,37,253,24*79
$GPGSV,3,3,11,02,08,243,29,27,08,303,17,10,08,196,20*43
$GPRMC,004851.000,A,2755.3326,N,11636.9670,E,45.7,78.5,150111,,,A*65
$GPGGA,004851.000,2755.3326,N,11636.9670,E,1,10,0.8,60.8,M,7.4,M,,0000*5A
$GPGSA,A,3,04,08,10,11,17,20,24,27,28,32,,,1.4,0.8,1.1*3E
$GPRMC,004852.000,A,2755.3351,N,11636.9812,E,46.3,77.8,150111,,,A*69
$GPGGA,004852.000,2755.3351,N,11636.9812,E,1,10,0.8,60.3,M,7.4,M,,0000*58
$GPGSA,A,3,04,08,10,11,17,20,24,27,28,32,,,1.4,0.8,1.1*3E
$GPRMC,004853.000,A,2755.3377,N,11636.9954,E,45.9,79.4,150111,,,A*64
$GPGGA,004853.000,2755.3377,N,11636.9954,E,1,10,0.8,60.7,M,7.4,M,,0000*5A
$GPGSA,A,3,04,08,10,11,17,20,24,27,28,32,,,1.4,0.8,1.1*3E
$GPRMC,004854.000,A,2755.3401,N,11637.0094,E,44.8,78.9,150111,,,A*64
$GPGGA,004854.000,2755.3401,N,11637.0094,E,1,10,0.8,60.9,M,7.4,M,,0000*58
$GPGSA,A,3,04,08,10,11,17,20,24,27,28,32,,,1.4,0.8,1.1*3E
$GPRMC,004855.000,A,2755.3427,N,11637.0232,E,43.6,78.4,150111,,,A*6B
$GPGGA,004855.000,2755.3427,N,11637.0232,E,1,10,0.8,61.4,M,7.4,M,,0000*5F
$GPGSA,A,3,04,08,10,11,17,20,24,27,28,32,,,1.4,0.8,1.1*3E
$GPGSV,3,1,11,28,78,178,21,20,46,070,36,17,52,342,36,11,19,055,30*7B
$GPGSV,3,2,11,24,17,045,28,08,14,200,18,32,22,049,29,04,37,253,18*7F
$GPGSV,3,3,11,02,08,243,24,27,08,303,27,10,08,196,24*49
$GPRMC,004856.000,A,2755.3453,N,11637.0363,E,41.7,77.0,150111,,,A*66
$GPGGA,004856.000,2755.3453,N,11637.0363,E,1,10,0.8,61.5,M,7.4,M,,0000*5B
$GPGSA,A,3,04,08,10,11,17,20,24,27,28,32,,,1.4,0.8,1.1*3E
$GPRMC,004857.000,A,2755.3479,N,11637.0488,E,40.1,77.5,150111,,,A*6F
$GPGGA,004857.000,2755.3479,N,11637.0488,E,1,10,0.8,62.1,M,7.4,M,,0000*57
$GPGSA,A,3,04,08,10,11,17,20,24,27,28,32,,,1.4,0.8,1.1*3E
$GPRMC,004858.000,A,2755.3503,N,11637.0613,E,41.7,77.9,150111,,,A*67
$GPGGA,004858.000,2755.3503,N,11637.0613,E,1,10,0.8,61.9,M,7.4,M,,0000*5F
$GPGSA,A,3,04,08,10,11,17,20,24,27,28,32,,,1.4,0.8,1.1*3E
$GPRMC,004859.000,A,2755.3526,N,11637.0742,E,42.9,77.9,150111,,,A*69
$GPGGA,004859.000,2755.3526,N,11637.0742,E,1,09,0.9,61.5,M,7.4,M,,0000*59
$GPGSA,A,3,04,08,11,17,20,24,27,28,32,,,,1.5,0.9,1.2*3C
$GPRMC,004900.000,A,2755.3550,N,11637.0874,E,44.1,78.1,150111,,,A*66
$GPGGA,004900.000,2755.3550,N,11637.0874,E,1,10,0.8,61.1,M,7.4,M,,0000*52
$GPGSA,A,3,04,08,10,11,17,20,24,27,28,32,,,1.4,0.8,1.1*3E
$GPGSV,3,1,11,28,78,178,21,20,46,070,37,17,52,342,34,11,19,055,33*7B
$GPGSV,3,2,11,24,17,045,31,08,14,200,16,32,22,049,32,04,37,253,18*73
$GPGSV,3,3,11,02,08,243,30,27,08,303,20,10,08,196,22*4D
$GPRMC,004901.000,A,2755.3574,N,11637.1010,E,45.4,78.6,150111,,,A*69
$GPGGA,004901.000,2755.3574,N,11637.1010,E,1,10,0.8,60.8,M,7.4,M,,0000*56
$GPGSA,A,3,04,08,10,11,17,20,24,27,28,32,,,1.4,0.8,1.1*3E
$GPRMC,004902.000,A,2755.3597,N,11637.1152,E,46.4,78.4,150111,,,A*61
$GPGGA,004902.000,2755.3597,N,11637.1152,E,1,10,0.8,59.7,M,7.4,M,,0000*5A
$GPGSA,A,3,04,08,10,11,17,20,24,27,28,32,,,1.4,0.8,1.1*3E
$GPRMC,004903.000,A,2755.3622,N,11637.1295,E,46.8,78.7,150111,,,A*6A
$GPGGA,004903.000,2755.3622,N,11637.1295,E,1,09,0.9,58.7,M,7.4,M,,0000*56
$GPGSA,A,3,04,08,11,17,20,24,27,28,32,,,,1.5,0.9,1.2*3C
$GPRMC,004904.000,A,2755.3647,N,11637.1437,E,45.8,79.0,150111,,,A*65
$GPGGA,004904.000,2755.3647,N,11637.1437,E,1,09,1.2,58.1,M,7.4,M,,0000*50
$GPGSA,A,3,04,08,10,11,17,20,24,28,32,,,,1.8,1.2,1.4*39
$GPRMC,004905.000,A,2755.3671,N,11637.1579,E,45.7,79.5,150111,,,A*60
$GPGGA,004905.000,2755.3671,N,11637.1579,E,1,10,0.8,57.5,M,7.4,M,,0000*57
$GPGSA,A,3,04,08,10,11,17,20,24,27,28,32,,,1.4,0.8,1.1*3E
$GPGSV,3,1,11,28,78,178,23,20,46,070,36,17,52,343,36,11,19,055,33*7B
$GPGSV,3,2,11,24,17,045,27,08,14,200,14,32,22,049,31,04,37,253,18*75
$GPGSV,3,3,11,02,08,243,30,27,08,303,22,10,08,196,20*4D
$GPRMC,004906.000,A,2755.3695,N,11637.1720,E,45.1,78.6,150111,,,A*63
$GPGGA,004906.000,2755.3695,N,11637.1720,E,1,10,0.8,57.5,M,7.4,M,,0000*50
$GPGSA,A,3,04,08,10,11,17,20,24,27,28,32,,,1.4,0.8,1.1*3E
$GPRMC,004907.000,A,2755.3721,N,11637.1857,E,43.9,78.4,150111,,,A*6F
$GPGGA,004907.000,2755.3721,N,11637.1857,E,1,10,0.8,57.5,M,7.4,M,,0000*50
$GPGSA,A,3,04,08,10,11,17,20,24,27,28,32,,,1.4,0.8,1.1*3E
$GPRMC,004908.000,A,2755.3745,N,11637.1990,E,41.9,78.7,150111,,,A*69
$GPGGA,004908.000,2755.3745,N,11637.1990,E,1,09,0.9,57.3,M,7.4,M,,0000*58
$GPGSA,A,3,04,08,11,17,20,24,27,28,32,,,,1.5,0.9,1.2*3C
$GPRMC,004909.000,A,2755.3769,N,11637.2118,E,41.2,79.8,150111,,,A*68
$GPGGA,004909.000,2755.3769,N,11637.2118,E,1,09,0.9,56.7,M,7.4,M,,0000*59
$GPGSA,A,3,04,08,11,17,20,24,27,28,32,,,,1.5,0.9,1.2*3C
$GPRMC,004910.000,A,2755.3791,N,11637.2245,E,41.0,79.7,150111,,,A*61
$GPGGA,004910.000,2755.3791,N,11637.2245,E,1,09,0.9,55.8,M,7.4,M,,0000*51
$GPGSA,A,3,04,08,11,17,20,24,27,28,32,,,,1.5,0.9,1.2*3C
$GPGSV,3,1,11,28,78,178,22,20,46,070,37,17,52,343,34,11,19,055,30*7A
$GPGSV,3,2,11,24,17,045,31,08,14,200,16,32,22,049,29,04,37,253,18*79
$GPGSV,3,3,11,02,08,243,24,27,08,303,20,10,08,196,*48
$GPRMC,004911.000,A,2755.3813,N,11637.2370,E,40.1,79.2,150111,,,A*67
$GPGGA,004911.000,2755.3813,N,11637.2370,E,1,09,0.9,55.3,M,7.4,M,,0000*59
$GPGSA,A,3,04,08,11,17,20,24,27,28,32,,,,1.5,0.9,1.2*3C
$GPRMC,004912.000,A,2755.3836,N,11637.2496,E,39.9,81.0,150111,,,A*6F
$GPGGA,004912.000,2755.3836,N,11637.2496,E,1,10,0.8,55.2,M,7.4,M,,0000*5A
$GPGSA,A,3,04,08,10,11,17,20,24,27,28,32,,,1.4,0.8,1.1*3E
$GPRMC,004913.000,A,2755.3854,N,11637.2622,E,39.5,82.7,150111,,,A*6F
$GPGGA,004913.000,2755.3854,N,11637.2622,E,1,10,0.8,55.2,M,7.4,M,,0000*52
$GPGSA,A,3,04,08,10,11,17,20,24,27,28,32,,,1.4,0.8,1.1*3E
$GPRMC,004914.000,A,2755.3867,N,11637.2746,E,38.8,86.9,150111,,,A*6D
$GPGGA,004914.000,2755.3867,N,11637.2746,E,1,10,0.8,55.3,M,7.4,M,,0000*57
$GPGSA,A,3,04,08,10,11,17,20,24,27,28,32,,,1.4,0.8,1.1*3E
$GPRMC,004915.000,A,2755.3874,N,11637.2867,E,37.2,88.8,150111,,,A*68
$GPGGA,004915.000,2755.3874,N,11637.2867,E,1,10,0.8,55.3,M,7.4,M,,0000*58
$GPGSA,A,3,04,08,10,11,17,20,24,27,28,32,,,1.4,0.8,1.1*3E
$GPGSV,3,1,11,28,78,178,26,20,46,070,36,11,19,055,30,24,17,045,29*77
$GPGSV,3,2,11,08,14,200,25,32,22,049,32,04,37,253,19,02,08,243,27*7B
$GPGSV,3,3,11,27,08,303,21,10,09,196,17,17,52,343,*42
$GPRMC,004916.000,A,2755.3878,N,11637.2985,E,37.0,89.9,150111,,,A*68
$GPGGA,004916.000,2755.3878,N,11637.2985,E,1,09,0.9,55.3,M,7.4,M,,0000*53
$GPGSA,A,3,04,08,10,11,20,24,27,28,32,,,,1.5,0.9,1.2*3B
$GPRMC,004917.000,A,2755.3870,N,11637.3105,E,39.2,93.1,150111,,,A*6F
$GPGGA,004917.000,2755.3870,N,11637.3105,E,1,09,0.9,53.6,M,7.4,M,,0000*58
$GPGSA,A,3,04,08,10,11,20,24,27,28,32,,,,1.5,0.9,1.2*3B
$GPRMC,004918.000,A,2755.3861,N,11637.3227,E,39.4,93.0,150111,,,A*64
$GPGGA,004918.000,2755.3861,N,11637.3227,E,1,09,0.9,52.3,M,7.4,M,,0000*50
$GPGSA,A,3,04,08,10,11,20,24,27,28,32,,,,1.5,0.9,1.2*3B
$GPRMC,004919.000,A,2755.3859,N,11637.3354,E,39.3,92.4,150111,,,A*69
$GPGGA,004919.000,2755.3859,N,11637.3354,E,1,10,0.8,52.7,M,7.4,M,,0000*52
$GPGSA,A,3,04,08,10,11,17,20,24,27,28,32,,,1.4,0.8,1.1*3E
$GPRMC,004920.000,A,2755.3855,N,11637.3478,E,38.9,92.9,150111,,,A*60
$GPGGA,004920.000,2755.3855,N,11637.3478,E,1,10,0.8,53.0,M,7.4,M,,0000*5B
$GPGSA,A,3,04,08,10,11,17,20,24,27,28,32,,,1.4,0.8,1.1*3E
$GPGSV,3,1,11,28,78,178,24,20,46,070,37,17,52,343,25,11,19,055,28*75
$GPGSV,3,2,11,24,17,045,22,08,14,200,24,32,22,049,31,04,37,253,23*7B
$GPGSV,3,3,11,02,08,243,30,27,08,303,25,10,09,196,26*4D
$GPRMC,004921.000,A,2755.3846,N,11637.3600,E,38.7,93.3,150111,,,A*6B
$GPGGA,004921.000,2755.3846,N,11637.3600,E,1,10,0.8,52.6,M,7.4,M,,0000*52
$GPGSA,A,3,04,08,10,11,17,20,24,27,28,32,,,1.4,0.8,1.1*3E
$GPRMC,004922.000,A,2755.3835,N,11637.3719,E,38.4,94.1,150111,,,A*63
$GPGGA,004922.000,2755.3835,N,11637.3719,E,1,10,0.8,52.2,M,7.4,M,,0000*58
$GPGSA,A,3,04,08,10,11,17,20,24,27,28,32,,,1.4,0.8,1.1*3E
$GPRMC,004923.000,A,2755.3830,N,11637.3840,E,38.0,93.2,150111,,,A*64
$GPGGA,004923.000,2755.3830,N,11637.3840,E,1,10,0.8,52.4,M,7.4,M,,0000*59
$GPGSA,A,3,04,08,10,11,17,20,24,27,28,32,,,1.4,0.8,1.1*3E
$GPRMC,004924.000,A,2755.3823,N,11637.3957,E,37.2,92.8,150111,,,A*60
$GPGGA,004924.000,2755.3823,N,11637.3957,E,1,10,0.8,51.9,M,7.4,M,,0000*55
$GPGSA,A,3,04,08,10,11,17,20,24,27,28,32,,,1.4,0.8,1.1*3E
$GPRMC,004925.000,A,2755.3817,N,11637.4073,E,37.1,92.8,150111,,,A*6D
$GPGGA,004925.000,2755.3817,N,11637.4073,E,1,10,0.8,51.6,M,7.4,M,,0000*54
$GPGSA,A,3,04,08,10,11,17,20,24,27,28,32,,,1.4,0.8,1.1*3E
$GPGSV,3,1,11,28,78,178,23,20,46,070,36,17,52,343,27,11,19,055,29*70
$GPGSV,3,2,11,24,17,045,23,08,14,200,26,32,22,049,32,04,37,253,23*7B
$GPGSV,3,3,11,02,08,243,31,27,08,303,24,10,09,196,28*43
$GPRMC,004926.000,A,2755.3810,N,11637.4190,E,37.3,93.7,150111,,,A*69
$GPGGA,004926.000,2755.3810,N,11637.4190,E,1,10,0.8,51.4,M,7.4,M,,0000*5E
$GPGSA,A,3,04,08,10,11,17,20,24,27,28,32,,,1.4,0.8,1.1*3E
$GPRMC,004927.000,A,2755.3805,N,11637.4308,E,37.7,92.9,150111,,,A*64
$GPGGA,004927.000,2755.3805,N,11637.4308,E,1,10,0.8,51.5,M,7.4,M,,0000*59
$GPGSA,A,3,04,08,10,11,17,20,24,27,28,32,,,1.4,0.8,1.1*3E
$GPRMC,004928.000,A,2755.3801,N,11637.4423,E,35.8,91.6,150111,,,A*60
$GPGGA,004928.000,2755.3801,N,11637.4423,E,1,10,0.8,51.9,M,7.4,M,,0000*50
$GPGSA,A,3,04,08,10,11,17,20,24,27,28,32,,,1.4,0.8,1.1*3E
$GPRMC,004929.000,A,2755.3798,N,11637.4540,E,37.0,92.1,150111,,,A*64
$GPGGA,004929.000,2755.3798,N,11637.4540,E,1,11,0.8,52.0,M,7.4,M,,0000*51
$GPGSA,A,3,02,04,08,10,11,17,20,24,27,28,32,,1.4,0.8,1.1*3C
$GPRMC,004930.000,A,2755.3795,N,11637.4655,E,37.3,93.2,150111,,,A*67
$GPGGA,004930.000,2755.3795,N,11637.4655,E,1,11,0.8,52.3,M,7.4,M,,0000*50
$GPGSA,A,3,02,04,08,10,11,17,20,24,27,28,32,,1.4,0.8,1.1*3C
$GPGSV,3,1,11,28,78,178,23,20,46,070,36,17,52,343,25,11,19,055,28*73
$GPGSV,3,2,11,24,17,045,23,08,14,200,25,32,22,049,31,04,37,253,23*7B
$GPGSV,3,3,11,02,08,243,29,27,08,303,23,10,09,196,26*43
$GPRMC,004931.000,A,2755.3790,N,11637.4771,E,37.3,93.2,150111,,,A*64
$GPGGA,004931.000,2755.3790,N,11637.4771,E,1,11,0.8,52.7,M,7.4,M,,0000*57
$GPGSA,A,3,02,04,08,10,11,17,20,24,27,28,32,,1.4,0.8,1.1*3C
$GPRMC,004932.000,A,2755.3782,N,11637.4890,E,37.9,94.1,150111,,,A*6A
$GPGGA,004932.000,2755.3782,N,11637.4890,E,1,11,0.8,52.7,M,7.4,M,,0000*57
$GPGSA,A,3,02,04,08,10,11,17,20,24,27,28,32,,1.4,0.8,1.1*3C
$GPRMC,004933.000,A,2755.3773,N,11637.5008,E,37.3,93.5,150111,,,A*64
$GPGGA,004933.000,2755.3773,N,11637.5008,E,1,11,0.8,52.6,M,7.4,M,,0000*51
$GPGSA,A,3,02,04,08,10,11,17,20,24,27,28,32,,1.4,0.8,1.1*3C
$GPRMC,004934.000,A,2755.3768,N,11637.5122,E,35.9,92.6,150111,,,A*6A
$GPGGA,004934.000,2755.3768,N,11637.5122,E,1,09,1.2,52.7,M,7.4,M,,0000*56
$GPGSA,A,3,02,04,11,17,20,24,27,28,32,,,,1.7,1.2,1.2*3E
$GPRMC,004935.000,A,2755.3764,N,11637.5233,E,35.2,92.1,150111,,,A*68
$GPGGA,004935.000,2755.3764,N,11637.5233,E,1,10,0.8,52.8,M,7.4,M,,0000*54
$GPGSA,A,3,04,08,10,11,17,20,24,27,28,32,,,1.4,0.8,1.1*3E
$GPGSV,3,1,11,28,78,178,24,20,46,070,37,17,52,343,27,11,19,055,28*77
$GPGSV,3,2,11,24,17,045,22,08,14,200,18,32,22,049,31,04,37,253,23*74
$GPGSV,3,3,11,27,08,303,22,10,09,196,24,02,08,243,*4B
$GPRMC,004936.000,A,2755.3756,N,11637.5349,E,36.7,94.4,150111,,,A*63
$GPGGA,004936.000,2755.3756,N,11637.5349,E,1,10,0.8,52.2,M,7.4,M,,0000*50
$GPGSA,A,3,04,08,10,11,17,20,24,27,28,32,,,1.4,0.8,1.1*3E
$GPRMC,004937.000,A,2755.3749,N,11637.5464,E,36.8,93.9,150111,,,A*61
$GPGGA,004937.000,2755.3749,N,11637.5464,E,1,10,0.8,51.6,M,7.4,M,,0000*50
$GPGSA,A,3,04,08,10,11,17,20,24,27,28,32,,,1.4,0.8,1.1*3E
$GPRMC,004938.000,A,2755.3741,N,11637.5580,E,36.8,94.4,150111,,,A*67
$GPGGA,004938.000,2755.3741,N,11637.5580,E,1,10,0.8,51.5,M,7.4,M,,0000*5F
$GPGSA,A,3,04,08,10,11,17,20,24,27,28,32,,,1.4,0.8,1.1*3E
$GPRMC,004939.000,A,2755.3731,N,11637.5698,E,37.3,94.9,150111,,,A*6C
$GPGGA,004939.000,2755.3731,N,11637.5698,E,1,10,0.8,51.2,M,7.4,M,,0000*54
$GPGSA,A,3,04,08,10,11,17,20,24,27,28,32,,,1.4,0.8,1.1*3E
$GPRMC,004940.000,A,2755.3724,N,11637.5812,E,36.2,93.3,150111,,,A*67
$GPGGA,004940.000,2755.3724,N,11637.5812,E,1,11,0.8,51.0,M,7.4,M,,0000*51
$GPGSA,A,3,02,04,08,10,11,17,20,24,27,28,32,,1.4,0.8,1.1*3C
$GPGSV,3,1,11,28,78,178,24,20,46,070,36,17,52,343,23,11,19,055,28*72
$GPGSV,3,2,11,24,17,045,22,08,14,200,24,32,22,049,30,04,37,254,22*7C
$GPGSV,3,3,11,02,08,243,22,27,08,303,19,10,09,196,28*4F
$GPRMC,004941.000,A,2755.3718,N,11637.5928,E,37.6,93.5,150111,,,A*62
$GPGGA,004941.000,2755.3718,N,11637.5928,E,1,11,0.8,51.0,M,7.4,M,,0000*57
$GPGSA,A,3,02,04,08,10,11,17,20,24,27,28,32,,1.4,0.8,1.1*3C
$GPRMC,004942.000,A,2755.3715,N,11637.6048,E,37.6,93.1,150111,,,A*64
$GPGGA,004942.000,2755.3715,N,11637.6048,E,1,11,0.8,51.4,M,7.4,M,,0000*51
$GPGSA,A,3,02,04,08,10,11,17,20,24,27,28,32,,1.4,0.8,1.1*3C
$GPRMC,004943.000,A,2755.3713,N,11637.6168,E,37.9,92.1,150111,,,A*6E
$GPGGA,004943.000,2755.3713,N,11637.6168,E,1,11,0.8,51.8,M,7.4,M,,0000*59
$GPGSA,A,3,02,04,08,10,11,17,20,24,27,28,32,,1.4,0.8,1.1*3C
$GPRMC,004944.000,A,2755.3707,N,11637.6290,E,38.0,92.9,150111,,,A*66
$GPGGA,004944.000,2755.3707,N,11637.6290,E,1,11,0.8,51.7,M,7.4,M,,0000*50
$GPGSA,A,3,02,04,08,10,11,17,20,24,27,28,32,,1.4,0.8,1.1*3C
$GPRMC,004945.000,A,2755.3700,N,11637.6411,E,38.0,92.3,150111,,,A*65
$GPGGA,004945.000,2755.3700,N,11637.6411,E,1,11,0.8,51.2,M,7.4,M,,0000*5C
$GPGSA,A,3,02,04,08,10,11,17,20,24,27,28,32,,1.4,0.8,1.1*3C
$GPGSV,3,1,11,28,78,178,23,20,46,070,36,17,52,343,24,11,19,055,26*7C
$GPGSV,3,2,11,24,17,045,24,08,14,200,25,32,22,049,30,04,37,254,22*7B
$GPGSV,3,3,11,02,09,243,29,27,08,303,23,10,09,196,28*4C
$GPRMC,004946.000,A,2755.3695,N,11637.6532,E,38.1,92.6,150111,,,A*6F
$GPGGA,004946.000,2755.3695,N,11637.6532,E,1,11,0.8,51.8,M,7.4,M,,0000*58
$GPGSA,A,3,02,04,08,10,11,17,20,24,27,28,32,,1.4,0.8,1.1*3C
$GPRMC,004947.000,A,2755.3690,N,11637.6653,E,37.5,93.6,150111,,,A*65
$GPGGA,004947.000,2755.3690,N,11637.6653,E,1,11,0.8,52.5,M,7.4,M,,0000*56
$GPGSA,A,3,02,04,08,10,11,17,20,24,27,28,32,,1.4,0.8,1.1*3C
$GPRMC,004948.000,A,2755.3683,N,11637.6774,E,38.6,93.2,150111,,,A*64
$GPGGA,004948.000,2755.3683,N,11637.6774,E,1,11,0.8,52.8,M,7.4,M,,0000*52
$GPGSA,A,3,02,04,08,10,11,17,20,24,27,28,32,,1.4,0.8,1.1*3C
$GPRMC,004949.000,A,2755.3676,N,11637.6896,E,39.0,93.3,150111,,,A*6A
$GPGGA,004949.000,2755.3676,N,11637.6896,E,1,11,0.8,53.3,M,7.4,M,,0000*50
$GPGSA,A,3,02,04,08,10,11,17,20,24,27,28,32,,1.4,0.8,1.1*3C
$GPRMC,004950.000,A,2755.3668,N,11637.7021,E,39.5,93.1,150111,,,A*6F
$GPGGA,004950.000,2755.3668,N,11637.7021,E,1,11,0.8,53.7,M,7.4,M,,0000*56
$GPGSA,A,3,02,04,08,10,11,17,20,24,27,28,32,,1.4,0.8,1.1*3C
$GPGSV,3,1,11,28,78,178,21,20,46,070,33,17,52,343,21,11,19,055,27*7F
$GPGSV,3,2,11,24,16,045,22,08,14,200,25,32,22,049,29,04,37,254,28*7E
$GPGSV,3,3,11,02,09,243,22,27,08,302,22,10,09,196,26*49
$GPRMC,004951.000,A,2755.3661,N,11637.7142,E,38.3,93.2,150111,,,A*67
$GPGGA,004951.000,2755.3661,N,11637.7142,E,1,10,0.8,54.0,M,7.4,M,,0000*5B
$GPGSA,A,3,02,04,08,10,11,17,20,24,27,32,,,1.6,0.8,1.4*31
$GPRMC,004952.000,A,2755.3652,N,11637.7263,E,37.2,92.9,150111,,,A*60
$GPGGA,004952.000,2755.3652,N,11637.7263,E,1,11,0.8,54.1,M,7.4,M,,0000*58
$GPGSA,A,3,02,04,08,10,11,17,20,24,27,28,32,,1.4,0.8,1.1*3C
$GPRMC,004953.000,A,2755.3646,N,11637.7382,E,37.2,93.4,150111,,,A*66
$GPGGA,004953.000,2755.3646,N,11637.7382,E,1,10,0.9,54.8,M,7.4,M,,0000*5B
$GPGSA,A,3,02,04,08,11,17,20,24,27,28,32,,,1.4,0.9,1.1*3C
$GPRMC,004954.000,A,2755.3640,N,11637.7497,E,36.4,93.6,150111,,,A*61
$GPGGA,004954.000,2755.3640,N,11637.7497,E,1,11,0.8,55.0,M,7.4,M,,0000*50
$GPGSA,A,3,02,04,08,10,11,17,20,24,27,28,32,,1.4,0.8,1.1*3C
$GPRMC,004955.000,A,2755.3632,N,11637.7610,E,35.9,95.3,150111,,,A*65
$GPGGA,004955.000,2755.3632,N,11637.7610,E,1,10,0.8,55.8,M,7.4,M,,0000*50
$GPGSA,A,3,02,04,08,10,11,17,20,24,27,32,,,1.6,0.8,1.4*31
$GPGSV,3,1,11,28,78,178,15,20,46,070,33,17,52,343,17,11,19,055,28*72
$GPGSV,3,2,11,24,16,045,20,08,14,200,25,32,22,049,31,04,37,254,29*74
$GPGSV,3,3,11,02,09,243,24,27,08,302,21,10,09,196,23*49
$GPRMC,004956.000,A,2755.3625,N,11637.7719,E,33.9,94.9,150111,,,A*65
$GPGGA,004956.000,2755.3625,N,11637.7719,E,1,11,0.8,56.6,M,7.4,M,,0000*51
$GPGSA,A,3,02,04,08,10,11,17,20,24,27,28,32,,1.4,0.8,1.1*3C
$GPRMC,004957.000,A,2755.3616,N,11637.7825,E,33.3,94.1,150111,,,A*66
$GPGGA,004957.000,2755.3616,N,11637.7825,E,1,11,0.8,56.8,M,7.4,M,,0000*5E
$GPGSA,A,3,02,04,08,10,11,17,20,24,27,28,32,,1.4,0.8,1.1*3C
$GPRMC,004958.000,A,2755.3611,N,11637.7930,E,33.1,92.6,150111,,,A*68
$GPGGA,004958.000,2755.3611,N,11637.7930,E,1,11,0.8,57.0,M,7.4,M,,0000*5A
$GPGSA,A,3,02,04,08,10,11,17,20,24,27,28,32,,1.4,0.8,1.1*3C
$GPRMC,004959.000,A,2755.3608,N,11637.8032,E,31.6,91.3,150111,,,A*66
$GPGGA,004959.000,2755.3608,N,11637.8032,E,1,11,0.8,57.5,M,7.4,M,,0000*52
$GPGSA,A,3,02,04,08,10,11,17,20,24,27,28,32,,1.4,0.8,1.1*3C
$GPRMC,005000.000,A,2755.3606,N,11637.8132,E,31.8,91.4,150111,,,A*64
$GPGGA,005000.000,2755.3606,N,11637.8132,E,1,11,0.8,57.3,M,7.4,M,,0000*5F
$GPGSA,A,3,02,04,08,10,11,17,20,24,27,28,32,,1.4,0.8,1.1*3C
$GPGSV,3,1,11,28,78,178,23,20,46,070,37,17,52,343,21,11,19,055,30*7F
$GPGSV,3,2,11,24,16,045,23,08,14,200,24,32,22,049,33,04,38,254,22*70
$GPGSV,3,3,11,02,09,243,24,27,08,302,20,10,09,196,25*4E
$GPRMC,005001.000,A,2755.3600,N,11637.8238,E,33.5,92.8,150111,,,A*6A
$GPGGA,005001.000,2755.3600,N,11637.8238,E,1,11,0.8,56.5,M,7.4,M,,0000*56
$GPGSA,A,3,02,04,08,10,11,17,20,24,27,28,32,,1.4,0.8,1.1*3C
$GPRMC,005002.000,A,2755.3595,N,11637.8346,E,34.3,92.4,150111,,,A*63
$GPGGA,005002.000,2755.3595,N,11637.8346,E,1,11,0.8,55.9,M,7.4,M,,0000*5D
$GPGSA,A,3,02,04,08,10,11,17,20,24,27,28,32,,1.4,0.8,1.1*3C
$GPRMC,005003.000,A,2755.3586,N,11637.8459,E,35.2,93.4,150111,,,A*68
$GPGGA,005003.000,2755.3586,N,11637.8459,E,1,11,0.8,54.7,M,7.4,M,,0000*58
$GPGSA,A,3,02,04,08,10,11,17,20,24,27,28,32,,1.4,0.8,1.1*3C
$GPRMC,005004.000,A,2755.3581,N,11637.8569,E,34.9,93.8,150111,,,A*6C
$GPGGA,005004.000,2755.3581,N,11637.8569,E,1,10,0.9,54.8,M,7.4,M,,0000*55
$GPGSA,A,3,02,04,08,11,17,20,24,27,28,32,,,1.4,0.9,1.1*3C
$GPRMC,005005.000,A,2755.3570,N,11637.8686,E,36.6,93.6,150111,,,A*62
$GPGGA,005005.000,2755.3570,N,11637.8686,E,1,11,0.8,53.7,M,7.4,M,,0000*50
$GPGSA,A,3,02,04,08,10,11,17,20,24,27,28,32,,1.4,0.8,1.1*3C
$GPGSV,3,1,11,28,78,178,24,20,46,070,37,17,52,343,26,11,19,055,29*77
$GPGSV,3,2,11,24,16,045,23,08,14,200,22,32,22,049,32,04,38,254,21*74
$GPGSV,3,3,11,02,09,243,22,27,08,302,19,10,09,196,22*45
$GPRMC,005006.000,A,2755.3560,N,11637.8804,E,36.9,93.6,150111,,,A*6B
$GPGGA,005006.000,2755.3560,N,11637.8804,E,1,11,0.8,52.9,M,7.4,M,,0000*59
$GPGSA,A,3,02,04,08,10,11,17,20,24,27,28,32,,1.4,0.8,1.1*3C
$GPRMC,005007.000,A,2755.3555,N,11637.8919,E,36.0,91.8,150111,,,A*64
$GPGGA,005007.000,2755.3555,N,11637.8919,E,1,11,0.8,52.5,M,7.4,M,,0000*5F
$GPGSA,A,3,02,04,08,10,11,17,20,24,27,28,32,,1.4,0.8,1.1*3C
$GPRMC,005008.000,A,2755.3553,N,11637.9034,E,36.7,91.8,150111,,,A*6D
$GPGGA,005008.000,2755.3553,N,11637.9034,E,1,11,0.8,53.3,M,7.4,M,,0000*56
$GPGSA,A,3,02,04,08,10,11,17,20,24,27,28,32,,1.4,0.8,1.1*3C
$GPRMC,005009.000,A,2755.3548,N,11637.9152,E,37.5,93.5,150111,,,A*6B
$GPGGA,005009.000,2755.3548,N,11637.9152,E,1,11,0.8,53.5,M,7.4,M,,0000*5A
$GPGSA,A,3,02,04,08,10,11,17,20,24,27,28,32,,1.4,0.8,1.1*3C
$GPRMC,005010.000,A,2755.3541,N,11637.9271,E,37.7,93.2,150111,,,A*6D
$GPGGA,005010.000,2755.3541,N,11637.9271,E,1,11,0.8,53.4,M,7.4,M,,0000*58
$GPGSA,A,3,02,04,08,10,11,17,20,24,27,28,32,,1.4,0.8,1.1*3C
$GPGSV,3,1,11,28,78,178,24,20,46,069,37,17,52,343,26,11,18,055,30*76
$GPGSV,3,2,11,24,16,045,23,08,14,200,25,32,22,049,33,04,38,254,18*78
$GPGSV,3,3,11,02,09,243,29,27,08,302,21,10,09,196,25*42
$GPRMC,005011.000,A,2755.3536,N,11637.9389,E,37.5,94.1,150111,,,A*6C
$GPGGA,005011.000,2755.3536,N,11637.9389,E,1,11,0.8,53.4,M,7.4,M,,0000*5F
$GPGSA,A,3,02,04,08,10,11,17,20,24,27,28,32,,1.4,0.8,1.1*3C
$GPRMC,005012.000,A,2755.3528,N,11637.9507,E,37.6,92.6,150111,,,A*62
$GPGGA,005012.000,2755.3528,N,11637.9507,E,1,11,0.8,52.2,M,7.4,M,,0000*54
$GPGSA,A,3,02,04,08,10,11,17,20,24,27,28,32,,1.4,0.8,1.1*3C
$GPRMC,005013.000,A,2755.3523,N,11637.9625,E,38.1,93.1,150111,,,A*65
$GPGGA,005013.000,2755.3523,N,11637.9625,E,1,11,0.8,51.7,M,7.4,M,,0000*5B
$GPGSA,A,3,02,04,08,10,11,17,20,24,27,28,32,,1.4,0.8,1.1*3C
$GPRMC,005014.000,A,2755.3517,N,11637.9746,E,39.0,93.7,150111,,,A*67
$GPGGA,005014.000,2755.3517,N,11637.9746,E,1,11,0.8,51.3,M,7.4,M,,0000*5B
$GPGSA,A,3,02,04,08,10,11,17,20,24,27,28,32,,1.4,0.8,1.1*3C
$GPRMC,005015.000,A,2755.3516,N,11637.9866,E,40.1,93.1,150111,,,A*63
$GPGGA,005015.000,2755.3516,N,11637.9866,E,1,11,0.8,51.5,M,7.4,M,,0000*50
$GPGSA,A,3,02,04,08,10,11,17,20,24,27,28,32,,1.4,0.8,1.1*3C
$GPGSV,3,1,11,28,78,178,25,20,46,069,36,17,52,343,26,11,18,055,31*77
$GPGSV,3,2,11,24,16,045,27,08,14,200,26,32,22,049,33,04,38,254,22*76
$GPGSV,3,3,11,02,09,243,29,27,08,302,27,10,09,196,27*46
$GPRMC,005016.000,A,2755.3513,N,11637.9987,E,40.2,93.1,150111,,,A*68
$GPGGA,005016.000,2755.3513,N,11637.9987,E,1,11,0.8,51.4,M,7.4,M,,0000*59
$GPGSA,A,3,02,04,08,10,11,17,20,24,27,28,32,,1.4,0.8,1.1*3C
$GPRMC,005017.000,A,2755.3502,N,11638.0119,E,40.2,93.6,150111,,,A*67
$GPGGA,005017.000,2755.3502,N,11638.0119,E,1,11,0.8,50.6,M,7.4,M,,0000*52
$GPGSA,A,3,02,04,08,10,11,17,20,24,27,28,32,,1.4,0.8,1.1*3C
$GPRMC,005018.000,A,2755.3495,N,11638.0246,E,40.8,93.2,150111,,,A*60
$GPGGA,005018.000,2755.3495,N,11638.0246,E,1,11,0.8,51.0,M,7.4,M,,0000*5C
$GPGSA,A,3,02,04,08,10,11,17,20,24,27,28,32,,1.4,0.8,1.1*3C
$GPRMC,005019.000,A,2755.3487,N,11638.0375,E,42.0,93.7,150111,,,A*6C
$GPGGA,005019.000,2755.3487,N,11638.0375,E,1,11,0.8,51.0,M,7.4,M,,0000*5F
$GPGSA,A,3,02,04,08,10,11,17,20,24,27,28,32,,1.4,0.8,1.1*3C
$GPRMC,005020.000,A,2755.3483,N,11638.0508,E,42.9,93.2,150111,,,A*62
$GPGGA,005020.000,2755.3483,N,11638.0508,E,1,11,0.8,51.8,M,7.4,M,,0000*55
$GPGSA,A,3,02,04,08,10,11,17,20,24,27,28,32,,1.4,0.8,1.1*3C
$GPGSV,3,1,11,28,78,178,20,20,46,069,35,17,52,343,25,11,18,056,31*71
$GPGSV,3,2,11,24,16,045,22,08,14,200,27,32,22,049,32,04,38,254,23*72
$GPGSV,3,3,11,02,09,243,25,27,08,302,24,10,09,196,27*49
$GPRMC,005021.000,A,2755.3476,N,11638.0645,E,44.2,93.5,150111,,,A*69
$GPGGA,005021.000,2755.3476,N,11638.0645,E,1,11,0.8,52.3,M,7.4,M,,0000*5C
$GPGSA,A,3,02,04,08,10,11,17,20,24,27,28,32,,1.4,0.8,1.1*3C
$GPRMC,005022.000,A,2755.3470,N,11638.0784,E,45.6,93.7,150111,,,A*67
$GPGGA,005022.000,2755.3470,N,11638.0784,E,1,11,0.8,53.1,M,7.4,M,,0000*56
$GPGSA,A,3,02,04,08,10,11,17,20,24,27,28,32,,1.4,0.8,1.1*3C
$GPRMC,005023.000,A,2755.3463,N,11638.0929,E,46.6,93.7,150111,,,A*6E
$GPGGA,005023.000,2755.3463,N,11638.0929,E,1,11,0.8,53.9,M,7.4,M,,0000*54
$GPGSA,A,3,02,04,08,10,11,17,20,24,27,28,32,,1.4,0.8,1.1*3C
$GPRMC,005024.000,A,2755.3457,N,11638.1074,E,46.6,93.2,150111,,,A*6B
$GPGGA,005024.000,2755.3457,N,11638.1074,E,1,11,0.8,54.6,M,7.4,M,,0000*5C
$GPGSA,A,3,02,04,08,10,11,17,20,24,27,28,32,,1.4,0.8,1.1*3C
$GPRMC,005025.000,A,2755.3450,N,11638.1220,E,46.9,93.8,150111,,,A*6B
$GPGGA,005025.000,2755.3450,N,11638.1220,E,1,11,0.8,55.2,M,7.4,M,,0000*5C
$GPGSA,A,3,02,04,08,10,11,17,20,24,27,28,32,,1.4,0.8,1.1*3C
$GPGSV,3,1,11,28,78,178,18,20,46,069,35,17,52,343,24,11,18,056,30*7A
$GPGSV,3,2,11,24,16,045,24,08,14,200,26,32,22,049,30,04,38,254,26*72
$GPGSV,3,3,11,02,09,243,23,27,08,302,25,10,09,196,26*4F
$GPRMC,005026.000,A,2755.3443,N,11638.1366,E,46.9,94.1,150111,,,A*67
$GPGGA,005026.000,2755.3443,N,11638.1366,E,1,11,0.8,56.5,M,7.4,M,,0000*5A
$GPGSA,A,3,02,04,08,10,11,17,20,24,27,28,32,,1.4,0.8,1.1*3C
$GPRMC,005027.000,A,2755.3436,N,11638.1511,E,46.3,93.1,150111,,,A*6F
$GPGGA,005027.000,2755.3436,N,11638.1511,E,1,11,0.8,57.3,M,7.4,M,,0000*58
$GPGSA,A,3,02,04,08,10,11,17,20,24,27,28,32,,1.4,0.8,1.1*3C
$GPRMC,005028.000,A,2755.3427,N,11638.1657,E,45.7,94.4,150111,,,A*64
$GPGGA,005028.000,2755.3427,N,11638.1657,E,1,11,0.8,57.6,M,7.4,M,,0000*53
$GPGSA,A,3,02,04,08,10,11,17,20,24,27,28,32,,1.4,0.8,1.1*3C
$GPRMC,005029.000,A,2755.3418,N,11638.1801,E,45.5,93.9,150111,,,A*6C
$GPGGA,005029.000,2755.3418,N,11638.1801,E,1,11,0.8,58.3,M,7.4,M,,0000*59
$GPGSA,A,3,02,04,08,10,11,17,20,24,27,28,32,,1.4,0.8,1.1*3C
$GPRMC,005030.000,A,2755.3410,N,11638.1944,E,46.4,94.0,150111,,,A*60
$GPGGA,005030.000,2755.3410,N,11638.1944,E,1,11,0.8,58.9,M,7.4,M,,0000*53
$GPGSA,A,3,02,04,08,10,11,17,20,24,27,28,32,,1.4,0.8,1.1*3C
$GPGSV,3,1,11,28,78,178,18,20,46,069,37,17,52,343,22,11,18,056,31*7F
$GPGSV,3,2,11,24,16,045,26,08,13,200,25,32,22,049,33,04,38,254,27*76
$GPGSV,3,3,11,02,09,243,25,27,08,302,22,10,09,196,29*41
$GPRMC,005031.000,A,2755.3400,N,11638.2091,E,47.4,93.1,150111,,,A*65
$GPGGA,005031.000,2755.3400,N,11638.2091,E,1,11,0.8,59.3,M,7.4,M,,0000*5A
$GPGSA,A,3,02,04,08,10,11,17,20,24,27,28,32,,1.4,0.8,1.1*3C
$GPRMC,005032.000,A,2755.3397,N,11638.2238,E,46.9,89.6,150111,,,A*6E
$GPGGA,005032.000,2755.3397,N,11638.2238,E,1,11,0.8,59.6,M,7.4,M,,0000*54
$GPGSA,A,3,02,04,08,10,11,17,20,24,27,28,32,,1.4,0.8,1.1*3C
$GPRMC,005033.000,A,2755.3405,N,11638.2384,E,47.5,83.3,150111,,,A*67
$GPGGA,005033.000,2755.3405,N,11638.2384,E,1,11,0.8,59.3,M,7.4,M,,0000*5A
$GPGSA,A,3,02,04,08,10,11,17,20,24,27,28,32,,1.4,0.8,1.1*3C
$GPRMC,005034.000,A,2755.3431,N,11638.2526,E,47.4,76.4,150111,,,A*65
$GPGGA,005034.000,2755.3431,N,11638.2526,E,1,10,0.9,59.6,M,7.4,M,,0000*51
$GPGSA,A,3,02,04,08,11,17,20,24,27,28,32,,,1.4,0.9,1.1*3C
$GPRMC,005035.000,A,2755.3468,N,11638.2667,E,46.3,73.9,150111,,,A*60
$GPGGA,005035.000,2755.3468,N,11638.2667,E,1,09,1.2,60.0,M,7.4,M,,0000*54
$GPGSA,A,3,02,04,11,17,20,24,27,28,32,,,,1.7,1.2,1.2*3E
$GPGSV,3,1,11,28,78,178,19,20,46,069,38,17,52,343,33,11,18,056,32*72
$GPGSV,3,2,11,24,16,045,26,32,22,049,28,04,38,254,27,02,09,243,22*7D
$GPGSV,3,3,11,27,08,302,20,08,13,200,,10,09,196,*49
$GPRMC,005036.000,A,2755.3510,N,11638.2802,E,45.4,70.3,150111,,,A*6D
$GPGGA,005036.000,2755.3510,N,11638.2802,E,1,09,1.2,60.0,M,7.4,M,,0000*54
$GPGSA,A,3,02,04,11,17,20,24,27,28,32,,,,1.7,1.2,1.2*3E
$GPRMC,005037.000,A,2755.3554,N,11638.2938,E,44.5,70.3,150111,,,A*64
$GPGGA,005037.000,2755.3554,N,11638.2938,E,1,10,0.9,60.3,M,7.4,M,,0000*5C
$GPGSA,A,3,02,04,08,11,17,20,24,27,28,32,,,1.4,0.9,1.1*3C
$GPRMC,005038.000,A,2755.3598,N,11638.3066,E,43.9,69.3,150111,,,A*6B
$GPGGA,005038.000,2755.3598,N,11638.3066,E,1,10,0.9,60.8,M,7.4,M,,0000*5B
$GPGSA,A,3,02,04,08,11,17,20,24,27,28,32,,,1.4,0.9,1.1*3C
$GPRMC,005039.000,A,2755.3642,N,11638.3196,E,44.2,68.6,150111,,,A*68
$GPGGA,005039.000,2755.3642,N,11638.3196,E,1,10,0.9,60.4,M,7.4,M,,0000*5C
$GPGSA,A,3,02,04,10,11,17,20,24,27,28,32,,,1.4,0.9,1.1*35
$GPRMC,005040.000,A,2755.3689,N,11638.3328,E,46.2,67.1,150111,,,A*6C
$GPGGA,005040.000,2755.3689,N,11638.3328,E,1,11,0.8,60.1,M,7.4,M,,0000*57
$GPGSA,A,3,02,04,08,10,11,17,20,24,27,28,32,,1.4,0.8,1.1*3C
$GPGSV,3,1,11,28,77,178,21,20,46,069,36,17,52,343,36,11,18,056,30*7F
$GPGSV,3,2,11,24,16,045,24,08,13,200,19,32,22,049,29,04,38,254,31*77
$GPGSV,3,3,11,02,09,243,20,27,08,302,18,10,09,196,17*40
$GPRMC,005041.000,A,2755.3738,N,11638.3463,E,47.0,68.6,150111,,,A*65
$GPGGA,005041.000,2755.3738,N,11638.3463,E,1,11,0.8,59.7,M,7.4,M,,0000*59
$GPGSA,A,3,02,04,08,10,11,17,20,24,27,28,32,,1.4,0.8,1.1*3C
$GPRMC,005042.000,A,2755.3784,N,11638.3604,E,48.3,70.7,150111,,,A*66
$GPGGA,005042.000,2755.3784,N,11638.3604,E,1,11,0.8,59.0,M,7.4,M,,0000*59
$GPGSA,A,3,02,04,08,10,11,17,20,24,27,28,32,,1.4,0.8,1.1*3C
$GPRMC,005043.000,A,2755.3825,N,11638.3750,E,48.6,73.4,150111,,,A*66
$GPGGA,005043.000,2755.3825,N,11638.3750,E,1,10,1.1,58.5,M,7.4,M,,0000*51
$GPGSA,A,3,02,04,08,10,11,17,20,24,28,32,,,1.6,1.1,1.2*30
$GPRMC,005044.000,A,2755.3865,N,11638.3897,E,47.9,74.1,150111,,,A*63
$GPGGA,005044.000,2755.3865,N,11638.3897,E,1,09,1.1,58.4,M,7.4,M,,0000*5F
$GPGSA,A,3,02,04,08,10,11,17,20,24,28,,,,1.6,1.1,1.2*31
$GPRMC,005045.000,A,2755.3901,N,11638.4042,E,48.2,73.0,150111,,,A*64
$GPGGA,005045.000,2755.3901,N,11638.4042,E,1,09,1.1,57.3,M,7.4,M,,0000*52
$GPGSA,A,3,02,04,08,10,11,17,20,24,28,,,,1.6,1.1,1.2*31
$GPGSV,3,1,11,28,77,178,20,20,46,069,39,17,52,344,33,11,18,056,29*7B
$GPGSV,3,2,11,24,16,045,26,08,13,200,18,32,22,049,22,04,38,254,28*77
$GPGSV,3,3,11,02,09,243,30,10,09,196,18,27,08,302,*47
$GPRMC,005046.000,A,2755.3946,N,11638.4187,E,48.4,70.2,150111,,,A*6B
$GPGGA,005046.000,2755.3946,N,11638.4187,E,1,10,1.1,57.0,M,7.4,M,,0000*51
$GPGSA,A,3,02,04,08,10,11,17,20,24,28,32,,,1.6,1.1,1.2*30
$GPRMC,005047.000,A,2755.3997,N,11638.4330,E,49.5,71.0,150111,,,A*6B
$GPGGA,005047.000,2755.3997,N,11638.4330,E,1,10,1.1,56.9,M,7.4,M,,0000*5A
$GPGSA,A,3,02,04,08,10,11,17,20,24,28,32,,,1.6,1.1,1.2*30
$GPRMC,005048.000,A,2755.4045,N,11638.4474,E,48.8,70.2,150111,,,A*6D
$GPGGA,005048.000,2755.4045,N,11638.4474,E,1,10,1.1,56.7,M,7.4,M,,0000*5D
$GPGSA,A,3,02,04,08,10,11,17,20,24,28,32,,,1.6,1.1,1.2*30
$GPRMC,005049.000,A,2755.4089,N,11638.4619,E,48.8,72.3,150111,,,A*66
$GPGGA,005049.000,2755.4089,N,11638.4619,E,1,10,1.1,56.4,M,7.4,M,,0000*56
$GPGSA,A,3,02,04,08,10,11,17,20,24,28,32,,,1.6,1.1,1.2*30
$GPRMC,005050.000,A,2755.4132,N,11638.4764,E,48.4,72.3,150111,,,A*68
$GPGGA,005050.000,2755.4132,N,11638.4764,E,1,10,1.1,55.9,M,7.4,M,,0000*5A
$GPGSA,A,3,02,04,08,10,11,17,20,24,28,32,,,1.6,1.1,1.2*30
$GPGSV,3,1,11,28,77,178,18,20,46,069,39,17,52,344,33,11,18,056,30*78
$GPGSV,3,2,11,24,16,045,27,08,13,200,16,32,22,049,26,04,38,254,31*74
$GPGSV,3,3,11,02,09,243,21,27,08,302,14,10,09,196,20*49
$GPRMC,005051.000,A,2755.4173,N,11638.4910,E,48.3,72.3,150111,,,A*66
$GPGGA,005051.000,2755.4173,N,11638.4910,E,1,11,0.8,55.3,M,7.4,M,,0000*50
$GPGSA,A,3,02,04,08,10,11,17,20,24,27,28,32,,1.4,0.8,1.1*3C
$GPRMC,005052.000,A,2755.4215,N,11638.5055,E,48.5,72.0,150111,,,A*6A
$GPGGA,005052.000,2755.4215,N,11638.5055,E,1,11,0.8,55.0,M,7.4,M,,0000*5A
$GPGSA,A,3,02,04,08,10,11,17,20,24,27,28,32,,1.4,0.8,1.1*3C
$GPRMC,005053.000,A,2755.4253,N,11638.5204,E,49.8,76.9,150111,,,A*6E
$GPGGA,005053.000,2755.4253,N,11638.5204,E,1,11,0.8,55.0,M,7.4,M,,0000*5F
$GPGSA,A,3,02,04,08,10,11,17,20,24,27,28,32,,1.4,0.8,1.1*3C
$GPRMC,005054.000,A,2755.4284,N,11638.5355,E,48.8,78.8,150111,,,A*68
$GPGGA,005054.000,2755.4284,N,11638.5355,E,1,11,0.8,55.4,M,7.4,M,,0000*53
$GPGSA,A,3,02,04,08,10,11,17,20,24,27,28,32,,1.4,0.8,1.1*3C
$GPRMC,005055.000,A,2755.4310,N,11638.5505,E,48.3,80.7,150111,,,A*65
$GPGGA,005055.000,2755.4310,N,11638.5505,E,1,11,0.8,55.8,M,7.4,M,,0000*51
$GPGSA,A,3,02,04,08,10,11,17,20,24,27,28,32,,1.4,0.8,1.1*3C
$GPGSV,3,1,11,28,77,178,23,20,46,069,36,17,52,344,26,11,18,056,26*7C
$GPGSV,3,2,11,24,16,046,31,08,13,200,17,32,22,049,33,04,38,254,28*7D
$GPGSV,3,3,11,02,09,243,24,27,08,302,18,10,09,196,21*41
$GPRMC,005056.000,A,2755.4331,N,11638.5657,E,48.7,82.6,150111,,,A*66
$GPGGA,005056.000,2755.4331,N,11638.5657,E,1,11,0.8,55.6,M,7.4,M,,0000*5B
$GPGSA,A,3,02,04,08,10,11,17,20,24,27,28,32,,1.4,0.8,1.1*3C
$GPRMC,005057.000,A,2755.4352,N,11638.5801,E,45.7,80.3,150111,,,A*65
$GPGGA,005057.000,2755.4352,N,11638.5801,E,1,10,0.8,56.2,M,7.4,M,,0000*54
$GPGSA,A,3,02,08,10,11,17,20,24,27,28,32,,,1.4,0.8,1.1*38
$GPRMC,005058.000,A,2755.4365,N,11638.5948,E,46.8,83.3,150111,,,A*6D
$GPGGA,005058.000,2755.4365,N,11638.5948,E,1,11,0.8,55.5,M,7.4,M,,0000*56
$GPGSA,A,3,02,04,08,10,11,17,20,24,27,28,32,,1.4,0.8,1.1*3C
$GPRMC,005059.000,A,2755.4376,N,11638.6094,E,46.0,83.3,150111,,,A*6D
$GPGGA,005059.000,2755.4376,N,11638.6094,E,1,10,0.9,55.1,M,7.4,M,,0000*5A
$GPGSA,A,3,02,04,10,11,17,20,24,27,28,32,,,1.4,0.9,1.1*35
$GPRMC,005100.000,A,2755.4385,N,11638.6243,E,47.2,83.8,150111,,,A*6C
$GPGGA,005100.000,2755.4385,N,11638.6243,E,1,10,0.9,54.4,M,7.4,M,,0000*57
$GPGSA,A,3,02,04,10,11,17,20,24,27,28,32,,,1.4,0.9,1.1*35
$GPGSV,3,1,11,28,77,178,21,20,46,069,33,17,52,344,27,11,18,056,28*74
$GPGSV,3,2,11,24,16,046,28,08,13,200,19,32,22,048,29,04,38,254,25*7C
$GPGSV,3,3,11,02,09,243,22,27,08,302,15,10,09,196,20*4B
$GPRMC,005101.000,A,2755.4392,N,11638.6393,E,47.8,85.7,150111,,,A*64
$GPGGA,005101.000,2755.4392,N,11638.6393,E,1,10,0.8,53.7,M,7.4,M,,0000*59
$GPGSA,A,3,02,08,10,11,17,20,24,27,28,32,,,1.4,0.8,1.1*38
$GPRMC,005102.000,A,2755.4397,N,11638.6549,E,49.9,85.9,150111,,,A*62
$GPGGA,005102.000,2755.4397,N,11638.6549,E,1,10,0.8,53.1,M,7.4,M,,0000*58
$GPGSA,A,3,02,08,10,11,17,20,24,27,28,32,,,1.4,0.8,1.1*38
$GPRMC,005103.000,A,2755.4405,N,11638.6708,E,50.1,85.1,150111,,,A*60
$GPGGA,005103.000,2755.4405,N,11638.6708,E,1,10,0.8,53.2,M,7.4,M,,0000*51
$GPGSA,A,3,02,08,10,11,17,20,24,27,28,32,,,1.4,0.8,1.1*38
$GPRMC,005104.000,A,2755.4422,N,11638.6865,E,49.7,83.0,150111,,,A*6F
$GPGGA,005104.000,2755.4422,N,11638.6865,E,1,10,0.8,54.2,M,7.4,M,,0000*50
$GPGSA,A,3,02,08,10,11,17,20,24,27,28,32,,,1.4,0.8,1.1*38
$GPRMC,005105.000,A,2755.4438,N,11638.7022,E,50.0,84.9,150111,,,A*6E
$GPGGA,005105.000,2755.4438,N,11638.7022,E,1,10,0.8,54.4,M,7.4,M,,0000*56
$GPGSA,A,3,02,08,10,11,17,20,24,27,28,32,,,1.4,0.8,1.1*38
$GPGSV,3,1,11,28,77,178,22,20,46,069,36,17,52,344,28,11,18,056,25*70
$GPGSV,3,2,11,24,16,046,30,08,13,199,18,32,22,048,31,04,38,254,17*7F
$GPGSV,3,3,11,02,09,243,28,27,08,302,17,10,09,196,23*40
$GPRMC,005106.000,A,2755.4451,N,11638.7175,E,48.5,84.2,150111,,,A*66
$GPGGA,005106.000,2755.4451,N,11638.7175,E,1,11,0.8,54.0,M,7.4,M,,0000*5C
$GPGSA,A,3,02,04,08,10,11,17,20,24,27,28,32,,1.4,0.8,1.1*3C
$GPRMC,005107.000,A,2755.4467,N,11638.7325,E,46.6,83.2,150111,,,A*6F
$GPGGA,005107.000,2755.4467,N,11638.7325,E,1,11,0.8,54.8,M,7.4,M,,0000*57
$GPGSA,A,3,02,04,08,10,11,17,20,24,27,28,32,,1.4,0.8,1.1*3C
$GPRMC,005108.000,A,2755.4480,N,11638.7472,E,47.3,84.9,150111,,,A*64
$GPGGA,005108.000,2755.4480,N,11638.7472,E,1,11,0.8,55.0,M,7.4,M,,0000*5D
$GPGSA,A,3,02,04,08,10,11,17,20,24,27,28,32,,1.4,0.8,1.1*3C
$GPRMC,005109.000,A,2755.4494,N,11638.7620,E,47.0,83.5,150111,,,A*6D
$GPGGA,005109.000,2755.4494,N,11638.7620,E,1,11,0.8,54.6,M,7.4,M,,0000*5B
$GPGSA,A,3,02,04,08,10,11,17,20,24,27,28,32,,1.4,0.8,1.1*3C
$GPRMC,005110.000,A,2755.4507,N,11638.7767,E,47.4,84.7,150111,,,A*6D
$GPGGA,005110.000,2755.4507,N,11638.7767,E,1,11,0.8,54.3,M,7.4,M,,0000*5F
$GPGSA,A,3,02,04,08,10,11,17,20,24,27,28,32,,1.4,0.8,1.1*3C
$GPGSV,3,1,11,28,77,178,22,20,46,069,35,17,53,344,28,11,18,056,28*7F
$GPGSV,3,2,11,24,16,046,30,08,13,199,18,32,22,048,30,04,38,254,16*7F
$GPGSV,3,3,11,02,09,244,26,27,08,302,17,10,09,196,22*48
$GPRMC,005111.000,A,2755.4520,N,11638.7915,E,47.1,84.8,150111,,,A*68
$GPGGA,005111.000,2755.4520,N,11638.7915,E,1,11,0.8,54.7,M,7.4,M,,0000*54
$GPGSA,A,3,02,04,08,10,11,17,20,24,27,28,32,,1.4,0.8,1.1*3C
$GPRMC,005112.000,A,2755.4533,N,11638.8059,E,46.0,84.4,150111,,,A*6B
$GPGGA,005112.000,2755.4533,N,11638.8059,E,1,11,0.8,54.3,M,7.4,M,,0000*5F
$GPGSA,A,3,02,04,08,10,11,17,20,24,27,28,32,,1.4,0.8,1.1*3C
$GPRMC,005113.000,A,2755.4545,N,11638.8202,E,45.6,84.6,150111,,,A*60
$GPGGA,005113.000,2755.4545,N,11638.8202,E,1,11,0.8,53.7,M,7.4,M,,0000*50
$GPGSA,A,3,02,04,08,10,11,17,20,24,27,28,32,,1.4,0.8,1.1*3C
$GPRMC,005114.000,A,2755.4555,N,11638.8346,E,46.8,85.8,150111,,,A*65
$GPGGA,005114.000,2755.4555,N,11638.8346,E,1,11,0.8,53.7,M,7.4,M,,0000*57
$GPGSA,A,3,02,04,08,10,11,17,20,24,27,28,32,,1.4,0.8,1.1*3C
$GPRMC,005115.000,A,2755.4564,N,11638.8495,E,47.3,84.8,150111,,,A*64
$GPGGA,005115.000,2755.4564,N,11638.8495,E,1,11,0.8,53.4,M,7.4,M,,0000*5E
$GPGSA,A,3,02,04,08,10,11,17,20,24,27,28,32,,1.4,0.8,1.1*3C
$GPGSV,3,1,11,28,77,178,22,20,46,069,33,17,53,344,30,11,18,056,28*70
$GPGSV,3,2,11,24,16,046,30,08,13,199,16,32,22,048,30,04,38,254,17*70
$GPGSV,3,3,11,02,09,244,25,27,08,302,16,10,09,196,18*43
$GPRMC,005116.000,A,2755.4574,N,11638.8645,E,48.1,85.6,150111,,,A*6B
$GPGGA,005116.000,2755.4574,N,11638.8645,E,1,11,0.8,53.5,M,7.4,M,,0000*52
$GPGSA,A,3,02,04,08,10,11,17,20,24,27,28,32,,1.4,0.8,1.1*3C
$GPRMC,005117.000,A,2755.4589,N,11638.8796,E,47.6,83.6,150111,,,A*69
$GPGGA,005117.000,2755.4589,N,11638.8796,E,1,11,0.8,54.5,M,7.4,M,,0000*59
$GPGSA,A,3,02,04,08,10,11,17,20,24,27,28,32,,1.4,0.8,1.1*3C
$GPRMC,005118.000,A,2755.4603,N,11638.8943,E,46.9,83.6,150111,,,A*6F
$GPGGA,005118.000,2755.4603,N,11638.8943,E,1,11,0.8,54.7,M,7.4,M,,0000*53
$GPGSA,A,3,02,04,08,10,11,17,20,24,27,28,32,,1.4,0.8,1.1*3C
$GPRMC,005119.000,A,2755.4617,N,11638.9089,E,46.3,83.8,150111,,,A*61
$GPGGA,005119.000,2755.4617,N,11638.9089,E,1,11,0.8,54.2,M,7.4,M,,0000*5C
$GPGSA,A,3,02,04,08,10,11,17,20,24,27,28,32,,1.4,0.8,1.1*3C
$GPRMC,005120.000,A,2755.4631,N,11638.9233,E,45.6,82.7,150111,,,A*64
$GPGGA,005120.000,2755.4631,N,11638.9233,E,1,11,0.8,53.9,M,7.5,M,,0000*5C
$GPGSA,A,3,02,04,08,10,11,17,20,24,27,28,32,,1.4,0.8,1.1*3C
$GPGSV,3,1,11,28,77,178,23,20,46,069,33,17,53,344,30,11,18,056,28*71
$GPGSV,3,2,11,24,16,046,30,08,13,199,16,32,21,048,31,04,38,254,17*72
$GPGSV,3,3,11,02,09,244,23,27,08,302,20,10,09,196,16*4E
$GPRMC,005121.000,A,2755.4645,N,11638.9380,E,47.9,85.3,150111,,,A*61
$GPGGA,005121.000,2755.4645,N,11638.9380,E,1,11,0.8,53.3,M,7.5,M,,0000*5D
$GPGSA,A,3,02,04,08,10,11,17,20,24,27,28,32,,1.4,0.8,1.1*3C
$GPRMC,005122.000,A,2755.4655,N,11638.9530,E,48.4,85.4,150111,,,A*6B
$GPGGA,005122.000,2755.4655,N,11638.9530,E,1,11,0.8,53.2,M,7.5,M,,0000*53
$GPGSA,A,3,02,04,08,10,11,17,20,24,27,28,32,,1.4,0.8,1.1*3C
$GPRMC,005123.000,A,2755.4665,N,11638.9684,E,49.3,85.0,150111,,,A*67
$GPGGA,005123.000,2755.4665,N,11638.9684,E,1,11,0.8,52.8,M,7.5,M,,0000*56
$GPGSA,A,3,02,04,08,10,11,17,20,24,27,28,32,,1.4,0.8,1.1*3C
$GPRMC,005124.000,A,2755.4677,N,11638.9840,E,50.6,85.4,150111,,,A*6C
$GPGGA,005124.000,2755.4677,N,11638.9840,E,1,11,0.8,52.9,M,7.5,M,,0000*55
$GPGSA,A,3,02,04,08,10,11,17,20,24,27,28,32,,1.4,0.8,1.1*3C
$GPRMC,005125.000,A,2755.4689,N,11638.9999,E,51.2,84.8,150111,,,A*61
$GPGGA,005125.000,2755.4689,N,11638.9999,E,1,11,0.8,53.0,M,7.5,M,,0000*58
$GPGSA,A,3,02,04,08,10,11,17,20,24,27,28,32,,1.4,0.8,1.1*3C
$GPGSV,3,1,11,28,77,178,22,20,46,069,32,17,53,344,30,11,18,056,29*70
$GPGSV,3,2,11,24,16,046,31,08,13,199,15,32,21,048,32,04,38,254,18*7C
$GPGSV,3,3,11,02,09,244,25,27,08,302,18,10,09,196,18*4D
$GPRMC,005126.000,A,2755.4701,N,11639.0163,E,52.2,85.2,150111,,,A*6E
$GPGGA,005126.000,2755.4701,N,11639.0163,E,1,11,0.8,52.2,M,7.5,M,,0000*5C
$GPGSA,A,3,02,04,08,10,11,17,20,24,27,28,32,,1.4,0.8,1.1*3C
$GPRMC,005127.000,A,2755.4714,N,11639.0327,E,52.1,84.7,150111,,,A*6E
$GPGGA,005127.000,2755.4714,N,11639.0327,E,1,11,0.8,52.2,M,7.5,M,,0000*5B
$GPGSA,A,3,02,04,08,10,11,17,20,24,27,28,32,,1.4,0.8,1.1*3C
$GPRMC,005128.000,A,2755.4728,N,11639.0488,E,51.4,84.7,150111,,,A*6A
$GPGGA,005128.000,2755.4728,N,11639.0488,E,1,11,0.8,52.0,M,7.5,M,,0000*5B
$GPGSA,A,3,02,04,08,10,11,17,20,24,27,28,32,,1.4,0.8,1.1*3C
$GPRMC,005129.000,A,2755.4742,N,11639.0646,E,49.5,83.6,150111,,,A*69
$GPGGA,005129.000,2755.4742,N,11639.0646,E,1,11,0.8,51.9,M,7.5,M,,0000*5C
$GPGSA,A,3,02,04,08,10,11,17,20,24,27,28,32,,1.4,0.8,1.1*3C
$GPRMC,005130.000,A,2755.4756,N,11639.0803,E,49.6,84.3,150111,,,A*6A
$GPGGA,005130.000,2755.4756,N,11639.0803,E,1,11,0.8,51.9,M,7.5,M,,0000*5E
$GPGSA,A,3,02,04,08,10,11,17,20,24,27,28,32,,1.4,0.8,1.1*3C
$GPGSV,3,1,11,28,77,178,19,20,46,069,31,17,53,344,29,11,18,056,26*7C
$GPGSV,3,2,11,24,16,046,27,08,13,199,14,32,21,048,29,04,38,254,16*7E
$GPGSV,3,3,11,02,09,244,24,27,08,302,17,10,09,196,18*43
$GPRMC,005131.000,A,2755.4768,N,11639.0960,E,50.5,85.3,150111,,,A*68
$GPGGA,005131.000,2755.4768,N,11639.0960,E,1,11,0.8,51.9,M,7.5,M,,0000*56
$GPGSA,A,3,02,04,08,10,11,17,20,24,27,28,32,,1.4,0.8,1.1*3C
$GPRMC,005132.000,A,2755.4781,N,11639.1118,E,49.8,84.1,150111,,,A*6C
$GPGGA,005132.000,2755.4781,N,11639.1118,E,1,11,0.8,51.8,M,7.5,M,,0000*55
$GPGSA,A,3,02,04,08,10,11,17,20,24,27,28,32,,1.4,0.8,1.1*3C
$GPRMC,005133.000,A,2755.4797,N,11639.1271,E,49.1,84.1,150111,,,A*6F
$GPGGA,005133.000,2755.4797,N,11639.1271,E,1,11,0.8,52.6,M,7.5,M,,0000*52
$GPGSA,A,3,02,04,08,10,11,17,20,24,27,28,32,,1.4,0.8,1.1*3C
$GPRMC,005134.000,A,2755.4812,N,11639.1422,E,47.7,83.5,150111,,,A*61
$GPGGA,005134.000,2755.4812,N,11639.1422,E,1,11,0.8,53.5,M,7.5,M,,0000*55
$GPGSA,A,3,02,04,08,10,11,17,20,24,27,28,32,,1.4,0.8,1.1*3C
$GPRMC,005135.000,A,2755.4826,N,11639.1573,E,47.9,84.9,150111,,,A*67
$GPGGA,005135.000,2755.4826,N,11639.1573,E,1,11,0.8,54.6,M,7.5,M,,0000*52
$GPGSA,A,3,02,04,08,10,11,17,20,24,27,28,32,,1.4,0.8,1.1*3C
$GPGSV,3,1,11,28,77,178,21,20,46,069,33,17,53,344,31,11,18,056,29*73
$GPGSV,3,2,11,24,16,046,30,08,13,199,16,32,21,048,31,04,38,254,19*7C
$GPGSV,3,3,11,02,09,244,24,27,08,302,22,10,09,196,19*44
$GPRMC,005136.000,A,2755.4838,N,11639.1723,E,47.7,84.1,150111,,,A*6A
$GPGGA,005136.000,2755.4838,N,11639.1723,E,1,11,0.8,55.5,M,7.5,M,,0000*5B
$GPGSA,A,3,02,04,08,10,11,17,20,24,27,28,32,,1.4,0.8,1.1*3C
$GPRMC,005137.000,A,2755.4850,N,11639.1872,E,47.2,85.7,150111,,,A*6C
$GPGGA,005137.000,2755.4850,N,11639.1872,E,1,11,0.8,56.1,M,7.5,M,,0000*58
$GPGSA,A,3,02,04,08,10,11,17,20,24,27,28,32,,1.4,0.8,1.1*3C
$GPRMC,005138.000,A,2755.4860,N,11639.2018,E,46.9,84.7,150111,,,A*6C
$GPGGA,005138.000,2755.4860,N,11639.2018,E,1,11,0.8,56.6,M,7.5,M,,0000*54
$GPGSA,A,3,02,04,08,10,11,17,20,24,27,28,32,,1.4,0.8,1.1*3C
$GPRMC,005139.000,A,2755.4872,N,11639.2163,E,46.0,85.3,150111,,,A*6F
$GPGGA,005139.000,2755.4872,N,11639.2163,E,1,11,0.8,56.7,M,7.5,M,,0000*5A
$GPGSA,A,3,02,04,08,10,11,17,20,24,27,28,32,,1.4,0.8,1.1*3C
$GPRMC,005140.000,A,2755.4882,N,11639.2307,E,46.0,86.6,150111,,,A*68
$GPGGA,005140.000,2755.4882,N,11639.2307,E,1,11,0.8,57.2,M,7.5,M,,0000*5F
$GPGSA,A,3,02,04,08,10,11,17,20,24,27,28,32,,1.4,0.8,1.1*3C
$GPGSV,3,1,11,28,77,178,20,20,46,069,37,17,53,344,29,11,18,056,30*77
$GPGSV,3,2,11,24,16,046,30,08,13,199,21,32,21,048,35,04,38,255,21*76
$GPGSV,3,3,11,02,09,244,24,27,08,302,20,10,09,196,23*4F
$GPRMC,005141.000,A,2755.4886,N,11639.2454,E,47.2,89.2,150111,,,A*64
$GPGGA,005141.000,2755.4886,N,11639.2454,E,1,11,0.8,58.3,M,7.5,M,,0000*55
$GPGSA,A,3,02,04,08,10,11,17,20,24,27,28,32,,1.4,0.8,1.1*3C
$GPRMC,005142.000,A,2755.4883,N,11639.2605,E,48.1,91.7,150111,,,A*64
$GPGGA,005142.000,2755.4883,N,11639.2605,E,1,11,0.8,59.6,M,7.5,M,,0000*51
$GPGSA,A,3,02,04,08,10,11,17,20,24,27,28,32,,1.4,0.8,1.1*3C
$GPRMC,005143.000,A,2755.4878,N,11639.2755,E,47.4,92.9,150111,,,A*62
$GPGGA,005143.000,2755.4878,N,11639.2755,E,1,11,0.8,60.4,M,7.5,M,,0000*58
$GPGSA,A,3,02,04,08,10,11,17,20,24,27,28,32,,1.4,0.8,1.1*3C
$GPRMC,005144.000,A,2755.4870,N,11639.2902,E,47.0,93.4,150111,,,A*69
$GPGGA,005144.000,2755.4870,N,11639.2902,E,1,11,0.8,60.7,M,7.5,M,,0000*58
$GPGSA,A,3,02,04,08,10,11,17,20,24,27,28,32,,1.4,0.8,1.1*3C
$GPRMC,005145.000,A,2755.4864,N,11639.3052,E,47.8,94.2,150111,,,A*69
$GPGGA,005145.000,2755.4864,N,11639.3052,E,1,11,0.8,61.4,M,7.5,M,,0000*53
$GPGSA,A,3,02,04,08,10,11,17,20,24,27,28,32,,1.4,0.8,1.1*3C
$GPGSV,3,1,11,28,77,178,18,20,46,068,38,17,53,344,22,11,18,056,31*78
$GPGSV,3,2,11,24,16,046,23,08,13,199,22,32,21,048,31,04,38,255,23*71
$GPGSV,3,3,11,02,09,244,22,27,08,302,20,10,10,196,23*41
$GPRMC,005146.000,A,2755.4866,N,11639.3202,E,46.0,93.3,150111,,,A*60
$GPGGA,005146.000,2755.4866,N,11639.3202,E,1,11,0.8,63.8,M,7.5,M,,0000*5B
$GPGSA,A,3,02,04,08,10,11,17,20,24,27,28,32,,1.4,0.8,1.1*3C
$GPRMC,005147.000,A,2755.4857,N,11639.3348,E,46.7,93.9,150111,,,A*61
$GPGGA,005147.000,2755.4857,N,11639.3348,E,1,11,0.8,64.8,M,7.5,M,,0000*50
$GPGSA,A,3,02,04,08,10,11,17,20,24,27,28,32,,1.4,0.8,1.1*3C
$GPRMC,005148.000,A,2755.4848,N,11639.3494,E,46.6,92.9,150111,,,A*66
$GPGGA,005148.000,2755.4848,N,11639.3494,E,1,11,0.8,65.1,M,7.5,M,,0000*5F
$GPGSA,A,3,02,04,08,10,11,17,20,24,27,28,32,,1.4,0.8,1.1*3C
$GPRMC,005149.000,A,2755.4840,N,11639.3638,E,45.5,94.1,150111,,,A*65
$GPGGA,005149.000,2755.4840,N,11639.3638,E,1,11,0.8,65.5,M,7.5,M,,0000*56
$GPGSA,A,3,02,04,08,10,11,17,20,24,27,28,32,,1.4,0.8,1.1*3C
$GPRMC,005150.000,A,2755.4831,N,11639.3779,E,44.1,94.5,150111,,,A*6E
$GPGGA,005150.000,2755.4831,N,11639.3779,E,1,11,0.8,66.3,M,7.5,M,,0000*59
$GPGSA,A,3,02,04,08,10,11,17,20,24,27,28,32,,1.4,0.8,1.1*3C
$GPGSV,3,1,11,28,77,178,15,20,46,068,36,17,53,344,24,11,18,056,29*74
$GPGSV,3,2,11,24,16,046,23,08,13,199,28,32,21,048,29,04,38,255,29*78
$GPGSV,3,3,11,02,09,244,19,27,08,302,21,10,10,196,30*4A
$GPRMC,005151.000,A,2755.4824,N,11639.3917,E,42.6,93.3,150111,,,A*6D
$GPGGA,005151.000,2755.4824,N,11639.3917,E,1,11,0.8,66.9,M,7.5,M,,0000*50
$GPGSA,A,3,02,04,08,10,11,17,20,24,27,28,32,,1.4,0.8,1.1*3C
$GPRMC,005152.000,A,2755.4820,N,11639.4047,E,40.9,92.8,150111,,,A*66
$GPGGA,005152.000,2755.4820,N,11639.4047,E,1,10,0.9,66.7,M,7.5,M,,0000*52
$GPGSA,A,3,02,04,10,11,17,20,24,27,28,32,,,1.4,0.9,1.1*35
$GPRMC,005153.000,A,2755.4816,N,11639.4176,E,41.2,92.7,150111,,,A*64
$GPGGA,005153.000,2755.4816,N,11639.4176,E,1,11,0.8,67.3,M,7.5,M,,0000*50
$GPGSA,A,3,02,04,08,10,11,17,20,24,27,28,32,,1.4,0.8,1.1*3C
$GPRMC,005154.000,A,2755.4818,N,11639.4302,E,39.7,86.4,150111,,,A*60
$GPGGA,005154.000,2755.4818,N,11639.4302,E,1,10,0.9,67.4,M,7.5,M,,0000*5F
$GPGSA,A,3,02,04,08,11,17,20,24,27,28,32,,,1.4,0.9,1.1*3C
$GPRMC,005155.000,A,2755.4828,N,11639.4428,E,38.9,82.3,150111,,,A*61
$GPGGA,005155.000,2755.4828,N,11639.4428,E,1,10,0.8,67.5,M,7.5,M,,0000*52
$GPGSA,A,3,02,08,10,11,17,20,24,27,28,32,,,1.4,0.8,1.1*38
$GPGSV,3,1,11,28,77,178,18,20,46,068,37,17,53,344,35,11,18,056,33*73
$GPGSV,3,2,11,24,16,046,26,08,13,199,18,32,21,048,29,04,38,255,21*76
$GPGSV,3,3,11,02,09,244,23,27,08,302,21,10,10,196,17*46
$GPRMC,005156.000,A,2755.4845,N,11639.4546,E,37.6,77.2,150111,,,A*6B
$GPGGA,005156.000,2755.4845,N,11639.4546,E,1,11,0.8,67.4,M,7.5,M,,0000*53
$GPGSA,A,3,02,04,08,10,11,17,20,24,27,28,32,,1.4,0.8,1.1*3C
$GPRMC,005157.000,A,2755.4873,N,11639.4655,E,36.4,71.9,150111,,,A*60
$GPGGA,005157.000,2755.4873,N,11639.4655,E,1,10,1.1,67.1,M,7.5,M,,0000*5A
$GPGSA,A,3,02,04,08,10,11,17,20,24,28,32,,,1.6,1.1,1.2*30
$GPRMC,005158.000,A,2755.4906,N,11639.4761,E,35.7,68.0,150111,,,A*6B
$GPGGA,005158.000,2755.4906,N,11639.4761,E,1,10,1.1,66.6,M,7.5,M,,0000*56
$GPGSA,A,3,02,04,08,10,11,17,20,24,28,32,,,1.6,1.1,1.2*30
$GPRMC,005159.000,A,2755.4947,N,11639.4867,E,37.0,68.4,150111,,,A*67
$GPGGA,005159.000,2755.4947,N,11639.4867,E,1,08,1.6,67.7,M,7.5,M,,0000*55
$GPGSA,A,3,02,04,11,17,20,24,28,32,,,,,2.1,1.6,1.3*3B
$GPRMC,005200.000,A,2755.4989,N,11639.4973,E,37.8,67.1,150111,,,A*6C
$GPGGA,005200.000,2755.4989,N,11639.4973,E,1,08,1.6,68.1,M,7.5,M,,0000*55
$GPGSA,A,3,02,04,11,17,20,24,28,32,,,,,2.1,1.6,1.3*3B
$GPGSV,3,1,11,28,77,178,22,20,46,068,36,17,53,344,39,11,18,056,33*77
$GPGSV,3,2,11,24,16,046,33,32,21,048,34,04,38,255,31,02,09,244,24*72
$GPGSV,3,3,11,08,13,199,,10,10,196,,27,08,302,*40
$GPRMC,005201.000,A,2755.5030,N,11639.5082,E,37.6,67.5,150111,,,A*6B
$GPGGA,005201.000,2755.5030,N,11639.5082,E,1,08,1.6,68.1,M,7.5,M,,0000*58
$GPGSA,A,3,02,04,11,17,20,24,28,32,,,,,2.1,1.6,1.3*3B
$GPRMC,005202.000,A,2755.5073,N,11639.5188,E,36.3,65.9,150111,,,A*6E
$GPGGA,005202.000,2755.5073,N,11639.5188,E,1,08,1.6,67.7,M,7.5,M,,0000*5E
$GPGSA,A,3,02,04,11,17,20,24,28,32,,,,,2.1,1.6,1.3*3B
$GPRMC,005203.000,A,2755.5116,N,11639.5284,E,32.8,61.8,150111,,,A*68
$GPGGA,005203.000,2755.5116,N,11639.5284,E,1,09,1.2,67.6,M,7.5,M,,0000*56
$GPGSA,A,3,02,04,11,17,20,24,27,28,32,,,,1.7,1.2,1.2*3E
$GPRMC,005204.000,A,2755.5157,N,11639.5367,E,28.7,60.5,150111,,,A*6E
$GPGGA,005204.000,2755.5157,N,11639.5367,E,1,08,1.6,66.2,M,7.5,M,,0000*58
$GPGSA,A,3,02,04,11,17,20,24,28,32,,,,,2.1,1.6,1.3*3B
$GPRMC,005205.000,A,2755.5191,N,11639.5441,E,24.9,63.5,150111,,,A*67
$GPGGA,005205.000,2755.5191,N,11639.5441,E,1,08,1.7,65.3,M,7.5,M,,0000*53
$GPGSA,A,3,04,11,17,20,24,27,28,32,,,,,2.4,1.7,1.7*3C
$GPGSV,3,1,11,28,77,178,20,20,46,068,37,17,53,344,37,11,18,056,33*7A
$GPGSV,3,2,11,24,16,046,30,32,21,048,32,04,38,255,30,27,08,302,15*71
$GPGSV,3,3,11,10,10,196,15,08,13,199,,02,09,244,*41
$GPRMC,005206.000,A,2755.5219,N,11639.5512,E,24.4,68.6,150111,,,A*65
$GPGGA,005206.000,2755.5219,N,11639.5512,E,1,09,0.9,65.1,M,7.5,M,,0000*58
$GPGSA,A,3,04,10,11,17,20,24,27,28,32,,,,1.4,0.9,1.1*37
$GPRMC,005207.000,A,2755.5246,N,11639.5586,E,25.6,68.5,150111,,,A*63
$GPGGA,005207.000,2755.5246,N,11639.5586,E,1,10,1.1,65.9,M,7.5,M,,0000*57
$GPGSA,A,3,02,04,08,10,11,17,20,24,28,32,,,1.6,1.1,1.2*30
$GPRMC,005208.000,A,2755.5280,N,11639.5664,E,27.2,68.0,150111,,,A*6A
$GPGGA,005208.000,2755.5280,N,11639.5664,E,1,10,1.1,67.6,M,7.5,M,,0000*50
$GPGSA,A,3,02,04,08,10,11,17,20,24,28,32,,,1.6,1.1,1.2*30
$GPRMC,005209.000,A,2755.5310,N,11639.5745,E,28.9,67.5,150111,,,A*6F
$GPGGA,005209.000,2755.5310,N,11639.5745,E,1,10,1.1,68.3,M,7.5,M,,0000*51
$GPGSA,A,3,02,04,08,10,11,17,20,24,28,32,,,1.6,1.1,1.2*30
$GPRMC,005210.000,A,2755.5342,N,11639.5832,E,30.7,66.3,150111,,,A*6F
$GPGGA,005210.000,2755.5342,N,11639.5832,E,1,10,1.1,69.0,M,7.5,M,,0000*53
$GPGSA,A,3,02,04,08,10,11,17,20,24,28,32,,,1.6,1.1,1.2*30
$GPGSV,3,1,11,28,77,178,25,20,46,068,37,17,53,344,39,11,18,056,32*70
$GPGSV,3,2,11,24,16,046,31,08,13,199,15,32,21,048,33,04,38,255,30*76
$GPGSV,3,3,11,02,09,244,22,10,10,196,16,27,08,302,*45
$GPRMC,005211.000,A,2755.5375,N,11639.5920,E,30.7,66.7,150111,,,A*6C
$GPGGA,005211.000,2755.5375,N,11639.5920,E,1,10,1.1,69.7,M,7.5,M,,0000*53
$GPGSA,A,3,02,04,08,10,11,17,20,24,28,32,,,1.6,1.1,1.2*30
$GPRMC,005212.000,A,2755.5408,N,11639.6007,E,30.0,67.1,150111,,,A*6D
$GPGGA,005212.000,2755.5408,N,11639.6007,E,1,10,1.1,69.5,M,7.5,M,,0000*50
$GPGSA,A,3,02,04,08,10,11,17,20,24,28,32,,,1.6,1.1,1.2*30
$GPRMC,005213.000,A,2755.5441,N,11639.6095,E,30.8,68.9,150111,,,A*65
$GPGGA,005213.000,2755.5441,N,11639.6095,E,1,10,1.1,69.8,M,7.5,M,,0000*5A
$GPGSA,A,3,02,04,08,10,11,17,20,24,28,32,,,1.6,1.1,1.2*30
$GPRMC,005214.000,A,2755.5471,N,11639.6183,E,29.9,69.0,150111,,,A*66
$GPGGA,005214.000,2755.5471,N,11639.6183,E,1,10,1.1,69.7,M,7.5,M,,0000*57
$GPGSA,A,3,02,04,08,10,11,17,20,24,28,32,,,1.6,1.1,1.2*30
$GPRMC,005215.000,A,2755.5503,N,11639.6267,E,28.0,67.8,150111,,,A*64
$GPGGA,005215.000,2755.5503,N,11639.6267,E,1,11,0.8,69.6,M,7.5,M,,0000*53
$GPGSA,A,3,02,04,08,10,11,17,20,24,27,28,32,,1.4,0.8,1.1*3C
$GPGSV,3,1,11,28,77,178,22,20,46,068,38,17,53,344,35,11,18,056,35*73
$GPGSV,3,2,11,24,16,046,34,08,13,199,16,32,21,048,33,04,38,255,31*71
$GPGSV,3,3,11,02,09,244,22,27,08,302,,10,10,196,15*46
$GPRMC,005216.000,A,2755.5528,N,11639.6342,E,24.3,69.8,150111,,,A*69
$GPGGA,005216.000,2755.5528,N,11639.6342,E,1,10,1.1,70.1,M,7.5,M,,0000*59
$GPGSA,A,3,02,04,08,10,11,17,20,24,28,32,,,1.6,1.1,1.2*30
$GPRMC,005217.000,A,2755.5545,N,11639.6419,E,27.2,76.9,150111,,,A*67
$GPGGA,005217.000,2755.5545,N,11639.6419,E,1,11,0.8,70.4,M,7.5,M,,0000*56
$GPGSA,A,3,02,04,08,10,11,17,20,24,27,28,32,,1.4,0.8,1.1*3C
$GPRMC,005218.000,A,2755.5560,N,11639.6506,E,29.4,80.5,150111,,,A*6D
$GPGGA,005218.000,2755.5560,N,11639.6506,E,1,11,0.8,69.8,M,7.5,M,,0000*55
$GPGSA,A,3,02,04,08,10,11,17,20,24,27,28,32,,1.4,0.8,1.1*3C
$GPRMC,005219.000,A,2755.5579,N,11639.6601,E,31.7,77.1,150111,,,A*66
$GPGGA,005219.000,2755.5579,N,11639.6601,E,1,10,1.1,69.2,M,7.5,M,,0000*5B
$GPGSA,A,3,02,04,08,10,11,17,20,24,28,32,,,1.6,1.1,1.2*30
$GPRMC,005220.000,A,2755.5599,N,11639.6696,E,30.8,77.0,150111,,,A*63
$GPGGA,005220.000,2755.5599,N,11639.6696,E,1,10,1.1,68.4,M,7.5,M,,0000*56
$GPGSA,A,3,02,04,08,10,11,17,20,24,28,32,,,1.6,1.1,1.2*30
$GPGSV,3,1,11,28,77,178,22,20,46,068,39,17,53,345,33,11,18,056,33*73
$GPGSV,3,2,11,24,16,046,28,08,13,199,15,32,21,048,31,04,38,255,29*74
$GPGSV,3,3,11,02,09,244,29,27,08,301,,10,10,196,14*4F
$GPRMC,005221.000,A,2755.5620,N,11639.6790,E,30.6,76.2,150111,,,A*69
$GPGGA,005221.000,2755.5620,N,11639.6790,E,1,10,1.1,68.0,M,7.5,M,,0000*55
$GPGSA,A,3,02,04,08,10,11,17,20,24,28,32,,,1.6,1.1,1.2*30
$GPRMC,005222.000,A,2755.5638,N,11639.6878,E,27.2,77.7,150111,,,A*6C
$GPGGA,005222.000,2755.5638,N,11639.6878,E,1,11,0.8,68.7,M,7.5,M,,0000*58
$GPGSA,A,3,02,04,08,10,11,17,20,24,27,28,32,,1.4,0.8,1.1*3C
$GPRMC,005223.000,A,2755.5653,N,11639.6956,E,22.9,79.8,150111,,,A*62
$GPGGA,005223.000,2755.5653,N,11639.6956,E,1,10,0.8,69.4,M,7.5,M,,0000*5A
$GPGSA,A,3,04,08,10,11,17,20,24,27,28,32,,,1.4,0.8,1.1*3E
$GPRMC,005224.000,A,2755.5665,N,11639.7032,E,25.8,79.9,150111,,,A*6D
$GPGGA,005224.000,2755.5665,N,11639.7032,E,1,09,1.3,70.3,M,7.5,M,,0000*5F
$GPGSA,A,3,04,08,10,11,17,20,24,28,32,,,,1.9,1.3,1.4*39
$GPRMC,005225.000,A,2755.5679,N,11639.7117,E,29.2,76.2,150111,,,A*65
$GPGGA,005225.000,2755.5679,N,11639.7117,E,1,10,1.1,69.8,M,7.5,M,,0000*5C
$GPGSA,A,3,02,04,08,10,11,17,20,24,28,32,,,1.6,1.1,1.2*30
$GPGSV,3,1,11,28,77,178,20,20,46,068,39,17,53,345,34,11,18,056,31*74
$GPGSV,3,2,11,24,16,046,27,08,13,199,16,32,21,048,29,04,38,255,30*79
$GPGSV,3,3,11,02,09,244,25,27,08,301,22,10,10,196,13*44
$GPRMC,005226.000,A,2755.5694,N,11639.7202,E,28.0,76.9,150111,,,A*6A
$GPGGA,005226.000,2755.5694,N,11639.7202,E,1,10,1.1,69.0,M,7.5,M,,0000*53
$GPGSA,A,3,02,04,08,10,11,17,20,24,28,32,,,1.6,1.1,1.2*30
$GPRMC,005227.000,A,2755.5710,N,11639.7290,E,29.6,78.3,150111,,,A*6E
$GPGGA,005227.000,2755.5710,N,11639.7290,E,1,10,1.1,68.5,M,7.5,M,,0000*50
$GPGSA,A,3,02,04,08,10,11,17,20,24,28,32,,,1.6,1.1,1.2*30
$GPRMC,005228.000,A,2755.5729,N,11639.7382,E,30.7,77.3,150111,,,A*6F
$GPGGA,005228.000,2755.5729,N,11639.7382,E,1,10,1.1,67.8,M,7.5,M,,0000*55
$GPGSA,A,3,02,04,08,10,11,17,20,24,28,32,,,1.6,1.1,1.2*30
$GPRMC,005229.000,A,2755.5745,N,11639.7476,E,32.0,76.0,150111,,,A*6F
$GPGGA,005229.000,2755.5745,N,11639.7476,E,1,10,1.1,66.2,M,7.5,M,,0000*59
$GPGSA,A,3,02,04,08,10,11,17,20,24,28,32,,,1.6,1.1,1.2*30
$GPRMC,005230.000,A,2755.5769,N,11639.7572,E,30.6,76.6,150111,,,A*6E
$GPGGA,005230.000,2755.5769,N,11639.7572,E,1,10,1.1,66.8,M,7.5,M,,0000*50
$GPGSA,A,3,02,04,08,10,11,17,20,24,28,32,,,1.6,1.1,1.2*30
$GPGSV,3,1,11,28,76,178,22,20,46,068,39,17,53,345,32,11,18,056,33*73
$GPGSV,3,2,11,24,16,046,28,08,13,199,15,32,21,048,29,04,38,255,28*7C
$GPGSV,3,3,11,02,09,244,25,27,08,301,18,10,10,196,12*4C
$GPRMC,005231.000,A,2755.5789,N,11639.7668,E,32.0,78.5,150111,,,A*60
$GPGGA,005231.000,2755.5789,N,11639.7668,E,1,10,0.8,66.2,M,7.5,M,,0000*55
$GPGSA,A,3,04,08,10,11,17,20,24,27,28,32,,,1.4,0.8,1.1*3E
$GPRMC,005232.000,A,2755.5805,N,11639.7771,E,34.3,81.2,150111,,,A*65
$GPGGA,005232.000,2755.5805,N,11639.7771,E,1,10,0.8,65.5,M,7.5,M,,0000*50
$GPGSA,A,3,04,08,10,11,17,20,24,27,28,32,,,1.4,0.8,1.1*3E
$GPRMC,005233.000,A,2755.5817,N,11639.7881,E,36.1,85.3,150111,,,A*62
$GPGGA,005233.000,2755.5817,N,11639.7881,E,1,10,0.8,64.9,M,7.5,M,,0000*5F
$GPGSA,A,3,04,08,10,11,17,20,24,27,28,32,,,1.4,0.8,1.1*3E
$GPRMC,005234.000,A,2755.5823,N,11639.7997,E,37.8,88.0,150111,,,A*62
$GPGGA,005234.000,2755.5823,N,11639.7997,E,1,10,0.8,64.2,M,7.5,M,,0000*52
$GPGSA,A,3,04,08,10,11,17,20,24,27,28,32,,,1.4,0.8,1.1*3E
