$GPRMC,030828,A,3943.425000,N,11619.195800,E,1.080,0.0,061118,,,A*72
$GPGGA,030828,3943.425000,N,11619.195800,E,1,5,1.0,0.0,M,0.0,M,,*42
$GPRMC,030919,A,3943.431600,N,11619.207200,E,1.620,0.0,061118,,,A*7C
$GPGGA,030919,3943.431600,N,11619.207200,E,1,4,1.0,0.0,M,0.0,M,,*41
$GPRMC,030924,A,3943.431600,N,11619.192800,E,3.078,299.8,061118,,,A*74
$GPGGA,030924,3943.431600,N,11619.192800,E,1,3,1.0,165.6,M,0.0,M,,*49
$GPRMC,030929,A,3943.431600,N,11619.188000,E,2.808,283.5,061118,,,A*72
$GPGGA,030929,3943.431600,N,11619.188000,E,1,4,1.0,168.3,M,0.0,M,,*48
$GPRMC,030934,A,3943.428600,N,11619.198200,E,0.162,283.5,061118,,,A*72
$GPGGA,030934,3943.428600,N,11619.198200,E,1,4,1.0,166.8,M,0.0,M,,*4A
$GPRMC,030939,A,3943.427400,N,11619.205400,E,0.486,283.5,061118,,,A*7C
$GPGGA,030939,3943.427400,N,11619.205400,E,1,4,1.0,165.6,M,0.0,M,,*46
$GPRMC,030944,A,3943.426800,N,11619.210800,E,1.458,283.5,061118,,,A*71
$GPGGA,030944,3943.426800,N,11619.210800,E,1,4,1.0,164.8,M,0.0,M,,*46
$GPRMC,030949,A,3943.426800,N,11619.211400,E,0.594,283.5,061118,,,A*71
$GPGGA,030949,3943.426800,N,11619.211400,E,1,4,1.0,163.9,M,0.0,M,,*40
$GPRMC,030954,A,3943.426800,N,11619.209000,E,0.486,283.5,061118,,,A*72
$GPGGA,030954,3943.426800,N,11619.209000,E,1,4,1.0,163.2,M,0.0,M,,*4A
$GPRMC,030959,A,3943.427400,N,11619.212600,E,0.756,283.5,061118,,,A*70
$GPGGA,030959,3943.427400,N,11619.212600,E,1,4,1.0,162.5,M,0.0,M,,*40
$GPRMC,031004,A,3943.427400,N,11619.216800,E,0.972,283.5,061118,,,A*72
$GPGGA,031004,3943.427400,N,11619.216800,E,1,4,1.0,161.9,M,0.0,M,,*45
$GPRMC,031009,A,3943.426200,N,11619.217400,E,0.378,283.5,061118,,,A*75
$GPGGA,031009,3943.426200,N,11619.217400,E,1,4,1.0,161.2,M,0.0,M,,*49
$GPRMC,031014,A,3943.426200,N,11619.219200,E,0.486,283.5,061118,,,A*77
$GPGGA,031014,3943.426200,N,11619.219200,E,1,3,1.0,161.1,M,0.0,M,,*49
$GPRMC,031019,A,3943.426200,N,11619.221600,E,0.594,283.5,061118,,,A*77
$GPGGA,031019,3943.426200,N,11619.221600,E,1,4,1.0,160.9,M,0.0,M,,*45
$GPRMC,031024,A,3943.425000,N,11619.218000,E,1.350,283.5,061118,,,A*7B
$GPGGA,031024,3943.425000,N,11619.218000,E,1,4,1.0,160.8,M,0.0,M,,*47
$GPRMC,031029,A,3943.424400,N,11619.213200,E,3.024,267.1,061118,,,A*76
$GPGGA,031029,3943.424400,N,11619.213200,E,1,4,1.0,160.7,M,0.0,M,,*49
$GPRMC,031034,A,3943.422600,N,11619.203000,E,5.994,256.0,061118,,,A*7A
$GPGGA,031034,3943.422600,N,11619.203000,E,1,0,1.0,160.7,M,0.0,M,,*46
$GPRMC,031039,A,3943.420200,N,11619.191600,E,5.184,254.3,061118,,,A*77
$GPGGA,031039,3943.420200,N,11619.191600,E,1,4,1.0,160.8,M,0.0,M,,*48
$GPRMC,031044,A,3943.421400,N,11619.197600,E,1.728,256.0,061118,,,A*79
$GPGGA,031044,3943.421400,N,11619.197600,E,1,4,1.0,160.8,M,0.0,M,,*43
$GPRMC,031049,A,3943.420800,N,11619.196400,E,0.810,256.0,061118,,,A*7F
$GPGGA,031049,3943.420800,N,11619.196400,E,1,4,1.0,160.9,M,0.0,M,,*41
$GPRMC,031054,A,3943.421400,N,11619.198200,E,0.270,256.0,061118,,,A*7A
$GPGGA,031054,3943.421400,N,11619.198200,E,1,4,1.0,161.0,M,0.0,M,,*40
$GPRMC,031059,A,3943.421400,N,11619.203000,E,1.242,256.0,061118,,,A*74
$GPGGA,031059,3943.421400,N,11619.203000,E,1,4,1.0,161.0,M,0.0,M,,*4E
$GPRMC,031104,A,3943.421400,N,11619.204800,E,0.432,256.0,061118,,,A*72
$GPGGA,031104,3943.421400,N,11619.204800,E,1,3,1.0,161.0,M,0.0,M,,*4F
$GPRMC,031109,A,3943.422000,N,11619.206000,E,0.216,256.0,061118,,,A*72
$GPGGA,031109,3943.422000,N,11619.206000,E,1,4,1.0,161.0,M,0.0,M,,*48
$GPRMC,031114,A,3943.422600,N,11619.207200,E,0.162,256.0,061118,,,A*7B
$GPGGA,031114,3943.422600,N,11619.207200,E,1,4,1.0,161.0,M,0.0,M,,*41
$GPRMC,031119,A,3943.422600,N,11619.209000,E,0.108,256.0,061118,,,A*76
$GPGGA,031119,3943.422600,N,11619.209000,E,1,4,1.0,161.0,M,0.0,M,,*40
$GPRMC,031124,A,3943.423200,N,11619.212000,E,0.540,256.0,061118,,,A*7F
$GPGGA,031124,3943.423200,N,11619.212000,E,1,4,1.0,161.1,M,0.0,M,,*40
$GPRMC,031129,A,3943.423800,N,11619.213200,E,0.108,256.0,061118,,,A*73
$GPGGA,031129,3943.423800,N,11619.213200,E,1,4,1.0,161.1,M,0.0,M,,*44
$GPRMC,031134,A,3943.423800,N,11619.213200,E,0.108,256.0,061118,,,A*7F
$GPGGA,031134,3943.423800,N,11619.213200,E,1,4,1.0,161.1,M,0.0,M,,*48
$GPRMC,031139,A,3943.425000,N,11619.211400,E,0.162,256.0,061118,,,A*74
$GPGGA,031139,3943.425000,N,11619.211400,E,1,4,1.0,161.0,M,0.0,M,,*4E
$GPRMC,031144,A,3943.425600,N,11619.209600,E,0.000,256.0,061118,,,A*76
$GPGGA,031144,3943.425600,N,11619.209600,E,1,4,1.0,161.0,M,0.0,M,,*49
$GPRMC,031150,A,3943.426200,N,11619.209000,E,0.054,256.0,061118,,,A*73
$GPGGA,031150,3943.426200,N,11619.209000,E,1,4,1.0,161.0,M,0.0,M,,*4D
$GPRMC,031155,A,3943.426800,N,11619.209000,E,0.162,256.0,061118,,,A*78
$GPGGA,031155,3943.426800,N,11619.209000,E,1,4,1.0,160.9,M,0.0,M,,*4A
$GPRMC,031200,A,3943.428000,N,11619.209600,E,0.216,256.0,061118,,,A*7B
$GPGGA,031200,3943.428000,N,11619.209600,E,1,4,1.0,160.9,M,0.0,M,,*49
$GPRMC,031205,A,3943.428000,N,11619.210200,E,0.054,256.0,061118,,,A*76
$GPGGA,031205,3943.428000,N,11619.210200,E,1,4,1.0,160.8,M,0.0,M,,*41
$GPRMC,031210,A,3943.428600,N,11619.210200,E,0.000,256.0,061118,,,A*75
$GPGGA,031210,3943.428600,N,11619.210200,E,1,4,1.0,160.7,M,0.0,M,,*4C
$GPRMC,031215,A,3943.428600,N,11619.209600,E,0.162,256.0,061118,,,A*79
$GPGGA,031215,3943.428600,N,11619.209600,E,1,4,1.0,160.7,M,0.0,M,,*45
$GPRMC,031220,A,3943.428600,N,11619.209000,E,0.216,256.0,061118,,,A*79
$GPGGA,031220,3943.428600,N,11619.209000,E,1,4,1.0,160.5,M,0.0,M,,*47
$GPRMC,031225,A,3943.429200,N,11619.207200,E,0.540,256.0,061118,,,A*71
$GPGGA,031225,3943.429200,N,11619.207200,E,1,4,1.0,160.2,M,0.0,M,,*4C
$GPRMC,031230,A,3943.429800,N,11619.204800,E,1.134,256.0,061118,,,A*70
$GPGGA,031230,3943.429800,N,11619.204800,E,1,3,1.0,160.4,M,0.0,M,,*4A
$GPRMC,031235,A,3943.429800,N,11619.204800,E,1.026,256.0,061118,,,A*77
$GPGGA,031235,3943.429800,N,11619.204800,E,1,3,1.0,160.1,M,0.0,M,,*4A
$GPRMC,031240,A,3943.429800,N,11619.205400,E,0.972,256.0,061118,,,A*71
$GPGGA,031240,3943.429800,N,11619.205400,E,1,3,1.0,160.0,M,0.0,M,,*44
$GPRMC,031245,A,3943.429800,N,11619.206000,E,0.270,256.0,061118,,,A*7A
$GPGGA,031245,3943.429800,N,11619.206000,E,1,0,1.0,160.0,M,0.0,M,,*45
$GPRMC,031250,A,3943.429200,N,11619.198800,E,2.160,256.0,061118,,,A*78
$GPGGA,031250,3943.429200,N,11619.198800,E,1,4,1.0,159.9,M,0.0,M,,*40
$GPRMC,031255,A,3943.431000,N,11619.195800,E,1.350,256.0,061118,,,A*79
$GPGGA,031255,3943.431000,N,11619.195800,E,1,4,1.0,159.9,M,0.0,M,,*43
$GPRMC,031300,A,3943.432200,N,11619.192800,E,1.674,256.0,061118,,,A*7D
$GPGGA,031300,3943.432200,N,11619.192800,E,1,4,1.0,159.9,M,0.0,M,,*44
$GPRMC,031305,A,3943.433400,N,11619.191000,E,1.404,256.0,061118,,,A*71
$GPGGA,031305,3943.433400,N,11619.191000,E,1,4,1.0,159.9,M,0.0,M,,*4D
$GPRMC,031310,A,3943.432800,N,11619.192200,E,0.702,256.0,061118,,,A*7D
$GPGGA,031310,3943.432800,N,11619.192200,E,1,4,1.0,159.8,M,0.0,M,,*44
$GPRMC,031315,A,3943.433400,N,11619.189800,E,1.782,256.0,061118,,,A*7C
$GPGGA,031315,3943.433400,N,11619.189800,E,1,4,1.0,159.8,M,0.0,M,,*4C
$GPRMC,031320,A,3943.434000,N,11619.191600,E,1.134,256.0,061118,,,A*75
$GPGGA,031320,3943.434000,N,11619.191600,E,1,4,1.0,159.8,M,0.0,M,,*4E
$GPRMC,031325,A,3943.434000,N,11619.185600,E,3.078,256.0,061118,,,A*7E
$GPGGA,031325,3943.434000,N,11619.185600,E,1,0,1.0,159.8,M,0.0,M,,*4A
$GPRMC,031332,A,3943.431000,N,11619.182000,E,2.268,256.0,061118,,,A*7E
$GPGGA,031332,3943.431000,N,11619.182000,E,1,0,1.0,159.8,M,0.0,M,,*48
$GPRMC,031337,A,3943.432800,N,11619.207200,E,1.944,256.0,061118,,,A*7A
$GPGGA,031337,3943.432800,N,11619.207200,E,1,3,1.0,159.8,M,0.0,M,,*49
$GPRMC,031342,A,3943.432800,N,11619.215600,E,1.458,256.0,061118,,,A*7F
$GPGGA,031342,3943.432800,N,11619.215600,E,1,4,1.0,159.8,M,0.0,M,,*4B
$GPRMC,031347,A,3943.432800,N,11619.216800,E,0.540,256.0,061118,,,A*7E
$GPGGA,031347,3943.432800,N,11619.216800,E,1,4,1.0,159.8,M,0.0,M,,*43
$GPRMC,031352,A,3943.433400,N,11619.219800,E,0.702,256.0,061118,,,A*7C
$GPGGA,031352,3943.433400,N,11619.219800,E,1,4,1.0,159.8,M,0.0,M,,*45
$GPRMC,031357,A,3943.433400,N,11619.221600,E,0.702,256.0,061118,,,A*7C
$GPGGA,031357,3943.433400,N,11619.221600,E,1,4,1.0,159.8,M,0.0,M,,*45
$GPRMC,031402,A,3943.433400,N,11619.221000,E,0.054,256.0,061118,,,A*79
$GPGGA,031402,3943.433400,N,11619.221000,E,1,4,1.0,159.8,M,0.0,M,,*44
$GPRMC,031407,A,3943.433400,N,11619.219200,E,0.216,256.0,061118,,,A*71
$GPGGA,031407,3943.433400,N,11619.219200,E,1,4,1.0,159.8,M,0.0,M,,*48
$GPRMC,031412,A,3943.433400,N,11619.218000,E,0.432,256.0,061118,,,A*76
$GPGGA,031412,3943.433400,N,11619.218000,E,1,4,1.0,159.7,M,0.0,M,,*40
$GPRMC,031417,A,3943.432800,N,11619.218000,E,0.486,256.0,061118,,,A*71
$GPGGA,031417,3943.432800,N,11619.218000,E,1,4,1.0,159.7,M,0.0,M,,*48
$GPRMC,031422,A,3943.432200,N,11619.216800,E,0.162,256.0,061118,,,A*74
$GPGGA,031422,3943.432200,N,11619.216800,E,1,4,1.0,159.7,M,0.0,M,,*42
$GPRMC,031427,A,3943.431600,N,11619.215000,E,0.270,256.0,061118,,,A*7D
$GPGGA,031427,3943.431600,N,11619.215000,E,1,4,1.0,159.7,M,0.0,M,,*4B
$GPRMC,031432,A,3943.431600,N,11619.215600,E,0.810,256.0,061118,,,A*73
$GPGGA,031432,3943.431600,N,11619.215600,E,1,4,1.0,159.7,M,0.0,M,,*49
$GPRMC,031437,A,3943.431000,N,11619.214400,E,0.162,256.0,061118,,,A*7F
$GPGGA,031437,3943.431000,N,11619.214400,E,1,4,1.0,159.6,M,0.0,M,,*48
$GPRMC,031442,A,3943.430400,N,11619.212000,E,0.594,256.0,061118,,,A*77
$GPGGA,031442,3943.430400,N,11619.212000,E,1,4,1.0,159.5,M,0.0,M,,*4E
$GPRMC,031447,A,3943.429800,N,11619.207200,E,1.998,256.0,061118,,,A*71
$GPGGA,031447,3943.429800,N,11619.207200,E,1,4,1.0,159.3,M,0.0,M,,*4F
$GPRMC,031452,A,3943.429800,N,11619.206000,E,0.918,256.0,061118,,,A*7F
$GPGGA,031452,3943.429800,N,11619.206000,E,1,4,1.0,158.9,M,0.0,M,,*43
$GPRMC,031457,A,3943.429800,N,11619.210200,E,1.026,256.0,061118,,,A*7A
$GPGGA,031457,3943.429800,N,11619.210200,E,1,4,1.0,158.7,M,0.0,M,,*4D
$GPRMC,031502,A,3943.428600,N,11619.208400,E,0.162,256.0,061118,,,A*7B
$GPGGA,031502,3943.428600,N,11619.208400,E,1,4,1.0,159.2,M,0.0,M,,*48
$GPRMC,031507,A,3943.428000,N,11619.198800,E,1.998,256.0,061118,,,A*72
$GPGGA,031507,3943.428000,N,11619.198800,E,1,4,1.0,159.1,M,0.0,M,,*4E
$GPRMC,031512,A,3943.427400,N,11619.191600,E,2.376,263.7,061118,,,A*72
$GPGGA,031512,3943.427400,N,11619.191600,E,1,4,1.0,158.9,M,0.0,M,,*4F
$GPRMC,031517,A,3943.426800,N,11619.191000,E,1.188,264.2,061118,,,A*7E
$GPGGA,031517,3943.426800,N,11619.191000,E,1,3,1.0,158.8,M,0.0,M,,*47
$GPRMC,031522,A,3943.426800,N,11619.188600,E,0.864,264.2,061118,,,A*7C
$GPGGA,031522,3943.426800,N,11619.188600,E,1,4,1.0,158.8,M,0.0,M,,*48
$GPRMC,031527,A,3943.428000,N,11619.188000,E,1.188,264.2,061118,,,A*73
$GPGGA,031527,3943.428000,N,11619.188000,E,1,4,1.0,158.8,M,0.0,M,,*4D
$GPRMC,031532,A,3943.429200,N,11619.179000,E,2.646,264.2,061118,,,A*7C
$GPGGA,031532,3943.429200,N,11619.179000,E,1,4,1.0,158.8,M,0.0,M,,*44
$GPRMC,031537,A,3943.428000,N,11619.177800,E,1.674,264.2,061118,,,A*7E
$GPGGA,031537,3943.428000,N,11619.177800,E,1,4,1.0,158.8,M,0.0,M,,*44
$GPRMC,031542,A,3943.428000,N,11619.186200,E,1.026,264.2,061118,,,A*79
$GPGGA,031542,3943.428000,N,11619.186200,E,1,4,1.0,158.8,M,0.0,M,,*42
$GPRMC,031547,A,3943.429800,N,11619.194000,E,2.430,264.2,061118,,,A*74
$GPGGA,031547,3943.429800,N,11619.194000,E,1,4,1.0,158.8,M,0.0,M,,*4F
$GPRMC,031552,A,3943.429800,N,11619.200600,E,1.566,264.2,061118,,,A*79
$GPGGA,031552,3943.429800,N,11619.200600,E,1,3,1.0,158.8,M,0.0,M,,*44
$GPRMC,031558,A,3943.428600,N,11619.205400,E,1.188,264.2,061118,,,A*7F
$GPGGA,031558,3943.428600,N,11619.205400,E,1,4,1.0,158.8,M,0.0,M,,*41
$GPRMC,031603,A,3943.426200,N,11619.205400,E,0.108,264.2,061118,,,A*71
$GPGGA,031603,3943.426200,N,11619.205400,E,1,4,1.0,158.8,M,0.0,M,,*46
$GPRMC,031608,A,3943.425600,N,11619.209000,E,0.324,264.2,061118,,,A*79
$GPGGA,031608,3943.425600,N,11619.209000,E,1,4,1.0,158.8,M,0.0,M,,*42
$GPRMC,031613,A,3943.426800,N,11619.213800,E,1.080,264.2,061118,,,A*71
$GPGGA,031613,3943.426800,N,11619.213800,E,1,4,1.0,158.8,M,0.0,M,,*46
$GPRMC,031618,A,3943.428000,N,11619.219200,E,1.026,264.2,061118,,,A*70
$GPGGA,031618,3943.428000,N,11619.219200,E,1,4,1.0,158.8,M,0.0,M,,*4B
$GPRMC,031623,A,3943.428600,N,11619.221600,E,0.432,264.2,061118,,,A*71
$GPGGA,031623,3943.428600,N,11619.221600,E,1,4,1.0,158.7,M,0.0,M,,*45
$GPRMC,031628,A,3943.429200,N,11619.222800,E,0.216,264.2,061118,,,A*72
$GPGGA,031628,3943.429200,N,11619.222800,E,1,4,1.0,158.6,M,0.0,M,,*47
$GPRMC,031633,A,3943.429200,N,11619.224600,E,0.324,264.2,061118,,,A*70
$GPGGA,031633,3943.429200,N,11619.224600,E,1,4,1.0,158.5,M,0.0,M,,*46
$GPRMC,031638,A,3943.429200,N,11619.225800,E,0.054,264.2,061118,,,A*70
$GPGGA,031638,3943.429200,N,11619.225800,E,1,4,1.0,158.4,M,0.0,M,,*43
$GPRMC,031643,A,3943.428600,N,11619.226400,E,0.216,264.2,061118,,,A*72
$GPGGA,031643,3943.428600,N,11619.226400,E,1,4,1.0,158.3,M,0.0,M,,*42
$GPRMC,031648,A,3943.428600,N,11619.226400,E,0.162,264.2,061118,,,A*79
$GPGGA,031648,3943.428600,N,11619.226400,E,1,4,1.0,158.0,M,0.0,M,,*4A
$GPRMC,031653,A,3943.429200,N,11619.228200,E,0.378,264.2,061118,,,A*77
$GPGGA,031653,3943.429200,N,11619.228200,E,1,4,1.0,157.8,M,0.0,M,,*4A
$GPRMC,031658,A,3943.429200,N,11619.228800,E,0.054,264.2,061118,,,A*7B
$GPGGA,031658,3943.429200,N,11619.228800,E,1,4,1.0,157.5,M,0.0,M,,*46
$GPRMC,031703,A,3943.429200,N,11619.230600,E,0.054,264.2,061118,,,A*73
$GPGGA,031703,3943.429200,N,11619.230600,E,1,4,1.0,157.3,M,0.0,M,,*48
$GPRMC,031708,A,3943.430400,N,11619.233600,E,0.864,264.2,061118,,,A*7E
$GPGGA,031708,3943.430400,N,11619.233600,E,1,4,1.0,156.9,M,0.0,M,,*45
$GPRMC,031713,A,3943.431000,N,11619.234200,E,0.432,264.2,061118,,,A*7D
$GPGGA,031713,3943.431000,N,11619.234200,E,1,4,1.0,156.5,M,0.0,M,,*45
$GPRMC,031718,A,3943.431000,N,11619.233600,E,0.270,264.2,061118,,,A*75
$GPGGA,031718,3943.431000,N,11619.233600,E,1,4,1.0,156.1,M,0.0,M,,*49
$GPRMC,031723,A,3943.431000,N,11619.233000,E,0.324,264.2,061118,,,A*7B
$GPGGA,031723,3943.431000,N,11619.233000,E,1,4,1.0,155.4,M,0.0,M,,*41
$GPRMC,031728,A,3943.431000,N,11619.234200,E,0.486,264.2,061118,,,A*7A
$GPGGA,031728,3943.431000,N,11619.234200,E,1,4,1.0,155.0,M,0.0,M,,*4B
$GPRMC,031733,A,3943.431600,N,11619.234200,E,0.216,264.2,061118,,,A*79
$GPGGA,031733,3943.431600,N,11619.234200,E,1,4,1.0,154.2,M,0.0,M,,*44
$GPRMC,031738,A,3943.431600,N,11619.233600,E,0.108,264.2,061118,,,A*7D
$GPGGA,031738,3943.431600,N,11619.233600,E,1,4,1.0,153.5,M,0.0,M,,*4C
$GPRMC,031743,A,3943.431600,N,11619.232400,E,0.054,264.2,061118,,,A*7A
$GPGGA,031743,3943.431600,N,11619.232400,E,1,4,1.0,152.8,M,0.0,M,,*4F
$GPRMC,031748,A,3943.432200,N,11619.232400,E,0.162,264.2,061118,,,A*72
$GPGGA,031748,3943.432200,N,11619.232400,E,1,4,1.0,151.9,M,0.0,M,,*41
$GPRMC,031753,A,3943.432200,N,11619.229400,E,0.972,264.2,061118,,,A*7B
$GPGGA,031753,3943.432200,N,11619.229400,E,1,4,1.0,150.6,M,0.0,M,,*4F
$GPRMC,031758,A,3943.433400,N,11619.228200,E,0.972,264.2,061118,,,A*70
$GPGGA,031758,3943.433400,N,11619.228200,E,1,4,1.0,148.5,M,0.0,M,,*4E
$GPRMC,031803,A,3943.434600,N,11619.227600,E,0.486,264.2,061118,,,A*79
$GPGGA,031803,3943.434600,N,11619.227600,E,1,4,1.0,146.0,M,0.0,M,,*4A
$GPRMC,031809,A,3943.435800,N,11619.229400,E,0.432,264.2,061118,,,A*7F
$GPGGA,031809,3943.435800,N,11619.229400,E,1,4,1.0,142.7,M,0.0,M,,*40
$GPRMC,031814,A,3943.437600,N,11619.230600,E,1.134,264.2,061118,,,A*77
$GPGGA,031814,3943.437600,N,11619.230600,E,1,4,1.0,137.6,M,0.0,M,,*49
$GPRMC,031819,A,3943.438200,N,11619.230600,E,0.540,264.2,061118,,,A*77
$GPGGA,031819,3943.438200,N,11619.230600,E,1,4,1.0,133.9,M,0.0,M,,*44
$GPRMC,031824,A,3943.439400,N,11619.230600,E,0.432,264.2,061118,,,A*7A
$GPGGA,031824,3943.439400,N,11619.230600,E,1,4,1.0,130.3,M,0.0,M,,*44
$GPRMC,031829,A,3943.440600,N,11619.230600,E,0.378,264.2,061118,,,A*72
$GPGGA,031829,3943.440600,N,11619.230600,E,1,4,1.0,127.7,M,0.0,M,,*47
$GPRMC,031834,A,3943.438200,N,11619.223400,E,1.296,264.2,061118,,,A*75
$GPGGA,031834,3943.438200,N,11619.223400,E,1,3,1.0,138.2,M,0.0,M,,*4C
$GPRMC,031839,A,3943.438800,N,11619.225200,E,0.486,264.2,061118,,,A*74
$GPGGA,031839,3943.438800,N,11619.225200,E,1,3,1.0,134.9,M,0.0,M,,*4C
$GPRMC,031844,A,3943.438800,N,11619.227000,E,0.324,264.2,061118,,,A*71
$GPGGA,031844,3943.438800,N,11619.227000,E,1,4,1.0,133.1,M,0.0,M,,*4E
$GPRMC,031849,A,3943.438200,N,11619.228200,E,1.026,264.2,061118,,,A*7B
$GPGGA,031849,3943.438200,N,11619.228200,E,1,4,1.0,132.8,M,0.0,M,,*4C
$GPRMC,031854,A,3943.437000,N,11619.226400,E,0.216,264.2,061118,,,A*72
$GPGGA,031854,3943.437000,N,11619.226400,E,1,4,1.0,132.9,M,0.0,M,,*44
$GPRMC,031859,A,3943.435800,N,11619.226400,E,0.324,264.2,061118,,,A*75
$GPGGA,031859,3943.435800,N,11619.226400,E,1,4,1.0,132.8,M,0.0,M,,*42
$GPRMC,031904,A,3943.435800,N,11619.226400,E,0.270,264.2,061118,,,A*7C
$GPGGA,031904,3943.435800,N,11619.226400,E,1,4,1.0,132.7,M,0.0,M,,*44
$GPRMC,031909,A,3943.435800,N,11619.227000,E,0.054,264.2,061118,,,A*70
$GPGGA,031909,3943.435800,N,11619.227000,E,1,4,1.0,132.6,M,0.0,M,,*4D
$GPRMC,031914,A,3943.435200,N,11619.227000,E,0.324,264.2,061118,,,A*72
$GPGGA,031914,3943.435200,N,11619.227000,E,1,4,1.0,132.5,M,0.0,M,,*48
$GPRMC,031919,A,3943.434600,N,11619.227600,E,0.540,264.2,061118,,,A*78
$GPGGA,031919,3943.434600,N,11619.227600,E,1,4,1.0,132.2,M,0.0,M,,*41
$GPRMC,031924,A,3943.433400,N,11619.228800,E,0.864,264.2,061118,,,A*79
$GPGGA,031924,3943.433400,N,11619.228800,E,1,4,1.0,132.0,M,0.0,M,,*49
$GPRMC,031929,A,3943.435800,N,11619.232400,E,1.782,264.2,061118,,,A*7F
$GPGGA,031929,3943.435800,N,11619.232400,E,1,4,1.0,131.9,M,0.0,M,,*43
$GPRMC,031934,A,3943.436400,N,11619.234200,E,1.134,264.2,061118,,,A*77
$GPGGA,031934,3943.436400,N,11619.234200,E,1,4,1.0,131.8,M,0.0,M,,*41
$GPRMC,031939,A,3943.437000,N,11619.236600,E,0.864,264.2,061118,,,A*74
$GPGGA,031939,3943.437000,N,11619.236600,E,1,4,1.0,131.5,M,0.0,M,,*42
$GPRMC,031944,A,3943.437600,N,11619.237200,E,0.540,264.2,061118,,,A*76
$GPGGA,031944,3943.437600,N,11619.237200,E,1,4,1.0,131.2,M,0.0,M,,*4C
$GPRMC,031949,A,3943.438200,N,11619.237800,E,0.540,264.2,061118,,,A*7A
$GPGGA,031949,3943.438200,N,11619.237800,E,1,4,1.0,130.9,M,0.0,M,,*4A
$GPRMC,031954,A,3943.437600,N,11619.237200,E,0.108,264.2,061118,,,A*7F
$GPGGA,031954,3943.437600,N,11619.237200,E,1,4,1.0,130.8,M,0.0,M,,*46
$GPRMC,031959,A,3943.437600,N,11619.236000,E,0.162,264.2,061118,,,A*7D
$GPGGA,031959,3943.437600,N,11619.236000,E,1,4,1.0,130.8,M,0.0,M,,*48
$GPRMC,032004,A,3943.437000,N,11619.234800,E,0.216,264.2,061118,,,A*73
$GPGGA,032004,3943.437000,N,11619.234800,E,1,4,1.0,130.8,M,0.0,M,,*46
$GPRMC,032009,A,3943.437000,N,11619.233000,E,0.162,264.2,061118,,,A*71
$GPGGA,032009,3943.437000,N,11619.233000,E,1,4,1.0,130.9,M,0.0,M,,*45
$GPRMC,032014,A,3943.437000,N,11619.233000,E,0.270,264.2,061118,,,A*7D
$GPGGA,032014,3943.437000,N,11619.233000,E,1,4,1.0,131.2,M,0.0,M,,*43
$GPRMC,032019,A,3943.436400,N,11619.233600,E,0.432,264.2,061118,,,A*73
$GPGGA,032019,3943.436400,N,11619.233600,E,1,4,1.0,131.8,M,0.0,M,,*47
$GPRMC,032025,A,3943.436400,N,11619.232400,E,0.378,264.2,061118,,,A*76
$GPGGA,032025,3943.436400,N,11619.232400,E,1,4,1.0,132.4,M,0.0,M,,*44
$GPRMC,032030,A,3943.437000,N,11619.233000,E,0.054,264.2,061118,,,A*7F
$GPGGA,032030,3943.437000,N,11619.233000,E,1,4,1.0,132.5,M,0.0,M,,*41
$GPRMC,032035,A,3943.437600,N,11619.233000,E,0.054,264.2,061118,,,A*7C
$GPGGA,032035,3943.437600,N,11619.233000,E,1,4,1.0,132.0,M,0.0,M,,*47
$GPRMC,032040,A,3943.437600,N,11619.234200,E,0.810,264.2,061118,,,A*73
$GPGGA,032040,3943.437600,N,11619.234200,E,1,4,1.0,131.5,M,0.0,M,,*46
$GPRMC,032045,A,3943.438200,N,11619.234200,E,0.324,264.2,061118,,,A*71
$GPGGA,032045,3943.438200,N,11619.234200,E,1,4,1.0,130.9,M,0.0,M,,*45
$GPRMC,032050,A,3943.438200,N,11619.234800,E,0.162,264.2,061118,,,A*7F
$GPGGA,032050,3943.438200,N,11619.234800,E,1,4,1.0,130.7,M,0.0,M,,*45
$GPRMC,032055,A,3943.438200,N,11619.234800,E,0.000,264.2,061118,,,A*7F
$GPGGA,032055,3943.438200,N,11619.234800,E,1,4,1.0,131.1,M,0.0,M,,*47
$GPRMC,032100,A,3943.438200,N,11619.236600,E,0.054,264.2,061118,,,A*73
$GPGGA,032100,3943.438200,N,11619.236600,E,1,3,1.0,130.9,M,0.0,M,,*44
$GPRMC,032105,A,3943.438200,N,11619.238400,E,0.324,264.2,061118,,,A*7E
$GPGGA,032105,3943.438200,N,11619.238400,E,1,4,1.0,130.9,M,0.0,M,,*4A
$GPRMC,032110,A,3943.438200,N,11619.238400,E,0.000,264.2,061118,,,A*7F
$GPGGA,032110,3943.438200,N,11619.238400,E,1,4,1.0,130.8,M,0.0,M,,*4F
$GPRMC,032115,A,3943.438200,N,11619.237800,E,0.324,264.2,061118,,,A*7C
$GPGGA,032115,3943.438200,N,11619.237800,E,1,4,1.0,130.8,M,0.0,M,,*49
$GPRMC,032120,A,3943.438200,N,11619.237200,E,0.216,264.2,061118,,,A*70
$GPGGA,032120,3943.438200,N,11619.237200,E,1,4,1.0,130.7,M,0.0,M,,*4A
$GPRMC,032125,A,3943.438200,N,11619.237200,E,0.108,264.2,061118,,,A*79
$GPGGA,032125,3943.438200,N,11619.237200,E,1,4,1.0,130.5,M,0.0,M,,*4D
$GPRMC,032130,A,3943.438800,N,11619.238400,E,0.756,264.2,061118,,,A*73
$GPGGA,032130,3943.438800,N,11619.238400,E,1,4,1.0,130.3,M,0.0,M,,*4C
$GPRMC,032135,A,3943.439400,N,11619.243200,E,2.376,119.2,061118,,,A*7C
$GPGGA,032135,3943.439400,N,11619.243200,E,1,4,1.0,130.2,M,0.0,M,,*4F
$GPRMC,032140,A,3943.439400,N,11619.245600,E,1.134,82.0,061118,,,A*4A
$GPGGA,032140,3943.439400,N,11619.245600,E,1,4,1.0,130.1,M,0.0,M,,*4C
$GPRMC,032145,A,3943.439400,N,11619.244400,E,0.162,82.0,061118,,,A*4E
$GPGGA,032145,3943.439400,N,11619.244400,E,1,4,1.0,130.1,M,0.0,M,,*4A
$GPRMC,032150,A,3943.438200,N,11619.236600,E,2.754,243.6,061118,,,A*72
$GPGGA,032150,3943.438200,N,11619.236600,E,1,3,1.0,130.0,M,0.0,M,,*48
$GPRMC,032155,A,3943.437600,N,11619.233600,E,1.620,259.2,061118,,,A*77
$GPGGA,032155,3943.437600,N,11619.233600,E,1,3,1.0,130.0,M,0.0,M,,*43
$GPRMC,032200,A,3943.437000,N,11619.231200,E,0.486,259.4,061118,,,A*7D
$GPGGA,032200,3943.437000,N,11619.231200,E,1,3,1.0,130.1,M,0.0,M,,*41
$GPRMC,032205,A,3943.437000,N,11619.230000,E,0.270,259.4,061118,,,A*74
$GPGGA,032205,3943.437000,N,11619.230000,E,1,3,1.0,130.1,M,0.0,M,,*47
$GPRMC,032210,A,3943.436400,N,11619.230600,E,0.486,259.4,061118,,,A*7C
$GPGGA,032210,3943.436400,N,11619.230600,E,1,4,1.0,130.0,M,0.0,M,,*46
$GPRMC,032215,A,3943.436400,N,11619.227600,E,0.918,259.4,061118,,,A*75
$GPGGA,032215,3943.436400,N,11619.227600,E,1,4,1.0,130.0,M,0.0,M,,*45
$GPRMC,032220,A,3943.437000,N,11619.228200,E,0.162,259.4,061118,,,A*78
$GPGGA,032220,3943.437000,N,11619.228200,E,1,4,1.0,130.0,M,0.0,M,,*4D
$GPRMC,032225,A,3943.437600,N,11619.227600,E,0.594,259.4,061118,,,A*7D
$GPGGA,032225,3943.437600,N,11619.227600,E,1,4,1.0,130.0,M,0.0,M,,*45
$GPRMC,032230,A,3943.437600,N,11619.228200,E,0.432,259.4,061118,,,A*7F
$GPGGA,032230,3943.437600,N,11619.228200,E,1,4,1.0,129.9,M,0.0,M,,*4B
$GPRMC,032235,A,3943.437600,N,11619.230000,E,0.702,259.4,061118,,,A*71
$GPGGA,032235,3943.437600,N,11619.230000,E,1,4,1.0,129.9,M,0.0,M,,*45
$GPRMC,032241,A,3943.438800,N,11619.230600,E,0.540,259.4,061118,,,A*71
$GPGGA,032241,3943.438800,N,11619.230600,E,1,4,1.0,129.7,M,0.0,M,,*4F
$GPRMC,032246,A,3943.440600,N,11619.231200,E,1.134,259.4,061118,,,A*74
$GPGGA,032246,3943.440600,N,11619.231200,E,1,4,1.0,129.6,M,0.0,M,,*4D
$GPRMC,032251,A,3943.443000,N,11619.233600,E,1.998,259.4,061118,,,A*7F
$GPGGA,032251,3943.443000,N,11619.233600,E,1,4,1.0,129.4,M,0.0,M,,*4A
$GPRMC,032256,A,3943.445400,N,11619.236600,E,1.782,259.4,061118,,,A*7A
$GPGGA,032256,3943.445400,N,11619.236600,E,1,4,1.0,129.2,M,0.0,M,,*4C
$GPRMC,032301,A,3943.446000,N,11619.238400,E,1.026,259.4,061118,,,A*7B
$GPGGA,032301,3943.446000,N,11619.238400,E,1,4,1.0,129.0,M,0.0,M,,*46
$GPRMC,032306,A,3943.444200,N,11619.239600,E,0.756,259.4,061118,,,A*7E
$GPGGA,032306,3943.444200,N,11619.239600,E,1,4,1.0,128.6,M,0.0,M,,*45
$GPRMC,032311,A,3943.444200,N,11619.241400,E,1.134,259.4,061118,,,A*76
$GPGGA,032311,3943.444200,N,11619.241400,E,1,4,1.0,128.4,M,0.0,M,,*4C
$GPRMC,032316,A,3943.443600,N,11619.242000,E,0.702,259.4,061118,,,A*77
$GPGGA,032316,3943.443600,N,11619.242000,E,1,4,1.0,127.9,M,0.0,M,,*4D
$GPRMC,032321,A,3943.444800,N,11619.242600,E,0.324,259.4,061118,,,A*7C
$GPGGA,032321,3943.444800,N,11619.242600,E,1,4,1.0,127.4,M,0.0,M,,*4B
$GPRMC,032326,A,3943.445400,N,11619.243200,E,0.108,259.4,061118,,,A*7F
$GPGGA,032326,3943.445400,N,11619.243200,E,1,4,1.0,126.9,M,0.0,M,,*48
$GPRMC,032331,A,3943.444800,N,11619.243200,E,0.270,259.4,061118,,,A*78
$GPGGA,032331,3943.444800,N,11619.243200,E,1,4,1.0,126.7,M,0.0,M,,*4D
$GPRMC,032336,A,3943.444800,N,11619.242600,E,0.054,259.4,061118,,,A*7E
$GPGGA,032336,3943.444800,N,11619.242600,E,1,4,1.0,126.2,M,0.0,M,,*4A
$GPRMC,032341,A,3943.444800,N,11619.242000,E,0.054,259.4,061118,,,A*78
$GPGGA,032341,3943.444800,N,11619.242000,E,1,4,1.0,127.5,M,0.0,M,,*4A
$GPRMC,032346,A,3943.445400,N,11619.241400,E,0.270,259.4,061118,,,A*71
$GPGGA,032346,3943.445400,N,11619.241400,E,1,4,1.0,127.2,M,0.0,M,,*40
$GPRMC,032351,A,3943.445400,N,11619.240800,E,0.108,259.4,061118,,,A*76
$GPGGA,032351,3943.445400,N,11619.240800,E,1,4,1.0,127.1,M,0.0,M,,*48
$GPRMC,032356,A,3943.445400,N,11619.241400,E,0.054,259.4,061118,,,A*74
$GPGGA,032356,3943.445400,N,11619.241400,E,1,4,1.0,127.0,M,0.0,M,,*43
$GPRMC,032401,A,3943.445400,N,11619.243800,E,0.540,259.4,061118,,,A*7F
$GPGGA,032401,3943.445400,N,11619.243800,E,1,4,1.0,127.1,M,0.0,M,,*49
$GPRMC,032406,A,3943.445400,N,11619.244400,E,0.108,259.4,061118,,,A*7B
$GPGGA,032406,3943.445400,N,11619.244400,E,1,4,1.0,127.1,M,0.0,M,,*45
$GPRMC,032411,A,3943.445400,N,11619.243800,E,0.054,259.4,061118,,,A*7E
$GPGGA,032411,3943.445400,N,11619.243800,E,1,4,1.0,127.2,M,0.0,M,,*4B
$GPRMC,032416,A,3943.446000,N,11619.246200,E,0.432,259.4,061118,,,A*75
$GPGGA,032416,3943.446000,N,11619.246200,E,1,4,1.0,127.2,M,0.0,M,,*44
$GPRMC,032421,A,3943.446000,N,11619.246800,E,0.540,259.4,061118,,,A*7F
$GPGGA,032421,3943.446000,N,11619.246800,E,1,3,1.0,127.2,M,0.0,M,,*4D
$GPRMC,032426,A,3943.446000,N,11619.248000,E,0.486,259.4,061118,,,A*75
$GPGGA,032426,3943.446000,N,11619.248000,E,1,3,1.0,127.2,M,0.0,M,,*4C
$GPRMC,032431,A,3943.446000,N,11619.249800,E,1.134,259.4,061118,,,A*77
$GPGGA,032431,3943.446000,N,11619.249800,E,1,4,1.0,127.2,M,0.0,M,,*44
$GPRMC,032436,A,3943.444800,N,11619.246800,E,0.216,259.4,061118,,,A*77
$GPGGA,032436,3943.444800,N,11619.246800,E,1,4,1.0,127.2,M,0.0,M,,*46
$GPRMC,032441,A,3943.444800,N,11619.248000,E,1.458,259.4,061118,,,A*7C
$GPGGA,032441,3943.444800,N,11619.248000,E,1,4,1.0,127.3,M,0.0,M,,*41
$GPRMC,032447,A,3943.445400,N,11619.248600,E,0.972,259.4,061118,,,A*75
$GPGGA,032447,3943.445400,N,11619.248600,E,1,4,1.0,127.3,M,0.0,M,,*4C
$GPRMC,032452,A,3943.445400,N,11619.245000,E,0.972,259.4,061118,,,A*7A
$GPGGA,032452,3943.445400,N,11619.245000,E,1,4,1.0,127.3,M,0.0,M,,*43
$GPRMC,032457,A,3943.445400,N,11619.245600,E,0.162,259.4,061118,,,A*70
$GPGGA,032457,3943.445400,N,11619.245600,E,1,4,1.0,127.2,M,0.0,M,,*41
$GPRMC,032502,A,3943.446000,N,11619.249800,E,1.674,259.4,061118,,,A*75
$GPGGA,032502,3943.446000,N,11619.249800,E,1,4,1.0,127.2,M,0.0,M,,*45
$GPRMC,032507,A,3943.446600,N,11619.254000,E,1.782,259.4,061118,,,A*7A
$GPGGA,032507,3943.446600,N,11619.254000,E,1,3,1.0,127.2,M,0.0,M,,*45
$GPRMC,032512,A,3943.446600,N,11619.251600,E,0.324,259.4,061118,,,A*74
$GPGGA,032512,3943.446600,N,11619.251600,E,1,4,1.0,127.2,M,0.0,M,,*45
$GPRMC,032517,A,3943.446000,N,11619.249200,E,0.864,259.4,061118,,,A*75
$GPGGA,032517,3943.446000,N,11619.249200,E,1,4,1.0,127.2,M,0.0,M,,*4B
$GPRMC,032522,A,3943.445400,N,11619.248000,E,0.648,259.4,061118,,,A*77
$GPGGA,032522,3943.445400,N,11619.248000,E,1,4,1.0,127.2,M,0.0,M,,*49
$GPRMC,032527,A,3943.444800,N,11619.246200,E,0.918,259.4,061118,,,A*79
$GPGGA,032527,3943.444800,N,11619.246200,E,1,4,1.0,127.2,M,0.0,M,,*4D
$GPRMC,032532,A,3943.444200,N,11619.245600,E,0.756,259.4,061118,,,A*74
$GPGGA,032532,3943.444200,N,11619.245600,E,1,4,1.0,127.2,M,0.0,M,,*44
$GPRMC,032537,A,3943.443000,N,11619.244400,E,0.486,259.4,061118,,,A*79
$GPGGA,032537,3943.443000,N,11619.244400,E,1,4,1.0,127.2,M,0.0,M,,*47
$GPRMC,032542,A,3943.442400,N,11619.243800,E,0.162,259.4,061118,,,A*7A
$GPGGA,032542,3943.442400,N,11619.243800,E,1,4,1.0,127.1,M,0.0,M,,*48
$GPRMC,032547,A,3943.442400,N,11619.245000,E,0.540,259.4,061118,,,A*75
$GPGGA,032547,3943.442400,N,11619.245000,E,1,4,1.0,127.1,M,0.0,M,,*43
$GPRMC,032552,A,3943.441200,N,11619.245600,E,0.324,259.4,061118,,,A*76
$GPGGA,032552,3943.441200,N,11619.245600,E,1,4,1.0,127.1,M,0.0,M,,*44
$GPRMC,032557,A,3943.441800,N,11619.249200,E,1.350,259.4,061118,,,A*73
$GPGGA,032557,3943.441800,N,11619.249200,E,1,3,1.0,127.1,M,0.0,M,,*44
$GPRMC,032602,A,3943.441800,N,11619.248600,E,1.026,259.4,061118,,,A*77
$GPGGA,032602,3943.441800,N,11619.248600,E,1,4,1.0,127.1,M,0.0,M,,*45
$GPRMC,032607,A,3943.447200,N,11619.266600,E,6.587,71.9,061118,,,A*4E
$GPGGA,032607,3943.447200,N,11619.266600,E,1,4,1.0,127.0,M,0.0,M,,*41
$GPRMC,032612,A,3943.446600,N,11619.260600,E,3.186,74.7,061118,,,A*42
$GPGGA,032612,3943.446600,N,11619.260600,E,1,3,1.0,127.0,M,0.0,M,,*41
$GPRMC,032617,A,3943.446000,N,11619.254000,E,1.404,74.5,061118,,,A*4F
$GPGGA,032617,3943.446000,N,11619.254000,E,1,3,1.0,127.0,M,0.0,M,,*43
$GPRMC,032622,A,3943.445400,N,11619.252800,E,1.944,74.5,061118,,,A*49
$GPGGA,032622,3943.445400,N,11619.252800,E,1,3,1.0,127.0,M,0.0,M,,*4C
$GPRMC,032627,A,3943.445400,N,11619.249200,E,0.972,74.5,061118,,,A*48
$GPGGA,032627,3943.445400,N,11619.249200,E,1,3,1.0,127.0,M,0.0,M,,*49
$GPRMC,032632,A,3943.444200,N,11619.243800,E,0.432,74.5,061118,,,A*42
$GPGGA,032632,3943.444200,N,11619.243800,E,1,3,1.0,127.0,M,0.0,M,,*4A
$GPRMC,032637,A,3943.443600,N,11619.241400,E,0.648,74.5,061118,,,A*45
$GPGGA,032637,3943.443600,N,11619.241400,E,1,3,1.0,127.0,M,0.0,M,,*42
$GPRMC,032642,A,3943.442400,N,11619.239600,E,0.324,74.5,061118,,,A*46
$GPGGA,032642,3943.442400,N,11619.239600,E,1,3,1.0,127.0,M,0.0,M,,*4E
$GPRMC,032647,A,3943.441800,N,11619.240200,E,0.108,74.5,061118,,,A*4A
$GPGGA,032647,3943.441800,N,11619.240200,E,1,3,1.0,127.0,M,0.0,M,,*4E
$GPRMC,032652,A,3943.441200,N,11619.240800,E,0.108,74.5,061118,,,A*4E
$GPGGA,032652,3943.441200,N,11619.240800,E,1,4,1.0,127.0,M,0.0,M,,*4D
$GPRMC,032657,A,3943.441800,N,11619.245600,E,0.702,74.5,061118,,,A*46
$GPGGA,032657,3943.441800,N,11619.245600,E,1,4,1.0,127.0,M,0.0,M,,*49
$GPRMC,032702,A,3943.441200,N,11619.246200,E,0.486,74.5,061118,,,A*45
$GPGGA,032702,3943.441200,N,11619.246200,E,1,4,1.0,127.0,M,0.0,M,,*45
$GPRMC,032708,A,3943.440600,N,11619.243200,E,0.432,74.5,061118,,,A*40
$GPGGA,032708,3943.440600,N,11619.243200,E,1,4,1.0,127.0,M,0.0,M,,*4F
$GPRMC,032713,A,3943.440000,N,11619.243800,E,0.108,74.5,061118,,,A*4A
$GPGGA,032713,3943.440000,N,11619.243800,E,1,4,1.0,127.0,M,0.0,M,,*49
$GPRMC,032718,A,3943.439400,N,11619.245000,E,0.378,74.5,061118,,,A*40
$GPGGA,032718,3943.439400,N,11619.245000,E,1,4,1.0,127.0,M,0.0,M,,*46
$GPRMC,032723,A,3943.438800,N,11619.243800,E,0.594,74.5,061118,,,A*4F
$GPGGA,032723,3943.438800,N,11619.243800,E,1,4,1.0,127.0,M,0.0,M,,*4D
$GPRMC,032728,A,3943.437000,N,11619.242600,E,0.918,74.5,061118,,,A*44
$GPGGA,032728,3943.437000,N,11619.242600,E,1,4,1.0,127.0,M,0.0,M,,*4E
$GPRMC,032733,A,3943.436400,N,11619.241400,E,0.864,74.5,061118,,,A*40
$GPGGA,032733,3943.436400,N,11619.241400,E,1,4,1.0,127.0,M,0.0,M,,*40
$GPRMC,032738,A,3943.437000,N,11619.242000,E,0.270,74.5,061118,,,A*46
$GPGGA,032738,3943.437000,N,11619.242000,E,1,4,1.0,127.0,M,0.0,M,,*49
$GPRMC,032743,A,3943.438200,N,11619.242600,E,0.756,74.5,061118,,,A*40
$GPGGA,032743,3943.438200,N,11619.242600,E,1,4,1.0,126.9,M,0.0,M,,*46
$GPRMC,032748,A,3943.439400,N,11619.244400,E,0.648,74.5,061118,,,A*46
$GPGGA,032748,3943.439400,N,11619.244400,E,1,4,1.0,126.8,M,0.0,M,,*4F
$GPRMC,032753,A,3943.440000,N,11619.245600,E,0.216,74.5,061118,,,A*4A
$GPGGA,032753,3943.440000,N,11619.245600,E,1,3,1.0,126.8,M,0.0,M,,*4B
$GPRMC,032758,A,3943.440600,N,11619.246800,E,0.810,74.5,061118,,,A*46
$GPGGA,032758,3943.440600,N,11619.246800,E,1,0,1.0,126.8,M,0.0,M,,*48
$GPRMC,032803,A,3943.440600,N,11619.243800,E,0.810,74.5,061118,,,A*42
$GPGGA,032803,3943.440600,N,11619.243800,E,1,4,1.0,126.8,M,0.0,M,,*48
$GPRMC,032808,A,3943.440600,N,11619.242000,E,0.648,74.5,061118,,,A*43
$GPGGA,032808,3943.440600,N,11619.242000,E,1,4,1.0,126.7,M,0.0,M,,*45
$GPRMC,032813,A,3943.440600,N,11619.242000,E,0.216,74.5,061118,,,A*46
$GPGGA,032813,3943.440600,N,11619.242000,E,1,4,1.0,126.7,M,0.0,M,,*4F
$GPRMC,032818,A,3943.440600,N,11619.243200,E,0.540,74.5,061118,,,A*4A
$GPGGA,032818,3943.440600,N,11619.243200,E,1,4,1.0,126.7,M,0.0,M,,*47
$GPRMC,032823,A,3943.440000,N,11619.240200,E,0.864,74.5,061118,,,A*4C
$GPGGA,032823,3943.440000,N,11619.240200,E,1,4,1.0,126.7,M,0.0,M,,*4A
$GPRMC,032828,A,3943.440600,N,11619.240200,E,0.216,74.5,061118,,,A*4E
$GPGGA,032828,3943.440600,N,11619.240200,E,1,4,1.0,126.6,M,0.0,M,,*46
$GPRMC,032833,A,3943.441200,N,11619.242600,E,0.594,74.5,061118,,,A*4A
$GPGGA,032833,3943.441200,N,11619.242600,E,1,4,1.0,126.6,M,0.0,M,,*4F
$GPRMC,032838,A,3943.442400,N,11619.247400,E,1.242,78.9,061118,,,A*4E
$GPGGA,032838,3943.442400,N,11619.247400,E,1,4,1.0,126.6,M,0.0,M,,*46
$GPRMC,032843,A,3943.443000,N,11619.248600,E,0.054,78.4,061118,,,A*43
$GPGGA,032843,3943.443000,N,11619.248600,E,1,3,1.0,126.6,M,0.0,M,,*45
$GPRMC,032848,A,3943.443600,N,11619.249800,E,0.270,78.4,061118,,,A*45
$GPGGA,032848,3943.443600,N,11619.249800,E,1,3,1.0,126.6,M,0.0,M,,*47
$GPRMC,032853,A,3943.444200,N,11619.251600,E,1.458,79.9,061118,,,A*4A
$GPGGA,032853,3943.444200,N,11619.251600,E,1,4,1.0,126.6,M,0.0,M,,*4E
$GPRMC,032858,A,3943.444200,N,11619.254000,E,0.810,81.5,061118,,,A*48
$GPGGA,032858,3943.444200,N,11619.254000,E,1,4,1.0,126.6,M,0.0,M,,*46
$GPRMC,032903,A,3943.444200,N,11619.259400,E,2.214,80.7,061118,,,A*41
$GPGGA,032903,3943.444200,N,11619.259400,E,1,4,1.0,126.7,M,0.0,M,,*41
$GPRMC,032908,A,3943.445400,N,11619.267800,E,3.510,81.6,061118,,,A*4E
$GPGGA,032908,3943.445400,N,11619.267800,E,1,4,1.0,126.8,M,0.0,M,,*43
$GPRMC,032913,A,3943.445400,N,11619.276200,E,3.348,81.4,061118,,,A*47
$GPGGA,032913,3943.445400,N,11619.276200,E,1,4,1.0,127.0,M,0.0,M,,*4A
$GPRMC,032919,A,3943.446000,N,11619.279200,E,3.024,78.8,061118,,,A*46
$GPGGA,032919,3943.446000,N,11619.279200,E,1,4,1.0,127.0,M,0.0,M,,*48
$GPRMC,032924,A,3943.446000,N,11619.279200,E,3.024,78.8,061118,,,A*48
$GPGGA,032924,3943.446000,N,11619.279200,E,1,0,1.0,127.0,M,0.0,M,,*42
$GPRMC,032929,A,3943.444200,N,11619.264200,E,2.052,280.1,061118,,,A*75
$GPGGA,032929,3943.444200,N,11619.264200,E,1,4,1.0,127.0,M,0.0,M,,*47
$GPRMC,032934,A,3943.443600,N,11619.251000,E,2.916,261.7,061118,,,A*7E
$GPGGA,032934,3943.443600,N,11619.251000,E,1,3,1.0,127.0,M,0.0,M,,*4B
$GPRMC,032939,A,3943.443600,N,11619.249200,E,1.080,259.9,061118,,,A*78
$GPGGA,032939,3943.443600,N,11619.249200,E,1,3,1.0,127.0,M,0.0,M,,*4D
$GPRMC,032944,A,3943.443600,N,11619.243800,E,0.702,259.9,061118,,,A*7E
$GPGGA,032944,3943.443600,N,11619.243800,E,1,3,1.0,127.0,M,0.0,M,,*47
$GPRMC,032949,A,3943.443000,N,11619.238400,E,1.566,259.9,061118,,,A*74
$GPGGA,032949,3943.443000,N,11619.238400,E,1,3,1.0,127.0,M,0.0,M,,*4C
$GPRMC,032954,A,3943.443000,N,11619.238400,E,0.864,259.9,061118,,,A*76
$GPGGA,032954,3943.443000,N,11619.238400,E,1,3,1.0,127.0,M,0.0,M,,*40
$GPRMC,032959,A,3943.443000,N,11619.241400,E,0.432,259.9,061118,,,A*7A
$GPGGA,032959,3943.443000,N,11619.241400,E,1,3,1.0,127.0,M,0.0,M,,*43
$GPRMC,033004,A,3943.443000,N,11619.240200,E,0.216,259.9,061118,,,A*7D
$GPGGA,033004,3943.443000,N,11619.240200,E,1,4,1.0,127.0,M,0.0,M,,*43
$GPRMC,033009,A,3943.442400,N,11619.238400,E,0.324,259.9,061118,,,A*7C
$GPGGA,033009,3943.442400,N,11619.238400,E,1,3,1.0,127.0,M,0.0,M,,*45
$GPRMC,033014,A,3943.442400,N,11619.236600,E,0.270,259.9,061118,,,A*7C
$GPGGA,033014,3943.442400,N,11619.236600,E,1,4,1.0,127.0,M,0.0,M,,*42
$GPRMC,033019,A,3943.441200,N,11619.234200,E,1.836,259.9,061118,,,A*7B
$GPGGA,033019,3943.441200,N,11619.234200,E,1,4,1.0,127.0,M,0.0,M,,*4C
$GPRMC,033024,A,3943.440000,N,11619.231200,E,1.998,259.9,061118,,,A*76
$GPGGA,033024,3943.440000,N,11619.231200,E,1,0,1.0,127.0,M,0.0,M,,*40
$GPRMC,033029,A,3943.439400,N,11619.232400,E,0.594,259.9,061118,,,A*75
$GPGGA,033029,3943.439400,N,11619.232400,E,1,4,1.0,127.0,M,0.0,M,,*46
$GPRMC,033034,A,3943.438800,N,11619.231200,E,0.756,259.9,061118,,,A*7D
$GPGGA,033034,3943.438800,N,11619.231200,E,1,3,1.0,127.0,M,0.0,M,,*45
$GPRMC,033039,A,3943.437600,N,11619.226400,E,1.404,259.9,061118,,,A*74
$GPGGA,033039,3943.437600,N,11619.226400,E,1,3,1.0,127.0,M,0.0,M,,*49
$GPRMC,033044,A,3943.435800,N,11619.223400,E,1.242,259.9,061118,,,A*73
$GPGGA,033044,3943.435800,N,11619.223400,E,1,3,1.0,127.0,M,0.0,M,,*4A
$GPRMC,033049,A,3943.433400,N,11619.218600,E,1.998,259.9,061118,,,A*72
$GPGGA,033049,3943.433400,N,11619.218600,E,1,3,1.0,127.0,M,0.0,M,,*47
$GPRMC,033054,A,3943.431600,N,11619.215000,E,1.782,259.9,061118,,,A*70
$GPGGA,033054,3943.431600,N,11619.215000,E,1,3,1.0,127.0,M,0.0,M,,*40
$GPRMC,033059,A,3943.429800,N,11619.212600,E,1.782,259.9,061118,,,A*7B
$GPGGA,033059,3943.429800,N,11619.212600,E,1,4,1.0,127.0,M,0.0,M,,*4C
$GPRMC,033104,A,3943.431000,N,11619.220400,E,1.188,259.9,061118,,,A*7C
$GPGGA,033104,3943.431000,N,11619.220400,E,1,4,1.0,127.0,M,0.0,M,,*47
$GPRMC,033109,A,3943.432800,N,11619.228200,E,0.648,259.9,061118,,,A*7E
$GPGGA,033109,3943.432800,N,11619.228200,E,1,4,1.0,127.0,M,0.0,M,,*4F
$GPRMC,033114,A,3943.435200,N,11619.234200,E,0.702,259.9,061118,,,A*7D
$GPGGA,033114,3943.435200,N,11619.234200,E,1,4,1.0,127.0,M,0.0,M,,*43
$GPRMC,033119,A,3943.435800,N,11619.236600,E,0.108,259.9,061118,,,A*70
$GPGGA,033119,3943.435800,N,11619.236600,E,1,4,1.0,127.0,M,0.0,M,,*42
$GPRMC,033124,A,3943.435200,N,11619.240200,E,0.486,259.9,061118,,,A*72
$GPGGA,033124,3943.435200,N,11619.240200,E,1,4,1.0,127.0,M,0.0,M,,*43
$GPRMC,033130,A,3943.435800,N,11619.245600,E,0.864,259.9,061118,,,A*7C
$GPGGA,033130,3943.435800,N,11619.245600,E,1,4,1.0,127.0,M,0.0,M,,*4D
$GPRMC,033135,A,3943.435800,N,11619.246200,E,0.162,259.9,061118,,,A*71
$GPGGA,033135,3943.435800,N,11619.246200,E,1,0,1.0,127.0,M,0.0,M,,*4B
$GPRMC,033140,A,3943.436400,N,11619.247400,E,0.432,259.9,061118,,,A*7B
$GPGGA,033140,3943.436400,N,11619.247400,E,1,4,1.0,127.0,M,0.0,M,,*45
$GPRMC,033145,A,3943.435200,N,11619.247400,E,0.324,259.9,061118,,,A*7B
$GPGGA,033145,3943.435200,N,11619.247400,E,1,3,1.0,127.0,M,0.0,M,,*42
$GPRMC,033150,A,3943.432200,N,11619.243800,E,1.458,259.9,061118,,,A*7D
$GPGGA,033150,3943.432200,N,11619.243800,E,1,3,1.0,127.0,M,0.0,M,,*49
$GPRMC,033155,A,3943.432200,N,11619.240200,E,1.296,259.9,061118,,,A*75
$GPGGA,033155,3943.432200,N,11619.240200,E,1,3,1.0,127.0,M,0.0,M,,*45
$GPRMC,033203,A,3943.443000,N,11619.226400,E,4.914,259.9,061118,,,A*73
$GPGGA,033203,3943.443000,N,11619.226400,E,1,0,1.0,127.0,M,0.0,M,,*44
$GPRMC,033213,A,3943.461000,N,11619.221000,E,6.965,259.9,061118,,,A*75
$GPGGA,033213,3943.461000,N,11619.221000,E,1,0,1.0,127.0,M,0.0,M,,*46
$GPRMC,033228,A,3943.433400,N,11619.216800,E,5.292,259.9,061118,,,A*72
$GPGGA,033228,3943.433400,N,11619.216800,E,1,0,1.0,127.0,M,0.0,M,,*41
$GPRMC,033233,A,3943.435200,N,11619.215000,E,3.780,259.9,061118,,,A*73
$GPGGA,033233,3943.435200,N,11619.215000,E,1,4,1.0,95.4,M,0.0,M,,*78
$GPRMC,033238,A,3943.441200,N,11619.222200,E,5.886,38.4,061118,,,A*4A
$GPGGA,033238,3943.441200,N,11619.222200,E,1,4,1.0,60.7,M,0.0,M,,*7F
$GPRMC,033243,A,3943.435800,N,11619.216800,E,2.484,42.5,061118,,,A*47
$GPGGA,033243,3943.435800,N,11619.216800,E,1,3,1.0,88.2,M,0.0,M,,*73
$GPRMC,033248,A,3943.438800,N,11619.214400,E,2.268,42.5,061118,,,A*4B
$GPGGA,033248,3943.438800,N,11619.214400,E,1,4,1.0,85.4,M,0.0,M,,*77
$GPRMC,033253,A,3943.441200,N,11619.227600,E,1.620,42.5,061118,,,A*4C
$GPGGA,033253,3943.441200,N,11619.227600,E,1,4,1.0,85.4,M,0.0,M,,*7B
$GPRMC,033258,A,3943.443000,N,11619.234200,E,2.592,42.5,061118,,,A*48
$GPGGA,033258,3943.443000,N,11619.234200,E,1,4,1.0,82.6,M,0.0,M,,*73
$GPRMC,033303,A,3943.441200,N,11619.237800,E,3.240,42.5,061118,,,A*47
$GPGGA,033303,3943.441200,N,11619.237800,E,1,4,1.0,89.1,M,0.0,M,,*79
$GPRMC,033308,A,3943.439400,N,11619.237800,E,1.080,42.5,061118,,,A*49
$GPGGA,033308,3943.439400,N,11619.237800,E,1,4,1.0,94.2,M,0.0,M,,*74
$GPRMC,033313,A,3943.441200,N,11619.244400,E,1.080,42.5,061118,,,A*42
$GPGGA,033313,3943.441200,N,11619.244400,E,1,4,1.0,91.4,M,0.0,M,,*7C
$GPRMC,033318,A,3943.443600,N,11619.248000,E,0.972,42.5,061118,,,A*42
$GPGGA,033318,3943.443600,N,11619.248000,E,1,4,1.0,87.2,M,0.0,M,,*78
$GPRMC,033323,A,3943.444200,N,11619.249800,E,0.864,42.5,061118,,,A*46
$GPGGA,033323,3943.444200,N,11619.249800,E,1,4,1.0,82.9,M,0.0,M,,*74
$GPRMC,033328,A,3943.445400,N,11619.252200,E,1.242,42.5,061118,,,A*45
$GPGGA,033328,3943.445400,N,11619.252200,E,1,4,1.0,75.0,M,0.0,M,,*79
$GPRMC,033333,A,3943.445400,N,11619.252200,E,1.296,42.5,061118,,,A*46
$GPGGA,033333,3943.445400,N,11619.252200,E,1,4,1.0,68.2,M,0.0,M,,*7D
$GPRMC,033338,A,3943.446000,N,11619.253400,E,0.864,42.5,061118,,,A*4B
$GPGGA,033338,3943.446000,N,11619.253400,E,1,4,1.0,64.0,M,0.0,M,,*78
$GPRMC,033343,A,3943.446600,N,11619.254600,E,0.432,42.5,061118,,,A*4B
$GPGGA,033343,3943.446600,N,11619.254600,E,1,4,1.0,58.6,M,0.0,M,,*7E
$GPRMC,033348,A,3943.447200,N,11619.254000,E,0.162,42.5,061118,,,A*43
$GPGGA,033348,3943.447200,N,11619.254000,E,1,4,1.0,55.5,M,0.0,M,,*78
$GPRMC,033353,A,3943.448400,N,11619.255200,E,0.432,42.5,061118,,,A*43
$GPGGA,033353,3943.448400,N,11619.255200,E,1,4,1.0,52.1,M,0.0,M,,*7B
$GPRMC,033358,A,3943.447800,N,11619.254000,E,0.702,42.5,061118,,,A*48
$GPGGA,033358,3943.447800,N,11619.254000,E,1,4,1.0,55.8,M,0.0,M,,*7E
$GPRMC,033403,A,3943.447200,N,11619.254000,E,1.026,42.5,061118,,,A*4B
$GPGGA,033403,3943.447200,N,11619.254000,E,1,4,1.0,62.5,M,0.0,M,,*74
$GPRMC,033408,A,3943.446600,N,11619.253400,E,1.782,42.5,061118,,,A*4F
$GPGGA,033408,3943.446600,N,11619.253400,E,1,4,1.0,69.2,M,0.0,M,,*75
$GPRMC,033413,A,3943.445400,N,11619.250400,E,1.134,42.5,061118,,,A*4C
$GPGGA,033413,3943.445400,N,11619.250400,E,1,4,1.0,82.3,M,0.0,M,,*79
$GPRMC,033418,A,3943.443000,N,11619.246800,E,1.728,284.0,061118,,,A*78
$GPGGA,033418,3943.443000,N,11619.246800,E,1,4,1.0,96.3,M,0.0,M,,*7E
$GPRMC,033423,A,3943.443000,N,11619.248000,E,0.486,284.0,061118,,,A*70
$GPGGA,033423,3943.443000,N,11619.248000,E,1,4,1.0,99.8,M,0.0,M,,*74
$GPRMC,033428,A,3943.444200,N,11619.249800,E,0.486,284.0,061118,,,A*77
$GPGGA,033428,3943.444200,N,11619.249800,E,1,4,1.0,94.8,M,0.0,M,,*7E
$GPRMC,033433,A,3943.443600,N,11619.250400,E,1.134,284.0,061118,,,A*77
$GPGGA,033433,3943.443600,N,11619.250400,E,1,4,1.0,99.1,M,0.0,M,,*77
$GPRMC,033438,A,3943.441800,N,11619.248000,E,2.052,284.0,061118,,,A*7F
$GPGGA,033438,3943.441800,N,11619.248000,E,1,4,1.0,105.0,M,0.0,M,,*48
$GPRMC,033444,A,3943.438800,N,11619.243200,E,1.890,261.5,061118,,,A*78
$GPGGA,033444,3943.438800,N,11619.243200,E,1,4,1.0,115.5,M,0.0,M,,*40
$GPRMC,033449,A,3943.438800,N,11619.243800,E,0.594,261.5,061118,,,A*77
$GPGGA,033449,3943.438800,N,11619.243800,E,1,4,1.0,114.3,M,0.0,M,,*40
$GPRMC,033454,A,3943.438200,N,11619.245000,E,2.646,261.5,061118,,,A*71
$GPGGA,033454,3943.438200,N,11619.245000,E,1,4,1.0,113.7,M,0.0,M,,*4B
$GPRMC,033459,A,3943.438800,N,11619.249800,E,1.512,261.5,061118,,,A*73
$GPGGA,033459,3943.438800,N,11619.249800,E,1,3,1.0,105.7,M,0.0,M,,*48
$GPRMC,033504,A,3943.435800,N,11619.251000,E,2.646,261.5,061118,,,A*77
$GPGGA,033504,3943.435800,N,11619.251000,E,1,3,1.0,111.3,M,0.0,M,,*4C
$GPRMC,033509,A,3943.432800,N,11619.251000,E,2.052,261.5,061118,,,A*7E
$GPGGA,033509,3943.432800,N,11619.251000,E,1,3,1.0,111.0,M,0.0,M,,*45
$GPRMC,033514,A,3943.433400,N,11619.251600,E,2.862,261.5,061118,,,A*72
$GPGGA,033514,3943.433400,N,11619.251600,E,1,3,1.0,110.6,M,0.0,M,,*45
$GPRMC,033519,A,3943.434600,N,11619.249800,E,1.566,261.5,061118,,,A*77
$GPGGA,033519,3943.434600,N,11619.249800,E,1,3,1.0,110.4,M,0.0,M,,*48
$GPRMC,033524,A,3943.429800,N,11619.243800,E,4.212,261.5,061118,,,A*70
$GPGGA,033524,3943.429800,N,11619.243800,E,1,3,1.0,110.3,M,0.0,M,,*49
$GPRMC,033529,A,3943.432200,N,11619.243800,E,0.432,261.5,061118,,,A*7D
$GPGGA,033529,3943.432200,N,11619.243800,E,1,3,1.0,110.1,M,0.0,M,,*46
$GPRMC,033534,A,3943.431600,N,11619.244400,E,1.944,261.5,061118,,,A*70
$GPGGA,033534,3943.431600,N,11619.244400,E,1,0,1.0,110.1,M,0.0,M,,*45
$GPRMC,033539,A,3943.440000,N,11619.256400,E,5.670,261.5,061118,,,A*72
$GPGGA,033539,3943.440000,N,11619.256400,E,1,3,1.0,109.9,M,0.0,M,,*48
$GPRMC,033544,A,3943.445400,N,11619.253400,E,2.808,261.5,061118,,,A*7A
$GPGGA,033544,3943.445400,N,11619.253400,E,1,3,1.0,109.9,M,0.0,M,,*46
$GPRMC,033549,A,3943.445400,N,11619.252200,E,2.214,261.5,061118,,,A*77
$GPGGA,033549,3943.445400,N,11619.252200,E,1,3,1.0,109.8,M,0.0,M,,*4D
$GPRMC,033554,A,3943.447800,N,11619.252200,E,1.944,261.5,061118,,,A*78
$GPGGA,033554,3943.447800,N,11619.252200,E,1,3,1.0,109.8,M,0.0,M,,*4F
$GPRMC,033559,A,3943.446000,N,11619.238400,E,9.395,270.3,061118,,,A*7E
$GPGGA,033559,3943.446000,N,11619.238400,E,1,3,1.0,109.8,M,0.0,M,,*41
$GPRMC,033604,A,3943.443600,N,11619.228800,E,10.097,265.5,061118,,,A*40
$GPGGA,033604,3943.443600,N,11619.228800,E,1,0,1.0,109.7,M,0.0,M,,*48
$GPRMC,033611,A,3943.436400,N,11619.189800,E,10.907,256.8,061118,,,A*41
$GPGGA,033611,3943.436400,N,11619.189800,E,1,0,1.0,109.7,M,0.0,M,,*44
$GPRMC,033616,A,3943.435800,N,11619.156800,E,14.849,267.6,061118,,,A*48
$GPGGA,033616,3943.435800,N,11619.156800,E,1,3,1.0,109.6,M,0.0,M,,*4C
$GPRMC,033621,A,3943.416000,N,11619.068600,E,30.454,259.2,061118,,,A*48
$GPGGA,033621,3943.416000,N,11619.068600,E,1,4,1.0,109.2,M,0.0,M,,*40
$GPRMC,033626,A,3943.396800,N,11618.987000,E,38.121,255.3,061118,,,A*45
$GPGGA,033626,3943.396800,N,11618.987000,E,1,4,1.0,109.1,M,0.0,M,,*4C
$GPRMC,033631,A,3943.392000,N,11618.967200,E,41.091,256.2,061118,,,A*45
$GPGGA,033631,3943.392000,N,11618.967200,E,1,0,1.0,109.0,M,0.0,M,,*4F
$GPRMC,033639,A,3943.390200,N,11619.037400,E,1.296,256.2,061118,,,A*77
$GPGGA,033639,3943.390200,N,11619.037400,E,1,4,1.0,109.0,M,0.0,M,,*48
$GPRMC,033644,A,3943.425600,N,11619.184400,E,10.745,55.0,061118,,,A*71
$GPGGA,033644,3943.425600,N,11619.184400,E,1,4,1.0,122.8,M,0.0,M,,*47
$GPRMC,033649,A,3943.428000,N,11619.198800,E,4.914,61.4,061118,,,A*4A
$GPGGA,033649,3943.428000,N,11619.198800,E,1,3,1.0,126.9,M,0.0,M,,*42
$GPRMC,033658,A,3943.431000,N,11619.212000,E,3.564,61.4,061118,,,A*47
$GPGGA,033658,3943.431000,N,11619.212000,E,1,0,1.0,126.9,M,0.0,M,,*40
$GPRMC,033703,A,3943.429800,N,11619.204800,E,2.160,61.4,061118,,,A*47
$GPGGA,033703,3943.429800,N,11619.204800,E,1,3,1.0,122.9,M,0.0,M,,*46
$GPRMC,033708,A,3943.430400,N,11619.209000,E,1.728,61.4,061118,,,A*44
$GPGGA,033708,3943.430400,N,11619.209000,E,1,4,1.0,121.5,M,0.0,M,,*44
$GPRMC,033713,A,3943.437600,N,11619.234200,E,0.270,61.4,061118,,,A*4E
$GPGGA,033713,3943.437600,N,11619.234200,E,1,4,1.0,132.5,M,0.0,M,,*45
$GPRMC,033718,A,3943.438800,N,11619.245000,E,1.080,61.4,061118,,,A*4C
$GPGGA,033718,3943.438800,N,11619.245000,E,1,4,1.0,129.9,M,0.0,M,,*4D
$GPRMC,033723,A,3943.438800,N,11619.243800,E,2.808,330.4,061118,,,A*76
$GPGGA,033723,3943.438800,N,11619.243800,E,1,4,1.0,126.2,M,0.0,M,,*4F
$GPRMC,033728,A,3943.440000,N,11619.246200,E,1.242,26.5,061118,,,A*47
$GPGGA,033728,3943.440000,N,11619.246200,E,1,3,1.0,122.5,M,0.0,M,,*48
$GPRMC,033733,A,3943.441200,N,11619.246800,E,1.620,26.5,061118,,,A*44
$GPGGA,033733,3943.441200,N,11619.246800,E,1,4,1.0,119.3,M,0.0,M,,*42
$GPRMC,033738,A,3943.440600,N,11619.246200,E,1.566,26.5,061118,,,A*41
$GPGGA,033738,3943.440600,N,11619.246200,E,1,3,1.0,119.1,M,0.0,M,,*43
$GPRMC,033743,A,3943.440600,N,11619.249800,E,3.672,68.7,061118,,,A*44
$GPGGA,033743,3943.440600,N,11619.249800,E,1,4,1.0,118.9,M,0.0,M,,*44
$GPRMC,033748,A,3943.441200,N,11619.259400,E,3.132,72.4,061118,,,A*4C
$GPGGA,033748,3943.441200,N,11619.259400,E,1,3,1.0,125.9,M,0.0,M,,*4E
$GPRMC,033753,A,3943.438200,N,11619.247400,E,3.294,72.4,061118,,,A*48
$GPGGA,033753,3943.438200,N,11619.247400,E,1,4,1.0,122.1,M,0.0,M,,*4D
$GPRMC,033758,A,3943.438800,N,11619.241400,E,1.296,72.4,061118,,,A*4F
$GPGGA,033758,3943.438800,N,11619.241400,E,1,3,1.0,119.2,M,0.0,M,,*46
