$GPRMC,030828,A,3943.425000,N,11619.195800,E,1.080,0.0,061118,,,A*72
$GPGGA,03082800,3943.425000,N,11619.195800,E,1,5,1.0,0.0,M,0.0,M,,*42
$GPRMC,030919,A,3943.431600,N,11619.207200,E,1.620,0.0,061118,,,A*7C
$GPGGA,03091900,3943.431600,N,11619.207200,E,1,4,1.0,0.0,M,0.0,M,,*41
$GPRMC,030924,A,3943.431600,N,11619.192800,E,3.078,299.8,061118,,,A*74
$GPGGA,03092400,3943.431600,N,11619.192800,E,1,3,1.0,165.6,M,0.0,M,,*49
$GPRMC,030929,A,3943.431600,N,11619.188000,E,2.808,283.5,061118,,,A*72
$GPGGA,03092900,3943.431600,N,11619.188000,E,1,4,1.0,168.3,M,0.0,M,,*48
$GPRMC,030934,A,3943.428600,N,11619.198200,E,0.162,283.5,061118,,,A*72
$GPGGA,03093400,3943.428600,N,11619.198200,E,1,4,1.0,166.8,M,0.0,M,,*4A
$GPRMC,030939,A,3943.427400,N,11619.205400,E,0.486,283.5,061118,,,A*7C
$GPGGA,03093900,3943.427400,N,11619.205400,E,1,4,1.0,165.6,M,0.0,M,,*46
$GPRMC,030944,A,3943.426800,N,11619.210800,E,1.458,283.5,061118,,,A*71
$GPGGA,03094400,3943.426800,N,11619.210800,E,1,4,1.0,164.8,M,0.0,M,,*46
$GPRMC,030949,A,3943.426800,N,11619.211400,E,0.594,283.5,061118,,,A*71
$GPGGA,03094900,3943.426800,N,11619.211400,E,1,4,1.0,163.9,M,0.0,M,,*40
$GPRMC,030954,A,3943.426800,N,11619.209000,E,0.486,283.5,061118,,,A*72
$GPGGA,03095400,3943.426800,N,11619.209000,E,1,4,1.0,163.2,M,0.0,M,,*4A
$GPRMC,030959,A,3943.427400,N,11619.212600,E,0.756,283.5,061118,,,A*70
$GPGGA,03095900,3943.427400,N,11619.212600,E,1,4,1.0,162.5,M,0.0,M,,*40
$GPRMC,031004,A,3943.427400,N,11619.216800,E,0.972,283.5,061118,,,A*72
$GPGGA,03100400,3943.427400,N,11619.216800,E,1,4,1.0,161.9,M,0.0,M,,*45
$GPRMC,031009,A,3943.426200,N,11619.217400,E,0.378,283.5,061118,,,A*75
$GPGGA,03100900,3943.426200,N,11619.217400,E,1,4,1.0,161.2,M,0.0,M,,*49
$GPRMC,031014,A,3943.426200,N,11619.219200,E,0.486,283.5,061118,,,A*77
$GPGGA,03101400,3943.426200,N,11619.219200,E,1,3,1.0,161.1,M,0.0,M,,*49
$GPRMC,031019,A,3943.426200,N,11619.221600,E,0.594,283.5,061118,,,A*77
$GPGGA,03101900,3943.426200,N,11619.221600,E,1,4,1.0,160.9,M,0.0,M,,*45
$GPRMC,031024,A,3943.425000,N,11619.218000,E,1.350,283.5,061118,,,A*7B
$GPGGA,03102400,3943.425000,N,11619.218000,E,1,4,1.0,160.8,M,0.0,M,,*47
$GPRMC,031029,A,3943.424400,N,11619.213200,E,3.024,267.1,061118,,,A*76
$GPGGA,03102900,3943.424400,N,11619.213200,E,1,4,1.0,160.7,M,0.0,M,,*49
$GPRMC,031034,A,3943.422600,N,11619.203000,E,5.994,256.0,061118,,,A*7A
$GPGGA,03103400,3943.422600,N,11619.203000,E,1,0,1.0,160.7,M,0.0,M,,*46
$GPRMC,031039,A,3943.420200,N,11619.191600,E,5.184,254.3,061118,,,A*77
$GPGGA,03103900,3943.420200,N,11619.191600,E,1,4,1.0,160.8,M,0.0,M,,*48
$GPRMC,031044,A,3943.421400,N,11619.197600,E,1.728,256.0,061118,,,A*79
$GPGGA,03104400,3943.421400,N,11619.197600,E,1,4,1.0,160.8,M,0.0,M,,*43
$GPRMC,031049,A,3943.420800,N,11619.196400,E,0.810,256.0,061118,,,A*7F
$GPGGA,03104900,3943.420800,N,11619.196400,E,1,4,1.0,160.9,M,0.0,M,,*41
$GPRMC,031054,A,3943.421400,N,11619.198200,E,0.270,256.0,061118,,,A*7A
$GPGGA,03105400,3943.421400,N,11619.198200,E,1,4,1.0,161.0,M,0.0,M,,*40
$GPRMC,031059,A,3943.421400,N,11619.203000,E,1.242,256.0,061118,,,A*74
$GPGGA,03105900,3943.421400,N,11619.203000,E,1,4,1.0,161.0,M,0.0,M,,*4E
$GPRMC,031104,A,3943.421400,N,11619.204800,E,0.432,256.0,061118,,,A*72
$GPGGA,03110400,3943.421400,N,11619.204800,E,1,3,1.0,161.0,M,0.0,M,,*4F
$GPRMC,031109,A,3943.422000,N,11619.206000,E,0.216,256.0,061118,,,A*72
$GPGGA,03110900,3943.422000,N,11619.206000,E,1,4,1.0,161.0,M,0.0,M,,*48
$GPRMC,031114,A,3943.422600,N,11619.207200,E,0.162,256.0,061118,,,A*7B
$GPGGA,03111400,3943.422600,N,11619.207200,E,1,4,1.0,161.0,M,0.0,M,,*41
$GPRMC,031119,A,3943.422600,N,11619.209000,E,0.108,256.0,061118,,,A*76
$GPGGA,03111900,3943.422600,N,11619.209000,E,1,4,1.0,161.0,M,0.0,M,,*40
$GPRMC,031124,A,3943.423200,N,11619.212000,E,0.540,256.0,061118,,,A*7F
$GPGGA,03112400,3943.423200,N,11619.212000,E,1,4,1.0,161.1,M,0.0,M,,*40
$GPRMC,031129,A,3943.423800,N,11619.213200,E,0.108,256.0,061118,,,A*73
$GPGGA,03112900,3943.423800,N,11619.213200,E,1,4,1.0,161.1,M,0.0,M,,*44
$GPRMC,031134,A,3943.423800,N,11619.213200,E,0.108,256.0,061118,,,A*7F
$GPGGA,03113400,3943.423800,N,11619.213200,E,1,4,1.0,161.1,M,0.0,M,,*48
$GPRMC,031139,A,3943.425000,N,11619.211400,E,0.162,256.0,061118,,,A*74
$GPGGA,03113900,3943.425000,N,11619.211400,E,1,4,1.0,161.0,M,0.0,M,,*4E
$GPRMC,031144,A,3943.425600,N,11619.209600,E,0.000,256.0,061118,,,A*76
$GPGGA,03114400,3943.425600,N,11619.209600,E,1,4,1.0,161.0,M,0.0,M,,*49
$GPRMC,031150,A,3943.426200,N,11619.209000,E,0.054,256.0,061118,,,A*73
$GPGGA,03115000,3943.426200,N,11619.209000,E,1,4,1.0,161.0,M,0.0,M,,*4D
$GPRMC,031155,A,3943.426800,N,11619.209000,E,0.162,256.0,061118,,,A*78
$GPGGA,03115500,3943.426800,N,11619.209000,E,1,4,1.0,160.9,M,0.0,M,,*4A
$GPRMC,031200,A,3943.428000,N,11619.209600,E,0.216,256.0,061118,,,A*7B
$GPGGA,03120000,3943.428000,N,11619.209600,E,1,4,1.0,160.9,M,0.0,M,,*49
$GPRMC,031205,A,3943.428000,N,11619.210200,E,0.054,256.0,061118,,,A*76
$GPGGA,03120500,3943.428000,N,11619.210200,E,1,4,1.0,160.8,M,0.0,M,,*41
$GPRMC,031210,A,3943.428600,N,11619.210200,E,0.000,256.0,061118,,,A*75
$GPGGA,03121000,3943.428600,N,11619.210200,E,1,4,1.0,160.7,M,0.0,M,,*4C
$GPRMC,031215,A,3943.428600,N,11619.209600,E,0.162,256.0,061118,,,A*79
$GPGGA,03121500,3943.428600,N,11619.209600,E,1,4,1.0,160.7,M,0.0,M,,*45
$GPRMC,031220,A,3943.428600,N,11619.209000,E,0.216,256.0,061118,,,A*79
$GPGGA,03122000,3943.428600,N,11619.209000,E,1,4,1.0,160.5,M,0.0,M,,*47
$GPRMC,031225,A,3943.429200,N,11619.207200,E,0.540,256.0,061118,,,A*71
$GPGGA,03122500,3943.429200,N,11619.207200,E,1,4,1.0,160.2,M,0.0,M,,*4C
$GPRMC,031230,A,3943.429800,N,11619.204800,E,1.134,256.0,061118,,,A*70
$GPGGA,03123000,3943.429800,N,11619.204800,E,1,3,1.0,160.4,M,0.0,M,,*4A
$GPRMC,031235,A,3943.429800,N,11619.204800,E,1.026,256.0,061118,,,A*77
$GPGGA,03123500,3943.429800,N,11619.204800,E,1,3,1.0,160.1,M,0.0,M,,*4A
$GPRMC,031240,A,3943.429800,N,11619.205400,E,0.972,256.0,061118,,,A*71
$GPGGA,03124000,3943.429800,N,11619.205400,E,1,3,1.0,160.0,M,0.0,M,,*44
$GPRMC,031245,A,3943.429800,N,11619.206000,E,0.270,256.0,061118,,,A*7A
$GPGGA,03124500,3943.429800,N,11619.206000,E,1,0,1.0,160.0,M,0.0,M,,*45
$GPRMC,031250,A,3943.429200,N,11619.198800,E,2.160,256.0,061118,,,A*78
$GPGGA,03125000,3943.429200,N,11619.198800,E,1,4,1.0,159.9,M,0.0,M,,*40
$GPRMC,031255,A,3943.431000,N,11619.195800,E,1.350,256.0,061118,,,A*79
$GPGGA,03125500,3943.431000,N,11619.195800,E,1,4,1.0,159.9,M,0.0,M,,*43
$GPRMC,031300,A,3943.432200,N,11619.192800,E,1.674,256.0,061118,,,A*7D
$GPGGA,03130000,3943.432200,N,11619.192800,E,1,4,1.0,159.9,M,0.0,M,,*44
$GPRMC,031305,A,3943.433400,N,11619.191000,E,1.404,256.0,061118,,,A*71
$GPGGA,03130500,3943.433400,N,11619.191000,E,1,4,1.0,159.9,M,0.0,M,,*4D
$GPRMC,031310,A,3943.432800,N,11619.192200,E,0.702,256.0,061118,,,A*7D
$GPGGA,03131000,3943.432800,N,11619.192200,E,1,4,1.0,159.8,M,0.0,M,,*44
$GPRMC,031315,A,3943.433400,N,11619.189800,E,1.782,256.0,061118,,,A*7C
$GPGGA,03131500,3943.433400,N,11619.189800,E,1,4,1.0,159.8,M,0.0,M,,*4C
$GPRMC,031320,A,3943.434000,N,11619.191600,E,1.134,256.0,061118,,,A*75
$GPGGA,03132000,3943.434000,N,11619.191600,E,1,4,1.0,159.8,M,0.0,M,,*4E
$GPRMC,031325,A,3943.434000,N,11619.185600,E,3.078,256.0,061118,,,A*7E
$GPGGA,03132500,3943.434000,N,11619.185600,E,1,0,1.0,159.8,M,0.0,M,,*4A
$GPRMC,031332,A,3943.431000,N,11619.182000,E,2.268,256.0,061118,,,A*7E
$GPGGA,03133200,3943.431000,N,11619.182000,E,1,0,1.0,159.8,M,0.0,M,,*48
$GPRMC,031337,A,3943.432800,N,11619.207200,E,1.944,256.0,061118,,,A*7A
$GPGGA,03133700,3943.432800,N,11619.207200,E,1,3,1.0,159.8,M,0.0,M,,*49
$GPRMC,031342,A,3943.432800,N,11619.215600,E,1.458,256.0,061118,,,A*7F
$GPGGA,03134200,3943.432800,N,11619.215600,E,1,4,1.0,159.8,M,0.0,M,,*4B
$GPRMC,031347,A,3943.432800,N,11619.216800,E,0.540,256.0,061118,,,A*7E
$GPGGA,03134700,3943.432800,N,11619.216800,E,1,4,1.0,159.8,M,0.0,M,,*43
$GPRMC,031352,A,3943.433400,N,11619.219800,E,0.702,256.0,061118,,,A*7C
$GPGGA,03135200,3943.433400,N,11619.219800,E,1,4,1.0,159.8,M,0.0,M,,*45
$GPRMC,031357,A,3943.433400,N,11619.221600,E,0.702,256.0,061118,,,A*7C
$GPGGA,03135700,3943.433400,N,11619.221600,E,1,4,1.0,159.8,M,0.0,M,,*45
$GPRMC,031402,A,3943.433400,N,11619.221000,E,0.054,256.0,061118,,,A*79
$GPGGA,03140200,3943.433400,N,11619.221000,E,1,4,1.0,159.8,M,0.0,M,,*44
$GPRMC,031407,A,3943.433400,N,11619.219200,E,0.216,256.0,061118,,,A*71
$GPGGA,03140700,3943.433400,N,11619.219200,E,1,4,1.0,159.8,M,0.0,M,,*48
$GPRMC,031412,A,3943.433400,N,11619.218000,E,0.432,256.0,061118,,,A*76
$GPGGA,03141200,3943.433400,N,11619.218000,E,1,4,1.0,159.7,M,0.0,M,,*40
$GPRMC,031417,A,3943.432800,N,11619.218000,E,0.486,256.0,061118,,,A*71
$GPGGA,03141700,3943.432800,N,11619.218000,E,1,4,1.0,159.7,M,0.0,M,,*48
$GPRMC,031422,A,3943.432200,N,11619.216800,E,0.162,256.0,061118,,,A*74
$GPGGA,03142200,3943.432200,N,11619.216800,E,1,4,1.0,159.7,M,0.0,M,,*42
$GPRMC,031427,A,3943.431600,N,11619.215000,E,0.270,256.0,061118,,,A*7D
$GPGGA,03142700,3943.431600,N,11619.215000,E,1,4,1.0,159.7,M,0.0,M,,*4B
$GPRMC,031432,A,3943.431600,N,11619.215600,E,0.810,256.0,061118,,,A*73
$GPGGA,03143200,3943.431600,N,11619.215600,E,1,4,1.0,159.7,M,0.0,M,,*49
$GPRMC,031437,A,3943.431000,N,11619.214400,E,0.162,256.0,061118,,,A*7F
$GPGGA,03143700,3943.431000,N,11619.214400,E,1,4,1.0,159.6,M,0.0,M,,*48
$GPRMC,031442,A,3943.430400,N,11619.212000,E,0.594,256.0,061118,,,A*77
$GPGGA,03144200,3943.430400,N,11619.212000,E,1,4,1.0,159.5,M,0.0,M,,*4E
$GPRMC,031447,A,3943.429800,N,11619.207200,E,1.998,256.0,061118,,,A*71
$GPGGA,03144700,3943.429800,N,11619.207200,E,1,4,1.0,159.3,M,0.0,M,,*4F
$GPRMC,031452,A,3943.429800,N,11619.206000,E,0.918,256.0,061118,,,A*7F
$GPGGA,03145200,3943.429800,N,11619.206000,E,1,4,1.0,158.9,M,0.0,M,,*43
$GPRMC,031457,A,3943.429800,N,11619.210200,E,1.026,256.0,061118,,,A*7A
$GPGGA,03145700,3943.429800,N,11619.210200,E,1,4,1.0,158.7,M,0.0,M,,*4D
$GPRMC,031502,A,3943.428600,N,11619.208400,E,0.162,256.0,061118,,,A*7B
$GPGGA,03150200,3943.428600,N,11619.208400,E,1,4,1.0,159.2,M,0.0,M,,*48
$GPRMC,031507,A,3943.428000,N,11619.198800,E,1.998,256.0,061118,,,A*72
$GPGGA,03150700,3943.428000,N,11619.198800,E,1,4,1.0,159.1,M,0.0,M,,*4E
$GPRMC,031512,A,3943.427400,N,11619.191600,E,2.376,263.7,061118,,,A*72
$GPGGA,03151200,3943.427400,N,11619.191600,E,1,4,1.0,158.9,M,0.0,M,,*4F
$GPRMC,031517,A,3943.426800,N,11619.191000,E,1.188,264.2,061118,,,A*7E
$GPGGA,03151700,3943.426800,N,11619.191000,E,1,3,1.0,158.8,M,0.0,M,,*47
$GPRMC,031522,A,3943.426800,N,11619.188600,E,0.864,264.2,061118,,,A*7C
$GPGGA,03152200,3943.426800,N,11619.188600,E,1,4,1.0,158.8,M,0.0,M,,*48
$GPRMC,031527,A,3943.428000,N,11619.188000,E,1.188,264.2,061118,,,A*73
$GPGGA,03152700,3943.428000,N,11619.188000,E,1,4,1.0,158.8,M,0.0,M,,*4D
$GPRMC,031532,A,3943.429200,N,11619.179000,E,2.646,264.2,061118,,,A*7C
$GPGGA,03153200,3943.429200,N,11619.179000,E,1,4,1.0,158.8,M,0.0,M,,*44
$GPRMC,031537,A,3943.428000,N,11619.177800,E,1.674,264.2,061118,,,A*7E
$GPGGA,03153700,3943.428000,N,11619.177800,E,1,4,1.0,158.8,M,0.0,M,,*44
$GPRMC,031542,A,3943.428000,N,11619.186200,E,1.026,264.2,061118,,,A*79
$GPGGA,03154200,3943.428000,N,11619.186200,E,1,4,1.0,158.8,M,0.0,M,,*42
$GPRMC,031547,A,3943.429800,N,11619.194000,E,2.430,264.2,061118,,,A*74
$GPGGA,03154700,3943.429800,N,11619.194000,E,1,4,1.0,158.8,M,0.0,M,,*4F
$GPRMC,031552,A,3943.429800,N,11619.200600,E,1.566,264.2,061118,,,A*79
$GPGGA,03155200,3943.429800,N,11619.200600,E,1,3,1.0,158.8,M,0.0,M,,*44
$GPRMC,031558,A,3943.428600,N,11619.205400,E,1.188,264.2,061118,,,A*7F
$GPGGA,03155800,3943.428600,N,11619.205400,E,1,4,1.0,158.8,M,0.0,M,,*41
$GPRMC,031603,A,3943.426200,N,11619.205400,E,0.108,264.2,061118,,,A*71
$GPGGA,03160300,3943.426200,N,11619.205400,E,1,4,1.0,158.8,M,0.0,M,,*46
$GPRMC,031608,A,3943.425600,N,11619.209000,E,0.324,264.2,061118,,,A*79
$GPGGA,03160800,3943.425600,N,11619.209000,E,1,4,1.0,158.8,M,0.0,M,,*42
$GPRMC,031613,A,3943.426800,N,11619.213800,E,1.080,264.2,061118,,,A*71
$GPGGA,03161300,3943.426800,N,11619.213800,E,1,4,1.0,158.8,M,0.0,M,,*46
$GPRMC,031618,A,3943.428000,N,11619.219200,E,1.026,264.2,061118,,,A*70
$GPGGA,03161800,3943.428000,N,11619.219200,E,1,4,1.0,158.8,M,0.0,M,,*4B
$GPRMC,031623,A,3943.428600,N,11619.221600,E,0.432,264.2,061118,,,A*71
$GPGGA,03162300,3943.428600,N,11619.221600,E,1,4,1.0,158.7,M,0.0,M,,*45
$GPRMC,031628,A,3943.429200,N,11619.222800,E,0.216,264.2,061118,,,A*72
$GPGGA,03162800,3943.429200,N,11619.222800,E,1,4,1.0,158.6,M,0.0,M,,*47
$GPRMC,031633,A,3943.429200,N,11619.224600,E,0.324,264.2,061118,,,A*70
$GPGGA,03163300,3943.429200,N,11619.224600,E,1,4,1.0,158.5,M,0.0,M,,*46
$GPRMC,031638,A,3943.429200,N,11619.225800,E,0.054,264.2,061118,,,A*70
$GPGGA,03163800,3943.429200,N,11619.225800,E,1,4,1.0,158.4,M,0.0,M,,*43
$GPRMC,031643,A,3943.428600,N,11619.226400,E,0.216,264.2,061118,,,A*72
$GPGGA,03164300,3943.428600,N,11619.226400,E,1,4,1.0,158.3,M,0.0,M,,*42
$GPRMC,031648,A,3943.428600,N,11619.226400,E,0.162,264.2,061118,,,A*79
$GPGGA,03164800,3943.428600,N,11619.226400,E,1,4,1.0,158.0,M,0.0,M,,*4A
$GPRMC,031653,A,3943.429200,N,11619.228200,E,0.378,264.2,061118,,,A*77
$GPGGA,03165300,3943.429200,N,11619.228200,E,1,4,1.0,157.8,M,0.0,M,,*4A
$GPRMC,031658,A,3943.429200,N,11619.228800,E,0.054,264.2,061118,,,A*7B
$GPGGA,03165800,3943.429200,N,11619.228800,E,1,4,1.0,157.5,M,0.0,M,,*46
$GPRMC,031703,A,3943.429200,N,11619.230600,E,0.054,264.2,061118,,,A*73
$GPGGA,03170300,3943.429200,N,11619.230600,E,1,4,1.0,157.3,M,0.0,M,,*48
$GPRMC,031708,A,3943.430400,N,11619.233600,E,0.864,264.2,061118,,,A*7E
$GPGGA,03170800,3943.430400,N,11619.233600,E,1,4,1.0,156.9,M,0.0,M,,*45
$GPRMC,031713,A,3943.431000,N,11619.234200,E,0.432,264.2,061118,,,A*7D
$GPGGA,03171300,3943.431000,N,11619.234200,E,1,4,1.0,156.5,M,0.0,M,,*45
$GPRMC,031718,A,3943.431000,N,11619.233600,E,0.270,264.2,061118,,,A*75
$GPGGA,03171800,3943.431000,N,11619.233600,E,1,4,1.0,156.1,M,0.0,M,,*49
$GPRMC,031723,A,3943.431000,N,11619.233000,E,0.324,264.2,061118,,,A*7B
$GPGGA,03172300,3943.431000,N,11619.233000,E,1,4,1.0,155.4,M,0.0,M,,*41
$GPRMC,031728,A,3943.431000,N,11619.234200,E,0.486,264.2,061118,,,A*7A
$GPGGA,03172800,3943.431000,N,11619.234200,E,1,4,1.0,155.0,M,0.0,M,,*4B
$GPRMC,031733,A,3943.431600,N,11619.234200,E,0.216,264.2,061118,,,A*79
$GPGGA,03173300,3943.431600,N,11619.234200,E,1,4,1.0,154.2,M,0.0,M,,*44
$GPRMC,031738,A,3943.431600,N,11619.233600,E,0.108,264.2,061118,,,A*7D
$GPGGA,03173800,3943.431600,N,11619.233600,E,1,4,1.0,153.5,M,0.0,M,,*4C
$GPRMC,031743,A,3943.431600,N,11619.232400,E,0.054,264.2,061118,,,A*7A
$GPGGA,03174300,3943.431600,N,11619.232400,E,1,4,1.0,152.8,M,0.0,M,,*4F
$GPRMC,031748,A,3943.432200,N,11619.232400,E,0.162,264.2,061118,,,A*72
$GPGGA,03174800,3943.432200,N,11619.232400,E,1,4,1.0,151.9,M,0.0,M,,*41
$GPRMC,031753,A,3943.432200,N,11619.229400,E,0.972,264.2,061118,,,A*7B
$GPGGA,03175300,3943.432200,N,11619.229400,E,1,4,1.0,150.6,M,0.0,M,,*4F
$GPRMC,031758,A,3943.433400,N,11619.228200,E,0.972,264.2,061118,,,A*70
$GPGGA,03175800,3943.433400,N,11619.228200,E,1,4,1.0,148.5,M,0.0,M,,*4E
$GPRMC,031803,A,3943.434600,N,11619.227600,E,0.486,264.2,061118,,,A*79
$GPGGA,03180300,3943.434600,N,11619.227600,E,1,4,1.0,146.0,M,0.0,M,,*4A
$GPRMC,031809,A,3943.435800,N,11619.229400,E,0.432,264.2,061118,,,A*7F
$GPGGA,03180900,3943.435800,N,11619.229400,E,1,4,1.0,142.7,M,0.0,M,,*40
$GPRMC,031814,A,3943.437600,N,11619.230600,E,1.134,264.2,061118,,,A*77
$GPGGA,03181400,3943.437600,N,11619.230600,E,1,4,1.0,137.6,M,0.0,M,,*49
$GPRMC,031819,A,3943.438200,N,11619.230600,E,0.540,264.2,061118,,,A*77
$GPGGA,03181900,3943.438200,N,11619.230600,E,1,4,1.0,133.9,M,0.0,M,,*44
$GPRMC,031824,A,3943.439400,N,11619.230600,E,0.432,264.2,061118,,,A*7A
$GPGGA,03182400,3943.439400,N,11619.230600,E,1,4,1.0,130.3,M,0.0,M,,*44
$GPRMC,031829,A,3943.440600,N,11619.230600,E,0.378,264.2,061118,,,A*72
$GPGGA,03182900,3943.440600,N,11619.230600,E,1,4,1.0,127.7,M,0.0,M,,*47
$GPRMC,031834,A,3943.438200,N,11619.223400,E,1.296,264.2,061118,,,A*75
$GPGGA,03183400,3943.438200,N,11619.223400,E,1,3,1.0,138.2,M,0.0,M,,*4C
$GPRMC,031839,A,3943.438800,N,11619.225200,E,0.486,264.2,061118,,,A*74
$GPGGA,03183900,3943.438800,N,11619.225200,E,1,3,1.0,134.9,M,0.0,M,,*4C
$GPRMC,031844,A,3943.438800,N,11619.227000,E,0.324,264.2,061118,,,A*71
$GPGGA,03184400,3943.438800,N,11619.227000,E,1,4,1.0,133.1,M,0.0,M,,*4E
$GPRMC,031849,A,3943.438200,N,11619.228200,E,1.026,264.2,061118,,,A*7B
$GPGGA,03184900,3943.438200,N,11619.228200,E,1,4,1.0,132.8,M,0.0,M,,*4C
$GPRMC,031854,A,3943.437000,N,11619.226400,E,0.216,264.2,061118,,,A*72
$GPGGA,03185400,3943.437000,N,11619.226400,E,1,4,1.0,132.9,M,0.0,M,,*44
$GPRMC,031859,A,3943.435800,N,11619.226400,E,0.324,264.2,061118,,,A*75
$GPGGA,03185900,3943.435800,N,11619.226400,E,1,4,1.0,132.8,M,0.0,M,,*42
$GPRMC,031904,A,3943.435800,N,11619.226400,E,0.270,264.2,061118,,,A*7C
$GPGGA,03190400,3943.435800,N,11619.226400,E,1,4,1.0,132.7,M,0.0,M,,*44
$GPRMC,031909,A,3943.435800,N,11619.227000,E,0.054,264.2,061118,,,A*70
$GPGGA,03190900,3943.435800,N,11619.227000,E,1,4,1.0,132.6,M,0.0,M,,*4D
$GPRMC,031914,A,3943.435200,N,11619.227000,E,0.324,264.2,061118,,,A*72
$GPGGA,03191400,3943.435200,N,11619.227000,E,1,4,1.0,132.5,M,0.0,M,,*48
$GPRMC,031919,A,3943.434600,N,11619.227600,E,0.540,264.2,061118,,,A*78
$GPGGA,03191900,3943.434600,N,11619.227600,E,1,4,1.0,132.2,M,0.0,M,,*41
$GPRMC,031924,A,3943.433400,N,11619.228800,E,0.864,264.2,061118,,,A*79
$GPGGA,03192400,3943.433400,N,11619.228800,E,1,4,1.0,132.0,M,0.0,M,,*49
$GPRMC,031929,A,3943.435800,N,11619.232400,E,1.782,264.2,061118,,,A*7F
$GPGGA,03192900,3943.435800,N,11619.232400,E,1,4,1.0,131.9,M,0.0,M,,*43
$GPRMC,031934,A,3943.436400,N,11619.234200,E,1.134,264.2,061118,,,A*77
$GPGGA,03193400,3943.436400,N,11619.234200,E,1,4,1.0,131.8,M,0.0,M,,*41
$GPRMC,031939,A,3943.437000,N,11619.236600,E,0.864,264.2,061118,,,A*74
$GPGGA,03193900,3943.437000,N,11619.236600,E,1,4,1.0,131.5,M,0.0,M,,*42
$GPRMC,031944,A,3943.437600,N,11619.237200,E,0.540,264.2,061118,,,A*76
$GPGGA,03194400,3943.437600,N,11619.237200,E,1,4,1.0,131.2,M,0.0,M,,*4C
$GPRMC,031949,A,3943.438200,N,11619.237800,E,0.540,264.2,061118,,,A*7A
$GPGGA,03194900,3943.438200,N,11619.237800,E,1,4,1.0,130.9,M,0.0,M,,*4A
$GPRMC,031954,A,3943.437600,N,11619.237200,E,0.108,264.2,061118,,,A*7F
$GPGGA,03195400,3943.437600,N,11619.237200,E,1,4,1.0,130.8,M,0.0,M,,*46
$GPRMC,031959,A,3943.437600,N,11619.236000,E,0.162,264.2,061118,,,A*7D
$GPGGA,03195900,3943.437600,N,11619.236000,E,1,4,1.0,130.8,M,0.0,M,,*48
$GPRMC,032004,A,3943.437000,N,11619.234800,E,0.216,264.2,061118,,,A*73
$GPGGA,03200400,3943.437000,N,11619.234800,E,1,4,1.0,130.8,M,0.0,M,,*46
$GPRMC,032009,A,3943.437000,N,11619.233000,E,0.162,264.2,061118,,,A*71
$GPGGA,03200900,3943.437000,N,11619.233000,E,1,4,1.0,130.9,M,0.0,M,,*45
$GPRMC,032014,A,3943.437000,N,11619.233000,E,0.270,264.2,061118,,,A*7D
$GPGGA,03201400,3943.437000,N,11619.233000,E,1,4,1.0,131.2,M,0.0,M,,*43
$GPRMC,032019,A,3943.436400,N,11619.233600,E,0.432,264.2,061118,,,A*73
$GPGGA,03201900,3943.436400,N,11619.233600,E,1,4,1.0,131.8,M,0.0,M,,*47
$GPRMC,032025,A,3943.436400,N,11619.232400,E,0.378,264.2,061118,,,A*76
$GPGGA,03202500,3943.436400,N,11619.232400,E,1,4,1.0,132.4,M,0.0,M,,*44
$GPRMC,032030,A,3943.437000,N,11619.233000,E,0.054,264.2,061118,,,A*7F
$GPGGA,03203000,3943.437000,N,11619.233000,E,1,4,1.0,132.5,M,0.0,M,,*41
$GPRMC,032035,A,3943.437600,N,11619.233000,E,0.054,264.2,061118,,,A*7C
$GPGGA,03203500,3943.437600,N,11619.233000,E,1,4,1.0,132.0,M,0.0,M,,*47
$GPRMC,032040,A,3943.437600,N,11619.234200,E,0.810,264.2,061118,,,A*73
$GPGGA,03204000,3943.437600,N,11619.234200,E,1,4,1.0,131.5,M,0.0,M,,*46
$GPRMC,032045,A,3943.438200,N,11619.234200,E,0.324,264.2,061118,,,A*71
$GPGGA,03204500,3943.438200,N,11619.234200,E,1,4,1.0,130.9,M,0.0,M,,*45
$GPRMC,032050,A,3943.438200,N,11619.234800,E,0.162,264.2,061118,,,A*7F
$GPGGA,03205000,3943.438200,N,11619.234800,E,1,4,1.0,130.7,M,0.0,M,,*45
$GPRMC,032055,A,3943.438200,N,11619.234800,E,0.000,264.2,061118,,,A*7F
$GPGGA,03205500,3943.438200,N,11619.234800,E,1,4,1.0,131.1,M,0.0,M,,*47
$GPRMC,032100,A,3943.438200,N,11619.236600,E,0.054,264.2,061118,,,A*73
$GPGGA,03210000,3943.438200,N,11619.236600,E,1,3,1.0,130.9,M,0.0,M,,*44
$GPRMC,032105,A,3943.438200,N,11619.238400,E,0.324,264.2,061118,,,A*7E
$GPGGA,03210500,3943.438200,N,11619.238400,E,1,4,1.0,130.9,M,0.0,M,,*4A
$GPRMC,032110,A,3943.438200,N,11619.238400,E,0.000,264.2,061118,,,A*7F
$GPGGA,03211000,3943.438200,N,11619.238400,E,1,4,1.0,130.8,M,0.0,M,,*4F
$GPRMC,032115,A,3943.438200,N,11619.237800,E,0.324,264.2,061118,,,A*7C
$GPGGA,03211500,3943.438200,N,11619.237800,E,1,4,1.0,130.8,M,0.0,M,,*49
$GPRMC,032120,A,3943.438200,N,11619.237200,E,0.216,264.2,061118,,,A*70
$GPGGA,03212000,3943.438200,N,11619.237200,E,1,4,1.0,130.7,M,0.0,M,,*4A
$GPRMC,032125,A,3943.438200,N,11619.237200,E,0.108,264.2,061118,,,A*79
$GPGGA,03212500,3943.438200,N,11619.237200,E,1,4,1.0,130.5,M,0.0,M,,*4D
$GPRMC,032130,A,3943.438800,N,11619.238400,E,0.756,264.2,061118,,,A*73
$GPGGA,03213000,3943.438800,N,11619.238400,E,1,4,1.0,130.3,M,0.0,M,,*4C
$GPRMC,032135,A,3943.439400,N,11619.243200,E,2.376,119.2,061118,,,A*7C
$GPGGA,03213500,3943.439400,N,11619.243200,E,1,4,1.0,130.2,M,0.0,M,,*4F
$GPRMC,032140,A,3943.439400,N,11619.245600,E,1.134,82.0,061118,,,A*4A
$GPGGA,03214000,3943.439400,N,11619.245600,E,1,4,1.0,130.1,M,0.0,M,,*4C
$GPRMC,032145,A,3943.439400,N,11619.244400,E,0.162,82.0,061118,,,A*4E
$GPGGA,03214500,3943.439400,N,11619.244400,E,1,4,1.0,130.1,M,0.0,M,,*4A
$GPRMC,032150,A,3943.438200,N,11619.236600,E,2.754,243.6,061118,,,A*72
$GPGGA,03215000,3943.438200,N,11619.236600,E,1,3,1.0,130.0,M,0.0,M,,*48
$GPRMC,032155,A,3943.437600,N,11619.233600,E,1.620,259.2,061118,,,A*77
$GPGGA,03215500,3943.437600,N,11619.233600,E,1,3,1.0,130.0,M,0.0,M,,*43
$GPRMC,032200,A,3943.437000,N,11619.231200,E,0.486,259.4,061118,,,A*7D
$GPGGA,03220000,3943.437000,N,11619.231200,E,1,3,1.0,130.1,M,0.0,M,,*41
$GPRMC,032205,A,3943.437000,N,11619.230000,E,0.270,259.4,061118,,,A*74
$GPGGA,03220500,3943.437000,N,11619.230000,E,1,3,1.0,130.1,M,0.0,M,,*47
$GPRMC,032210,A,3943.436400,N,11619.230600,E,0.486,259.4,061118,,,A*7C
$GPGGA,03221000,3943.436400,N,11619.230600,E,1,4,1.0,130.0,M,0.0,M,,*46
$GPRMC,032215,A,3943.436400,N,11619.227600,E,0.918,259.4,061118,,,A*75
$GPGGA,03221500,3943.436400,N,11619.227600,E,1,4,1.0,130.0,M,0.0,M,,*45
$GPRMC,032220,A,3943.437000,N,11619.228200,E,0.162,259.4,061118,,,A*78
$GPGGA,03222000,3943.437000,N,11619.228200,E,1,4,1.0,130.0,M,0.0,M,,*4D
$GPRMC,032225,A,3943.437600,N,11619.227600,E,0.594,259.4,061118,,,A*7D
$GPGGA,03222500,3943.437600,N,11619.227600,E,1,4,1.0,130.0,M,0.0,M,,*45
$GPRMC,032230,A,3943.437600,N,11619.228200,E,0.432,259.4,061118,,,A*7F
$GPGGA,03223000,3943.437600,N,11619.228200,E,1,4,1.0,129.9,M,0.0,M,,*4B
$GPRMC,032235,A,3943.437600,N,11619.230000,E,0.702,259.4,061118,,,A*71
$GPGGA,03223500,3943.437600,N,11619.230000,E,1,4,1.0,129.9,M,0.0,M,,*45
$GPRMC,032241,A,3943.438800,N,11619.230600,E,0.540,259.4,061118,,,A*71
$GPGGA,03224100,3943.438800,N,11619.230600,E,1,4,1.0,129.7,M,0.0,M,,*4F
$GPRMC,032246,A,3943.440600,N,11619.231200,E,1.134,259.4,061118,,,A*74
$GPGGA,03224600,3943.440600,N,11619.231200,E,1,4,1.0,129.6,M,0.0,M,,*4D
$GPRMC,032251,A,3943.443000,N,11619.233600,E,1.998,259.4,061118,,,A*7F
$GPGGA,03225100,3943.443000,N,11619.233600,E,1,4,1.0,129.4,M,0.0,M,,*4A
$GPRMC,032256,A,3943.445400,N,11619.236600,E,1.782,259.4,061118,,,A*7A
$GPGGA,03225600,3943.445400,N,11619.236600,E,1,4,1.0,129.2,M,0.0,M,,*4C
$GPRMC,032301,A,3943.446000,N,11619.238400,E,1.026,259.4,061118,,,A*7B
$GPGGA,03230100,3943.446000,N,11619.238400,E,1,4,1.0,129.0,M,0.0,M,,*46
$GPRMC,032306,A,3943.444200,N,11619.239600,E,0.756,259.4,061118,,,A*7E
$GPGGA,03230600,3943.444200,N,11619.239600,E,1,4,1.0,128.6,M,0.0,M,,*45
$GPRMC,032311,A,3943.444200,N,11619.241400,E,1.134,259.4,061118,,,A*76
$GPGGA,03231100,3943.444200,N,11619.241400,E,1,4,1.0,128.4,M,0.0,M,,*4C
$GPRMC,032316,A,3943.443600,N,11619.242000,E,0.702,259.4,061118,,,A*77
$GPGGA,03231600,3943.443600,N,11619.242000,E,1,4,1.0,127.9,M,0.0,M,,*4D
$GPRMC,032321,A,3943.444800,N,11619.242600,E,0.324,259.4,061118,,,A*7C
$GPGGA,03232100,3943.444800,N,11619.242600,E,1,4,1.0,127.4,M,0.0,M,,*4B
$GPRMC,032326,A,3943.445400,N,11619.243200,E,0.108,259.4,061118,,,A*7F
$GPGGA,03232600,3943.445400,N,11619.243200,E,1,4,1.0,126.9,M,0.0,M,,*48
$GPRMC,032331,A,3943.444800,N,11619.243200,E,0.270,259.4,061118,,,A*78
$GPGGA,03233100,3943.444800,N,11619.243200,E,1,4,1.0,126.7,M,0.0,M,,*4D
$GPRMC,032336,A,3943.444800,N,11619.242600,E,0.054,259.4,061118,,,A*7E
$GPGGA,03233600,3943.444800,N,11619.242600,E,1,4,1.0,126.2,M,0.0,M,,*4A
$GPRMC,032341,A,3943.444800,N,11619.242000,E,0.054,259.4,061118,,,A*78
$GPGGA,03234100,3943.444800,N,11619.242000,E,1,4,1.0,127.5,M,0.0,M,,*4A
$GPRMC,032346,A,3943.445400,N,11619.241400,E,0.270,259.4,061118,,,A*71
$GPGGA,03234600,3943.445400,N,11619.241400,E,1,4,1.0,127.2,M,0.0,M,,*40
$GPRMC,032351,A,3943.445400,N,11619.240800,E,0.108,259.4,061118,,,A*76
$GPGGA,03235100,3943.445400,N,11619.240800,E,1,4,1.0,127.1,M,0.0,M,,*48
$GPRMC,032356,A,3943.445400,N,11619.241400,E,0.054,259.4,061118,,,A*74
$GPGGA,03235600,3943.445400,N,11619.241400,E,1,4,1.0,127.0,M,0.0,M,,*43
$GPRMC,032401,A,3943.445400,N,11619.243800,E,0.540,259.4,061118,,,A*7F
$GPGGA,03240100,3943.445400,N,11619.243800,E,1,4,1.0,127.1,M,0.0,M,,*49
$GPRMC,032406,A,3943.445400,N,11619.244400,E,0.108,259.4,061118,,,A*7B
$GPGGA,03240600,3943.445400,N,11619.244400,E,1,4,1.0,127.1,M,0.0,M,,*45
$GPRMC,032411,A,3943.445400,N,11619.243800,E,0.054,259.4,061118,,,A*7E
$GPGGA,03241100,3943.445400,N,11619.243800,E,1,4,1.0,127.2,M,0.0,M,,*4B
$GPRMC,032416,A,3943.446000,N,11619.246200,E,0.432,259.4,061118,,,A*75
$GPGGA,03241600,3943.446000,N,11619.246200,E,1,4,1.0,127.2,M,0.0,M,,*44
$GPRMC,032421,A,3943.446000,N,11619.246800,E,0.540,259.4,061118,,,A*7F
$GPGGA,03242100,3943.446000,N,11619.246800,E,1,3,1.0,127.2,M,0.0,M,,*4D
$GPRMC,032426,A,3943.446000,N,11619.248000,E,0.486,259.4,061118,,,A*75
$GPGGA,03242600,3943.446000,N,11619.248000,E,1,3,1.0,127.2,M,0.0,M,,*4C
$GPRMC,032431,A,3943.446000,N,11619.249800,E,1.134,259.4,061118,,,A*77
$GPGGA,03243100,3943.446000,N,11619.249800,E,1,4,1.0,127.2,M,0.0,M,,*44
$GPRMC,032436,A,3943.444800,N,11619.246800,E,0.216,259.4,061118,,,A*77
$GPGGA,03243600,3943.444800,N,11619.246800,E,1,4,1.0,127.2,M,0.0,M,,*46
$GPRMC,032441,A,3943.444800,N,11619.248000,E,1.458,259.4,061118,,,A*7C
$GPGGA,03244100,3943.444800,N,11619.248000,E,1,4,1.0,127.3,M,0.0,M,,*41
$GPRMC,032447,A,3943.445400,N,11619.248600,E,0.972,259.4,061118,,,A*75
$GPGGA,03244700,3943.445400,N,11619.248600,E,1,4,1.0,127.3,M,0.0,M,,*4C
$GPRMC,032452,A,3943.445400,N,11619.245000,E,0.972,259.4,061118,,,A*7A
$GPGGA,03245200,3943.445400,N,11619.245000,E,1,4,1.0,127.3,M,0.0,M,,*43
$GPRMC,032457,A,3943.445400,N,11619.245600,E,0.162,259.4,061118,,,A*70
$GPGGA,03245700,3943.445400,N,11619.245600,E,1,4,1.0,127.2,M,0.0,M,,*41
$GPRMC,032502,A,3943.446000,N,11619.249800,E,1.674,259.4,061118,,,A*75
$GPGGA,03250200,3943.446000,N,11619.249800,E,1,4,1.0,127.2,M,0.0,M,,*45
$GPRMC,032507,A,3943.446600,N,11619.254000,E,1.782,259.4,061118,,,A*7A
$GPGGA,03250700,3943.446600,N,11619.254000,E,1,3,1.0,127.2,M,0.0,M,,*45
$GPRMC,032512,A,3943.446600,N,11619.251600,E,0.324,259.4,061118,,,A*74
$GPGGA,03251200,3943.446600,N,11619.251600,E,1,4,1.0,127.2,M,0.0,M,,*45
$GPRMC,032517,A,3943.446000,N,11619.249200,E,0.864,259.4,061118,,,A*75
$GPGGA,03251700,3943.446000,N,11619.249200,E,1,4,1.0,127.2,M,0.0,M,,*4B
$GPRMC,032522,A,3943.445400,N,11619.248000,E,0.648,259.4,061118,,,A*77
$GPGGA,03252200,3943.445400,N,11619.248000,E,1,4,1.0,127.2,M,0.0,M,,*49
$GPRMC,032527,A,3943.444800,N,11619.246200,E,0.918,259.4,061118,,,A*79
$GPGGA,03252700,3943.444800,N,11619.246200,E,1,4,1.0,127.2,M,0.0,M,,*4D
$GPRMC,032532,A,3943.444200,N,11619.245600,E,0.756,259.4,061118,,,A*74
$GPGGA,03253200,3943.444200,N,11619.245600,E,1,4,1.0,127.2,M,0.0,M,,*44
$GPRMC,032537,A,3943.443000,N,11619.244400,E,0.486,259.4,061118,,,A*79
$GPGGA,03253700,3943.443000,N,11619.244400,E,1,4,1.0,127.2,M,0.0,M,,*47
$GPRMC,032542,A,3943.442400,N,11619.243800,E,0.162,259.4,061118,,,A*7A
$GPGGA,03254200,3943.442400,N,11619.243800,E,1,4,1.0,127.1,M,0.0,M,,*48
$GPRMC,032547,A,3943.442400,N,11619.245000,E,0.540,259.4,061118,,,A*75
$GPGGA,03254700,3943.442400,N,11619.245000,E,1,4,1.0,127.1,M,0.0,M,,*43
$GPRMC,032552,A,3943.441200,N,11619.245600,E,0.324,259.4,061118,,,A*76
$GPGGA,03255200,3943.441200,N,11619.245600,E,1,4,1.0,127.1,M,0.0,M,,*44
$GPRMC,032557,A,3943.441800,N,11619.249200,E,1.350,259.4,061118,,,A*73
$GPGGA,03255700,3943.441800,N,11619.249200,E,1,3,1.0,127.1,M,0.0,M,,*44
$GPRMC,032602,A,3943.441800,N,11619.248600,E,1.026,259.4,061118,,,A*77
$GPGGA,03260200,3943.441800,N,11619.248600,E,1,4,1.0,127.1,M,0.0,M,,*45
$GPRMC,032607,A,3943.447200,N,11619.266600,E,6.587,71.9,061118,,,A*4E
$GPGGA,03260700,3943.447200,N,11619.266600,E,1,4,1.0,127.0,M,0.0,M,,*41
$GPRMC,032612,A,3943.446600,N,11619.260600,E,3.186,74.7,061118,,,A*42
$GPGGA,03261200,3943.446600,N,11619.260600,E,1,3,1.0,127.0,M,0.0,M,,*41
$GPRMC,032617,A,3943.446000,N,11619.254000,E,1.404,74.5,061118,,,A*4F
$GPGGA,03261700,3943.446000,N,11619.254000,E,1,3,1.0,127.0,M,0.0,M,,*43
$GPRMC,032622,A,3943.445400,N,11619.252800,E,1.944,74.5,061118,,,A*49
$GPGGA,03262200,3943.445400,N,11619.252800,E,1,3,1.0,127.0,M,0.0,M,,*4C
$GPRMC,032627,A,3943.445400,N,11619.249200,E,0.972,74.5,061118,,,A*48
$GPGGA,03262700,3943.445400,N,11619.249200,E,1,3,1.0,127.0,M,0.0,M,,*49
$GPRMC,032632,A,3943.444200,N,11619.243800,E,0.432,74.5,061118,,,A*42
$GPGGA,03263200,3943.444200,N,11619.243800,E,1,3,1.0,127.0,M,0.0,M,,*4A
$GPRMC,032637,A,3943.443600,N,11619.241400,E,0.648,74.5,061118,,,A*45
$GPGGA,03263700,3943.443600,N,11619.241400,E,1,3,1.0,127.0,M,0.0,M,,*42
$GPRMC,032642,A,3943.442400,N,11619.239600,E,0.324,74.5,061118,,,A*46
$GPGGA,03264200,3943.442400,N,11619.239600,E,1,3,1.0,127.0,M,0.0,M,,*4E
$GPRMC,032647,A,3943.441800,N,11619.240200,E,0.108,74.5,061118,,,A*4A
$GPGGA,03264700,3943.441800,N,11619.240200,E,1,3,1.0,127.0,M,0.0,M,,*4E
$GPRMC,032652,A,3943.441200,N,11619.240800,E,0.108,74.5,061118,,,A*4E
$GPGGA,03265200,3943.441200,N,11619.240800,E,1,4,1.0,127.0,M,0.0,M,,*4D
$GPRMC,032657,A,3943.441800,N,11619.245600,E,0.702,74.5,061118,,,A*46
$GPGGA,03265700,3943.441800,N,11619.245600,E,1,4,1.0,127.0,M,0.0,M,,*49
$GPRMC,032702,A,3943.441200,N,11619.246200,E,0.486,74.5,061118,,,A*45
$GPGGA,03270200,3943.441200,N,11619.246200,E,1,4,1.0,127.0,M,0.0,M,,*45
$GPRMC,032708,A,3943.440600,N,11619.243200,E,0.432,74.5,061118,,,A*40
$GPGGA,03270800,3943.440600,N,11619.243200,E,1,4,1.0,127.0,M,0.0,M,,*4F
$GPRMC,032713,A,3943.440000,N,11619.243800,E,0.108,74.5,061118,,,A*4A
$GPGGA,03271300,3943.440000,N,11619.243800,E,1,4,1.0,127.0,M,0.0,M,,*49
$GPRMC,032718,A,3943.439400,N,11619.245000,E,0.378,74.5,061118,,,A*40
$GPGGA,03271800,3943.439400,N,11619.245000,E,1,4,1.0,127.0,M,0.0,M,,*46
$GPRMC,032723,A,3943.438800,N,11619.243800,E,0.594,74.5,061118,,,A*4F
$GPGGA,03272300,3943.438800,N,11619.243800,E,1,4,1.0,127.0,M,0.0,M,,*4D
$GPRMC,032728,A,3943.437000,N,11619.242600,E,0.918,74.5,061118,,,A*44
$GPGGA,03272800,3943.437000,N,11619.242600,E,1,4,1.0,127.0,M,0.0,M,,*4E
$GPRMC,032733,A,3943.436400,N,11619.241400,E,0.864,74.5,061118,,,A*40
$GPGGA,03273300,3943.436400,N,11619.241400,E,1,4,1.0,127.0,M,0.0,M,,*40
$GPRMC,032738,A,3943.437000,N,11619.242000,E,0.270,74.5,061118,,,A*46
$GPGGA,03273800,3943.437000,N,11619.242000,E,1,4,1.0,127.0,M,0.0,M,,*49
$GPRMC,032743,A,3943.438200,N,11619.242600,E,0.756,74.5,061118,,,A*40
$GPGGA,03274300,3943.438200,N,11619.242600,E,1,4,1.0,126.9,M,0.0,M,,*46
$GPRMC,032748,A,3943.439400,N,11619.244400,E,0.648,74.5,061118,,,A*46
$GPGGA,03274800,3943.439400,N,11619.244400,E,1,4,1.0,126.8,M,0.0,M,,*4F
$GPRMC,032753,A,3943.440000,N,11619.245600,E,0.216,74.5,061118,,,A*4A
$GPGGA,03275300,3943.440000,N,11619.245600,E,1,3,1.0,126.8,M,0.0,M,,*4B
$GPRMC,032758,A,3943.440600,N,11619.246800,E,0.810,74.5,061118,,,A*46
$GPGGA,03275800,3943.440600,N,11619.246800,E,1,0,1.0,126.8,M,0.0,M,,*48
$GPRMC,032803,A,3943.440600,N,11619.243800,E,0.810,74.5,061118,,,A*42
$GPGGA,03280300,3943.440600,N,11619.243800,E,1,4,1.0,126.8,M,0.0,M,,*48
$GPRMC,032808,A,3943.440600,N,11619.242000,E,0.648,74.5,061118,,,A*43
$GPGGA,03280800,3943.440600,N,11619.242000,E,1,4,1.0,126.7,M,0.0,M,,*45
$GPRMC,032813,A,3943.440600,N,11619.242000,E,0.216,74.5,061118,,,A*46
$GPGGA,03281300,3943.440600,N,11619.242000,E,1,4,1.0,126.7,M,0.0,M,,*4F
$GPRMC,032818,A,3943.440600,N,11619.243200,E,0.540,74.5,061118,,,A*4A
$GPGGA,03281800,3943.440600,N,11619.243200,E,1,4,1.0,126.7,M,0.0,M,,*47
$GPRMC,032823,A,3943.440000,N,11619.240200,E,0.864,74.5,061118,,,A*4C
$GPGGA,03282300,3943.440000,N,11619.240200,E,1,4,1.0,126.7,M,0.0,M,,*4A
$GPRMC,032828,A,3943.440600,N,11619.240200,E,0.216,74.5,061118,,,A*4E
$GPGGA,03282800,3943.440600,N,11619.240200,E,1,4,1.0,126.6,M,0.0,M,,*46
$GPRMC,032833,A,3943.441200,N,11619.242600,E,0.594,74.5,061118,,,A*4A
$GPGGA,03283300,3943.441200,N,11619.242600,E,1,4,1.0,126.6,M,0.0,M,,*4F
$GPRMC,032838,A,3943.442400,N,11619.247400,E,1.242,78.9,061118,,,A*4E
$GPGGA,03283800,3943.442400,N,11619.247400,E,1,4,1.0,126.6,M,0.0,M,,*46
$GPRMC,032843,A,3943.443000,N,11619.248600,E,0.054,78.4,061118,,,A*43
$GPGGA,03284300,3943.443000,N,11619.248600,E,1,3,1.0,126.6,M,0.0,M,,*45
$GPRMC,032848,A,3943.443600,N,11619.249800,E,0.270,78.4,061118,,,A*45
$GPGGA,03284800,3943.443600,N,11619.249800,E,1,3,1.0,126.6,M,0.0,M,,*47
$GPRMC,032853,A,3943.444200,N,11619.251600,E,1.458,79.9,061118,,,A*4A
$GPGGA,03285300,3943.444200,N,11619.251600,E,1,4,1.0,126.6,M,0.0,M,,*4E
$GPRMC,032858,A,3943.444200,N,11619.254000,E,0.810,81.5,061118,,,A*48
$GPGGA,03285800,3943.444200,N,11619.254000,E,1,4,1.0,126.6,M,0.0,M,,*46
$GPRMC,032903,A,3943.444200,N,11619.259400,E,2.214,80.7,061118,,,A*41
$GPGGA,03290300,3943.444200,N,11619.259400,E,1,4,1.0,126.7,M,0.0,M,,*41
$GPRMC,032908,A,3943.445400,N,11619.267800,E,3.510,81.6,061118,,,A*4E
$GPGGA,03290800,3943.445400,N,11619.267800,E,1,4,1.0,126.8,M,0.0,M,,*43
$GPRMC,032913,A,3943.445400,N,11619.276200,E,3.348,81.4,061118,,,A*47
$GPGGA,03291300,3943.445400,N,11619.276200,E,1,4,1.0,127.0,M,0.0,M,,*4A
$GPRMC,032919,A,3943.446000,N,11619.279200,E,3.024,78.8,061118,,,A*46
$GPGGA,03291900,3943.446000,N,11619.279200,E,1,4,1.0,127.0,M,0.0,M,,*48
$GPRMC,032924,A,3943.446000,N,11619.279200,E,3.024,78.8,061118,,,A*48
$GPGGA,03292400,3943.446000,N,11619.279200,E,1,0,1.0,127.0,M,0.0,M,,*42
$GPRMC,032929,A,3943.444200,N,11619.264200,E,2.052,280.1,061118,,,A*75
$GPGGA,03292900,3943.444200,N,11619.264200,E,1,4,1.0,127.0,M,0.0,M,,*47
$GPRMC,032934,A,3943.443600,N,11619.251000,E,2.916,261.7,061118,,,A*7E
$GPGGA,03293400,3943.443600,N,11619.251000,E,1,3,1.0,127.0,M,0.0,M,,*4B
$GPRMC,032939,A,3943.443600,N,11619.249200,E,1.080,259.9,061118,,,A*78
$GPGGA,03293900,3943.443600,N,11619.249200,E,1,3,1.0,127.0,M,0.0,M,,*4D
$GPRMC,032944,A,3943.443600,N,11619.243800,E,0.702,259.9,061118,,,A*7E
$GPGGA,03294400,3943.443600,N,11619.243800,E,1,3,1.0,127.0,M,0.0,M,,*47
$GPRMC,032949,A,3943.443000,N,11619.238400,E,1.566,259.9,061118,,,A*74
$GPGGA,03294900,3943.443000,N,11619.238400,E,1,3,1.0,127.0,M,0.0,M,,*4C
$GPRMC,032954,A,3943.443000,N,11619.238400,E,0.864,259.9,061118,,,A*76
$GPGGA,03295400,3943.443000,N,11619.238400,E,1,3,1.0,127.0,M,0.0,M,,*40
$GPRMC,032959,A,3943.443000,N,11619.241400,E,0.432,259.9,061118,,,A*7A
$GPGGA,03295900,3943.443000,N,11619.241400,E,1,3,1.0,127.0,M,0.0,M,,*43
$GPRMC,033004,A,3943.443000,N,11619.240200,E,0.216,259.9,061118,,,A*7D
$GPGGA,03300400,3943.443000,N,11619.240200,E,1,4,1.0,127.0,M,0.0,M,,*43
$GPRMC,033009,A,3943.442400,N,11619.238400,E,0.324,259.9,061118,,,A*7C
$GPGGA,03300900,3943.442400,N,11619.238400,E,1,3,1.0,127.0,M,0.0,M,,*45
$GPRMC,033014,A,3943.442400,N,11619.236600,E,0.270,259.9,061118,,,A*7C
$GPGGA,03301400,3943.442400,N,11619.236600,E,1,4,1.0,127.0,M,0.0,M,,*42
$GPRMC,033019,A,3943.441200,N,11619.234200,E,1.836,259.9,061118,,,A*7B
$GPGGA,03301900,3943.441200,N,11619.234200,E,1,4,1.0,127.0,M,0.0,M,,*4C
$GPRMC,033024,A,3943.440000,N,11619.231200,E,1.998,259.9,061118,,,A*76
$GPGGA,03302400,3943.440000,N,11619.231200,E,1,0,1.0,127.0,M,0.0,M,,*40
$GPRMC,033029,A,3943.439400,N,11619.232400,E,0.594,259.9,061118,,,A*75
$GPGGA,03302900,3943.439400,N,11619.232400,E,1,4,1.0,127.0,M,0.0,M,,*46
$GPRMC,033034,A,3943.438800,N,11619.231200,E,0.756,259.9,061118,,,A*7D
$GPGGA,03303400,3943.438800,N,11619.231200,E,1,3,1.0,127.0,M,0.0,M,,*45
$GPRMC,033039,A,3943.437600,N,11619.226400,E,1.404,259.9,061118,,,A*74
$GPGGA,03303900,3943.437600,N,11619.226400,E,1,3,1.0,127.0,M,0.0,M,,*49
$GPRMC,033044,A,3943.435800,N,11619.223400,E,1.242,259.9,061118,,,A*73
$GPGGA,03304400,3943.435800,N,11619.223400,E,1,3,1.0,127.0,M,0.0,M,,*4A
$GPRMC,033049,A,3943.433400,N,11619.218600,E,1.998,259.9,061118,,,A*72
$GPGGA,03304900,3943.433400,N,11619.218600,E,1,3,1.0,127.0,M,0.0,M,,*47
$GPRMC,033054,A,3943.431600,N,11619.215000,E,1.782,259.9,061118,,,A*70
$GPGGA,03305400,3943.431600,N,11619.215000,E,1,3,1.0,127.0,M,0.0,M,,*40
$GPRMC,033059,A,3943.429800,N,11619.212600,E,1.782,259.9,061118,,,A*7B
$GPGGA,03305900,3943.429800,N,11619.212600,E,1,4,1.0,127.0,M,0.0,M,,*4C
$GPRMC,033104,A,3943.431000,N,11619.220400,E,1.188,259.9,061118,,,A*7C
$GPGGA,03310400,3943.431000,N,11619.220400,E,1,4,1.0,127.0,M,0.0,M,,*47
$GPRMC,033109,A,3943.432800,N,11619.228200,E,0.648,259.9,061118,,,A*7E
$GPGGA,03310900,3943.432800,N,11619.228200,E,1,4,1.0,127.0,M,0.0,M,,*4F
$GPRMC,033114,A,3943.435200,N,11619.234200,E,0.702,259.9,061118,,,A*7D
$GPGGA,03311400,3943.435200,N,11619.234200,E,1,4,1.0,127.0,M,0.0,M,,*43
$GPRMC,033119,A,3943.435800,N,11619.236600,E,0.108,259.9,061118,,,A*70
$GPGGA,03311900,3943.435800,N,11619.236600,E,1,4,1.0,127.0,M,0.0,M,,*42
$GPRMC,033124,A,3943.435200,N,11619.240200,E,0.486,259.9,061118,,,A*72
$GPGGA,03312400,3943.435200,N,11619.240200,E,1,4,1.0,127.0,M,0.0,M,,*43
$GPRMC,033130,A,3943.435800,N,11619.245600,E,0.864,259.9,061118,,,A*7C
$GPGGA,03313000,3943.435800,N,11619.245600,E,1,4,1.0,127.0,M,0.0,M,,*4D
$GPRMC,033135,A,3943.435800,N,11619.246200,E,0.162,259.9,061118,,,A*71
$GPGGA,03313500,3943.435800,N,11619.246200,E,1,0,1.0,127.0,M,0.0,M,,*4B
$GPRMC,033140,A,3943.436400,N,11619.247400,E,0.432,259.9,061118,,,A*7B
$GPGGA,03314000,3943.436400,N,11619.247400,E,1,4,1.0,127.0,M,0.0,M,,*45
$GPRMC,033145,A,3943.435200,N,11619.247400,E,0.324,259.9,061118,,,A*7B
$GPGGA,03314500,3943.435200,N,11619.247400,E,1,3,1.0,127.0,M,0.0,M,,*42
$GPRMC,033150,A,3943.432200,N,11619.243800,E,1.458,259.9,061118,,,A*7D
$GPGGA,03315000,3943.432200,N,11619.243800,E,1,3,1.0,127.0,M,0.0,M,,*49
$GPRMC,033155,A,3943.432200,N,11619.240200,E,1.296,259.9,061118,,,A*75
$GPGGA,03315500,3943.432200,N,11619.240200,E,1,3,1.0,127.0,M,0.0,M,,*45
$GPRMC,033203,A,3943.443000,N,11619.226400,E,4.914,259.9,061118,,,A*73
$GPGGA,03320300,3943.443000,N,11619.226400,E,1,0,1.0,127.0,M,0.0,M,,*44
$GPRMC,033213,A,3943.461000,N,11619.221000,E,6.965,259.9,061118,,,A*75
$GPGGA,03321300,3943.461000,N,11619.221000,E,1,0,1.0,127.0,M,0.0,M,,*46
$GPRMC,033228,A,3943.433400,N,11619.216800,E,5.292,259.9,061118,,,A*72
$GPGGA,03322800,3943.433400,N,11619.216800,E,1,0,1.0,127.0,M,0.0,M,,*41
$GPRMC,033233,A,3943.435200,N,11619.215000,E,3.780,259.9,061118,,,A*73
$GPGGA,03323300,3943.435200,N,11619.215000,E,1,4,1.0,95.4,M,0.0,M,,*78
$GPRMC,033238,A,3943.441200,N,11619.222200,E,5.886,38.4,061118,,,A*4A
$GPGGA,03323800,3943.441200,N,11619.222200,E,1,4,1.0,60.7,M,0.0,M,,*7F
$GPRMC,033243,A,3943.435800,N,11619.216800,E,2.484,42.5,061118,,,A*47
$GPGGA,03324300,3943.435800,N,11619.216800,E,1,3,1.0,88.2,M,0.0,M,,*73
$GPRMC,033248,A,3943.438800,N,11619.214400,E,2.268,42.5,061118,,,A*4B
$GPGGA,03324800,3943.438800,N,11619.214400,E,1,4,1.0,85.4,M,0.0,M,,*77
$GPRMC,033253,A,3943.441200,N,11619.227600,E,1.620,42.5,061118,,,A*4C
$GPGGA,03325300,3943.441200,N,11619.227600,E,1,4,1.0,85.4,M,0.0,M,,*7B
$GPRMC,033258,A,3943.443000,N,11619.234200,E,2.592,42.5,061118,,,A*48
$GPGGA,03325800,3943.443000,N,11619.234200,E,1,4,1.0,82.6,M,0.0,M,,*73
$GPRMC,033303,A,3943.441200,N,11619.237800,E,3.240,42.5,061118,,,A*47
$GPGGA,03330300,3943.441200,N,11619.237800,E,1,4,1.0,89.1,M,0.0,M,,*79
$GPRMC,033308,A,3943.439400,N,11619.237800,E,1.080,42.5,061118,,,A*49
$GPGGA,03330800,3943.439400,N,11619.237800,E,1,4,1.0,94.2,M,0.0,M,,*74
$GPRMC,033313,A,3943.441200,N,11619.244400,E,1.080,42.5,061118,,,A*42
$GPGGA,03331300,3943.441200,N,11619.244400,E,1,4,1.0,91.4,M,0.0,M,,*7C
$GPRMC,033318,A,3943.443600,N,11619.248000,E,0.972,42.5,061118,,,A*42
$GPGGA,03331800,3943.443600,N,11619.248000,E,1,4,1.0,87.2,M,0.0,M,,*78
$GPRMC,033323,A,3943.444200,N,11619.249800,E,0.864,42.5,061118,,,A*46
$GPGGA,03332300,3943.444200,N,11619.249800,E,1,4,1.0,82.9,M,0.0,M,,*74
$GPRMC,033328,A,3943.445400,N,11619.252200,E,1.242,42.5,061118,,,A*45
$GPGGA,03332800,3943.445400,N,11619.252200,E,1,4,1.0,75.0,M,0.0,M,,*79
$GPRMC,033333,A,3943.445400,N,11619.252200,E,1.296,42.5,061118,,,A*46
$GPGGA,03333300,3943.445400,N,11619.252200,E,1,4,1.0,68.2,M,0.0,M,,*7D
$GPRMC,033338,A,3943.446000,N,11619.253400,E,0.864,42.5,061118,,,A*4B
$GPGGA,03333800,3943.446000,N,11619.253400,E,1,4,1.0,64.0,M,0.0,M,,*78
$GPRMC,033343,A,3943.446600,N,11619.254600,E,0.432,42.5,061118,,,A*4B
$GPGGA,03334300,3943.446600,N,11619.254600,E,1,4,1.0,58.6,M,0.0,M,,*7E
$GPRMC,033348,A,3943.447200,N,11619.254000,E,0.162,42.5,061118,,,A*43
$GPGGA,03334800,3943.447200,N,11619.254000,E,1,4,1.0,55.5,M,0.0,M,,*78
$GPRMC,033353,A,3943.448400,N,11619.255200,E,0.432,42.5,061118,,,A*43
$GPGGA,03335300,3943.448400,N,11619.255200,E,1,4,1.0,52.1,M,0.0,M,,*7B
$GPRMC,033358,A,3943.447800,N,11619.254000,E,0.702,42.5,061118,,,A*48
$GPGGA,03335800,3943.447800,N,11619.254000,E,1,4,1.0,55.8,M,0.0,M,,*7E
$GPRMC,033403,A,3943.447200,N,11619.254000,E,1.026,42.5,061118,,,A*4B
$GPGGA,03340300,3943.447200,N,11619.254000,E,1,4,1.0,62.5,M,0.0,M,,*74
$GPRMC,033408,A,3943.446600,N,11619.253400,E,1.782,42.5,061118,,,A*4F
$GPGGA,03340800,3943.446600,N,11619.253400,E,1,4,1.0,69.2,M,0.0,M,,*75
$GPRMC,033413,A,3943.445400,N,11619.250400,E,1.134,42.5,061118,,,A*4C
$GPGGA,03341300,3943.445400,N,11619.250400,E,1,4,1.0,82.3,M,0.0,M,,*79
$GPRMC,033418,A,3943.443000,N,11619.246800,E,1.728,284.0,061118,,,A*78
$GPGGA,03341800,3943.443000,N,11619.246800,E,1,4,1.0,96.3,M,0.0,M,,*7E
$GPRMC,033423,A,3943.443000,N,11619.248000,E,0.486,284.0,061118,,,A*70
$GPGGA,03342300,3943.443000,N,11619.248000,E,1,4,1.0,99.8,M,0.0,M,,*74
$GPRMC,033428,A,3943.444200,N,11619.249800,E,0.486,284.0,061118,,,A*77
$GPGGA,03342800,3943.444200,N,11619.249800,E,1,4,1.0,94.8,M,0.0,M,,*7E
$GPRMC,033433,A,3943.443600,N,11619.250400,E,1.134,284.0,061118,,,A*77
$GPGGA,03343300,3943.443600,N,11619.250400,E,1,4,1.0,99.1,M,0.0,M,,*77
$GPRMC,033438,A,3943.441800,N,11619.248000,E,2.052,284.0,061118,,,A*7F
$GPGGA,03343800,3943.441800,N,11619.248000,E,1,4,1.0,105.0,M,0.0,M,,*48
$GPRMC,033444,A,3943.438800,N,11619.243200,E,1.890,261.5,061118,,,A*78
$GPGGA,03344400,3943.438800,N,11619.243200,E,1,4,1.0,115.5,M,0.0,M,,*40
$GPRMC,033449,A,3943.438800,N,11619.243800,E,0.594,261.5,061118,,,A*77
$GPGGA,03344900,3943.438800,N,11619.243800,E,1,4,1.0,114.3,M,0.0,M,,*40
$GPRMC,033454,A,3943.438200,N,11619.245000,E,2.646,261.5,061118,,,A*71
$GPGGA,03345400,3943.438200,N,11619.245000,E,1,4,1.0,113.7,M,0.0,M,,*4B
$GPRMC,033459,A,3943.438800,N,11619.249800,E,1.512,261.5,061118,,,A*73
$GPGGA,03345900,3943.438800,N,11619.249800,E,1,3,1.0,105.7,M,0.0,M,,*48
$GPRMC,033504,A,3943.435800,N,11619.251000,E,2.646,261.5,061118,,,A*77
$GPGGA,03350400,3943.435800,N,11619.251000,E,1,3,1.0,111.3,M,0.0,M,,*4C
$GPRMC,033509,A,3943.432800,N,11619.251000,E,2.052,261.5,061118,,,A*7E
$GPGGA,03350900,3943.432800,N,11619.251000,E,1,3,1.0,111.0,M,0.0,M,,*45
$GPRMC,033514,A,3943.433400,N,11619.251600,E,2.862,261.5,061118,,,A*72
$GPGGA,03351400,3943.433400,N,11619.251600,E,1,3,1.0,110.6,M,0.0,M,,*45
$GPRMC,033519,A,3943.434600,N,11619.249800,E,1.566,261.5,061118,,,A*77
$GPGGA,03351900,3943.434600,N,11619.249800,E,1,3,1.0,110.4,M,0.0,M,,*48
$GPRMC,033524,A,3943.429800,N,11619.243800,E,4.212,261.5,061118,,,A*70
$GPGGA,03352400,3943.429800,N,11619.243800,E,1,3,1.0,110.3,M,0.0,M,,*49
$GPRMC,033529,A,3943.432200,N,11619.243800,E,0.432,261.5,061118,,,A*7D
$GPGGA,03352900,3943.432200,N,11619.243800,E,1,3,1.0,110.1,M,0.0,M,,*46
$GPRMC,033534,A,3943.431600,N,11619.244400,E,1.944,261.5,061118,,,A*70
$GPGGA,03353400,3943.431600,N,11619.244400,E,1,0,1.0,110.1,M,0.0,M,,*45
$GPRMC,033539,A,3943.440000,N,11619.256400,E,5.670,261.5,061118,,,A*72
$GPGGA,03353900,3943.440000,N,11619.256400,E,1,3,1.0,109.9,M,0.0,M,,*48
$GPRMC,033544,A,3943.445400,N,11619.253400,E,2.808,261.5,061118,,,A*7A
$GPGGA,03354400,3943.445400,N,11619.253400,E,1,3,1.0,109.9,M,0.0,M,,*46
$GPRMC,033549,A,3943.445400,N,11619.252200,E,2.214,261.5,061118,,,A*77
$GPGGA,03354900,3943.445400,N,11619.252200,E,1,3,1.0,109.8,M,0.0,M,,*4D
$GPRMC,033554,A,3943.447800,N,11619.252200,E,1.944,261.5,061118,,,A*78
$GPGGA,03355400,3943.447800,N,11619.252200,E,1,3,1.0,109.8,M,0.0,M,,*4F
$GPRMC,033559,A,3943.446000,N,11619.238400,E,9.395,270.3,061118,,,A*7E
$GPGGA,03355900,3943.446000,N,11619.238400,E,1,3,1.0,109.8,M,0.0,M,,*41
$GPRMC,033604,A,3943.443600,N,11619.228800,E,10.097,265.5,061118,,,A*40
$GPGGA,03360400,3943.443600,N,11619.228800,E,1,0,1.0,109.7,M,0.0,M,,*48
$GPRMC,033611,A,3943.436400,N,11619.189800,E,10.907,256.8,061118,,,A*41
$GPGGA,03361100,3943.436400,N,11619.189800,E,1,0,1.0,109.7,M,0.0,M,,*44
$GPRMC,033616,A,3943.435800,N,11619.156800,E,14.849,267.6,061118,,,A*48
$GPGGA,03361600,3943.435800,N,11619.156800,E,1,3,1.0,109.6,M,0.0,M,,*4C
$GPRMC,033621,A,3943.416000,N,11619.068600,E,30.454,259.2,061118,,,A*48
$GPGGA,03362100,3943.416000,N,11619.068600,E,1,4,1.0,109.2,M,0.0,M,,*40
$GPRMC,033626,A,3943.396800,N,11618.987000,E,38.121,255.3,061118,,,A*45
$GPGGA,03362600,3943.396800,N,11618.987000,E,1,4,1.0,109.1,M,0.0,M,,*4C
$GPRMC,033631,A,3943.392000,N,11618.967200,E,41.091,256.2,061118,,,A*45
$GPGGA,03363100,3943.392000,N,11618.967200,E,1,0,1.0,109.0,M,0.0,M,,*4F
$GPRMC,033639,A,3943.390200,N,11619.037400,E,1.296,256.2,061118,,,A*77
$GPGGA,03363900,3943.390200,N,11619.037400,E,1,4,1.0,109.0,M,0.0,M,,*48
$GPRMC,033644,A,3943.425600,N,11619.184400,E,10.745,55.0,061118,,,A*71
$GPGGA,03364400,3943.425600,N,11619.184400,E,1,4,1.0,122.8,M,0.0,M,,*47
$GPRMC,033649,A,3943.428000,N,11619.198800,E,4.914,61.4,061118,,,A*4A
$GPGGA,03364900,3943.428000,N,11619.198800,E,1,3,1.0,126.9,M,0.0,M,,*42
$GPRMC,033658,A,3943.431000,N,11619.212000,E,3.564,61.4,061118,,,A*47
$GPGGA,03365800,3943.431000,N,11619.212000,E,1,0,1.0,126.9,M,0.0,M,,*40
$GPRMC,033703,A,3943.429800,N,11619.204800,E,2.160,61.4,061118,,,A*47
$GPGGA,03370300,3943.429800,N,11619.204800,E,1,3,1.0,122.9,M,0.0,M,,*46
$GPRMC,033708,A,3943.430400,N,11619.209000,E,1.728,61.4,061118,,,A*44
$GPGGA,03370800,3943.430400,N,11619.209000,E,1,4,1.0,121.5,M,0.0,M,,*44
$GPRMC,033713,A,3943.437600,N,11619.234200,E,0.270,61.4,061118,,,A*4E
$GPGGA,03371300,3943.437600,N,11619.234200,E,1,4,1.0,132.5,M,0.0,M,,*45
$GPRMC,033718,A,3943.438800,N,11619.245000,E,1.080,61.4,061118,,,A*4C
$GPGGA,03371800,3943.438800,N,11619.245000,E,1,4,1.0,129.9,M,0.0,M,,*4D
$GPRMC,033723,A,3943.438800,N,11619.243800,E,2.808,330.4,061118,,,A*76
$GPGGA,03372300,3943.438800,N,11619.243800,E,1,4,1.0,126.2,M,0.0,M,,*4F
$GPRMC,033728,A,3943.440000,N,11619.246200,E,1.242,26.5,061118,,,A*47
$GPGGA,03372800,3943.440000,N,11619.246200,E,1,3,1.0,122.5,M,0.0,M,,*48
$GPRMC,033733,A,3943.441200,N,11619.246800,E,1.620,26.5,061118,,,A*44
$GPGGA,03373300,3943.441200,N,11619.246800,E,1,4,1.0,119.3,M,0.0,M,,*42
$GPRMC,033738,A,3943.440600,N,11619.246200,E,1.566,26.5,061118,,,A*41
$GPGGA,03373800,3943.440600,N,11619.246200,E,1,3,1.0,119.1,M,0.0,M,,*43
$GPRMC,033743,A,3943.440600,N,11619.249800,E,3.672,68.7,061118,,,A*44
$GPGGA,03374300,3943.440600,N,11619.249800,E,1,4,1.0,118.9,M,0.0,M,,*44
$GPRMC,033748,A,3943.441200,N,11619.259400,E,3.132,72.4,061118,,,A*4C
$GPGGA,03374800,3943.441200,N,11619.259400,E,1,3,1.0,125.9,M,0.0,M,,*4E
$GPRMC,033753,A,3943.438200,N,11619.247400,E,3.294,72.4,061118,,,A*48
$GPGGA,03375300,3943.438200,N,11619.247400,E,1,4,1.0,122.1,M,0.0,M,,*4D
$GPRMC,033758,A,3943.438800,N,11619.241400,E,1.296,72.4,061118,,,A*4F
$GPGGA,03375800,3943.438800,N,11619.241400,E,1,3,1.0,119.2,M,0.0,M,,*46
